property_id,transaction_id,address,zipcode,ypred,list,url,lat,long,date_listed,transaction_date
8987246,23839497,"5830 E Calle Mexico, Guadalupe, AZ 85283 ",85283,0.003902468611859219,210000,https://www.zillow.com/homedetails/5830-E-Calle-Mexico-Guadalupe-AZ-85283/8138359_zpid/,33.366,-111.959,2017-11-09,2017-11-09
215329,22594254,"1402 E Mescal St, Phoenix, AZ 85020 ",85020,0.001976903175501196,249900,https://www.zillow.com/homedetails/1402-E-Mescal-St-Phoenix-AZ-85020/63200956_zpid/,33.5873,-112.052,2017-08-27,2017-08-27
9024660,23847905,"20 Hillside Dr, Saint Johns, AZ 85936 ",85936,0.0019528241664471722,69000,https://www.zillow.com/homedetails/20-Hillside-Dr-Saint-Johns-AZ-85936/7354311_zpid/,33.6469,-112.059,2017-11-22,2017-11-22
214915,23849568,"1336 E Becker Ln, Phoenix, AZ 85020 ",85020,0.001921620944041548,228500,https://www.zillow.com/homedetails/1336-E-Becker-Ln-Phoenix-AZ-85020/7785603_zpid/,33.5832,-112.053,2017-12-04,2017-12-04
205089,23847238,"1004 E Pueblo Rd, Phoenix, AZ 85020 ",85020,0.001904796935170817,170000,https://www.zillow.com/homedetails/1004-E-Pueblo-Rd-Phoenix-AZ-85020/7790802_zpid/,33.5519,-112.061,2017-12-01,2017-12-01
224538,23818658,"14264 N 33rd Ave, Phoenix, AZ 85053 ",85053,0.0013649456182582335,244900,https://www.zillow.com/homedetails/14264-N-33rd-Ave-Phoenix-AZ-85053/7943194_zpid/,33.6163,-112.12899999999999,2017-11-02,2017-11-02
8982670,23842974,"1934 N Iowa St, Chandler, AZ 85225 ",85225,0.0012737989322297847,212500,https://www.zillow.com/homedetails/1934-N-Iowa-St-Chandler-AZ-85225/8182675_zpid/,33.3331,-111.85,2017-11-27,2017-11-27
229518,23847356,"16414 N 30th Dr, Phoenix, AZ 85053 ",85053,0.0011538697221141053,233900,https://www.zillow.com/homedetails/16414-N-30th-Dr-Phoenix-AZ-85053/7954069_zpid/,33.6359,-112.125,2017-12-01,2017-12-01
226936,23833915,"15039 N 30th Dr, Phoenix, AZ 85053 ",85053,0.0011470551682451154,187999,https://www.zillow.com/homedetails/15039-N-30th-Dr-Phoenix-AZ-85053/7952779_zpid/,33.6227,-112.124,2017-11-09,2017-11-09
227559,23843808,"15221 N 28th Dr, Phoenix, AZ 85053 ",85053,0.0011163916547622288,209900,https://www.zillow.com/homedetails/15221-N-28th-Dr-Phoenix-AZ-85053/7942595_zpid/,33.6243,-112.119,2017-11-29,2017-11-29
1096718,23832148,"884 W Dublin St, Chandler, AZ 85225 ",85225,0.0010999140073629109,235000,https://www.zillow.com/homedetails/884-W-Dublin-St-Chandler-AZ-85225/8186411_zpid/,33.3188,-111.85799999999999,2017-11-13,2017-11-13
236870,23834077,"2935 W Port Royale Ln, Phoenix, AZ 85053 ",85053,0.001087256351815215,224999,https://www.zillow.com/homedetails/2935-W-Port-Royale-Ln-Phoenix-AZ-85053/7952708_zpid/,33.6219,-112.12200000000001,2017-11-14,2017-11-14
1075269,23849641,"1803 N Cheri Lynn Dr, Chandler, AZ 85225 ",85225,0.001080316579723174,229900,https://www.zillow.com/homedetails/1803-N-Cheri-Lynn-Dr-Chandler-AZ-85225/8183501_zpid/,33.3321,-111.853,2017-12-07,2017-12-07
249764,23834130,"3554 W Hearn Rd, Phoenix, AZ 85053 ",85053,0.0010624498410314856,249900,https://www.zillow.com/homedetails/3554-W-Hearn-Rd-Phoenix-AZ-85053/7944500_zpid/,33.6149,-112.13600000000001,2017-11-10,2017-11-10
9022987,23843142,"503 W Harrison St, Chandler, AZ 85225 ",85225,0.0010412717863462699,248000,https://www.zillow.com/homedetails/503-W-Harrison-St-Chandler-AZ-85225/8187045_zpid/,33.3166,-111.84899999999999,2017-11-27,2017-11-27
1880517,23843270,"844 W Harrison St, Chandler, AZ 85225 ",85225,0.0010259846141768526,225000,https://www.zillow.com/homedetails/844-W-Harrison-St-Chandler-AZ-85225/8186376_zpid/,33.3168,-111.85600000000001,2017-11-20,2017-11-20
1090459,23810641,"631 W Caroline Ln, Chandler, AZ 85225 ",85225,0.000991580451475071,230000,https://www.zillow.com/homedetails/631-W-Caroline-Ln-Chandler-AZ-85225/8183658_zpid/,33.3304,-111.851,2017-10-27,2017-10-27
1092802,23820224,"731 W Palomino Dr, Chandler, AZ 85225 ",85225,0.0009642397330078924,245900,https://www.zillow.com/homedetails/731-W-Palomino-Dr-Chandler-AZ-85225/8177603_zpid/,33.3404,-111.855,2017-11-03,2017-11-03
1095696,23832151,"856 W Monterey St, Chandler, AZ 85225 ",85225,0.0009546234814137638,245900,https://www.zillow.com/homedetails/856-W-Monterey-St-Chandler-AZ-85225/8186284_zpid/,33.315,-111.85700000000001,2017-11-13,2017-11-13
423007,23831139,"8427 N 47th Dr, Glendale, AZ 85302 ",85302,0.0009177883696546927,249999,https://www.zillow.com/homedetails/8427-N-47th-Dr-Glendale-AZ-85302/7731867_zpid/,33.5593,-112.161,2017-11-13,2017-11-13
255186,23834170,"4022 W Dailey St, Phoenix, AZ 85053 ",85053,0.0009059913738864857,239500,https://www.zillow.com/homedetails/4022-W-Dailey-St-Phoenix-AZ-85053/7945098_zpid/,33.6135,-112.146,2017-11-15,2017-11-15
227536,22735776,"15219 N 37th Ave, Phoenix, AZ 85053 ",85053,0.0008902770986846236,219000,https://www.zillow.com/homedetails/15219-N-37th-Ave-Phoenix-AZ-85053/7944373_zpid/,33.6242,-112.137,2017-09-22,2017-09-22
239765,21170292,"3054 W Acoma Dr, Phoenix, AZ 85053 ",85053,0.0008772706279533456,198500,http://www.zillow.com/homedetails/3054-W-Acoma-Dr-Phoenix-AZ-85053/7942812_zpid/,33.6179,-112.125,2017-03-04,2017-03-04
254974,23837939,"3950 W Hearn Rd, Phoenix, AZ 85053 ",85053,0.0008730944618188125,227900,https://www.zillow.com/homedetails/3950-W-Hearn-Rd-Phoenix-AZ-85053/7945048_zpid/,33.6148,-112.145,2017-11-17,2017-11-17
234640,23785215,"2751 W Acoma Dr, Phoenix, AZ 85053 ",85053,0.0008624261008365058,210000,https://www.zillow.com/homedetails/2751-W-Acoma-Dr-Phoenix-AZ-85053/7942788_zpid/,33.6166,-112.12,2017-03-15,2017-03-15
250889,23830838,"3634 W Banff Ln, Phoenix, AZ 85053 ",85053,0.0008436782723512587,243000,https://www.zillow.com/homedetails/3634-W-Banff-Ln-Phoenix-AZ-85053/7944164_zpid/,33.621,-112.137,2017-11-14,2017-11-14
247778,23835118,"3436 W Acoma Dr, Phoenix, AZ 85053 ",85053,0.0008368274625652782,229900,https://www.zillow.com/homedetails/3436-W-Acoma-Dr-Phoenix-AZ-85053/7943333_zpid/,33.6178,-112.133,2017-11-16,2017-11-16
253834,23843096,"3833 W Waltann Ln, Phoenix, AZ 85053 ",85053,0.0008133752756799558,234900,https://www.zillow.com/homedetails/3833-W-Waltann-Ln-Phoenix-AZ-85053/7945786_zpid/,33.6268,-112.14200000000001,2017-11-27,2017-11-27
9021795,23822865,"747 W Rosal Pl, Chandler, AZ 85225 ",85225,0.0008095344279522586,249800,https://www.zillow.com/homedetails/747-W-Rosal-Pl-Chandler-AZ-85225/8177685_zpid/,33.3412,-111.855,2017-11-07,2017-11-07
221510,23818673,"9825 N 2nd St, Phoenix, AZ 85020 ",85020,0.0007960872915286189,225000,https://www.zillow.com/homedetails/9825-N-2nd-St-Phoenix-AZ-85020/7788442_zpid/,33.5762,-112.072,2017-11-02,2017-11-02
252997,23822096,"3801 W Tierra Buena Ln, Phoenix, AZ 85053 ",85053,0.0007923580155114878,245000,https://www.zillow.com/homedetails/3801-W-Tierra-Buena-Ln-Phoenix-AZ-85053/7945818_zpid/,33.6286,-112.14,2017-11-06,2017-11-06
229177,23837049,"16266 N 29th Dr, Phoenix, AZ 85053 ",85053,0.0007726495879562654,230000,https://www.zillow.com/homedetails/16266-N-29th-Dr-Phoenix-AZ-85053/7954095_zpid/,33.6336,-112.12200000000001,2017-11-16,2017-11-16
215717,23823649,"1509 E Mountain View Rd, Phoenix, AZ 85020 ",85020,0.0007692561055607728,205000,https://www.zillow.com/homedetails/1509-E-Mountain-View-Rd-Phoenix-AZ-85020/7786813_zpid/,33.5746,-112.05,2017-11-08,2017-11-08
256392,23822269,"4228 W Hearn Rd, Phoenix, AZ 85053 ",85053,0.0007682359145944684,229500,https://www.zillow.com/homedetails/4228-W-Hearn-Rd-Phoenix-AZ-85053/7944988_zpid/,33.6147,-112.15100000000001,2017-11-05,2017-11-05
221019,23830912,"9232 N 14th St, Phoenix, AZ 85020 ",85020,0.0007677501953836981,149900,https://www.zillow.com/homedetails/9232-N-14th-St-Phoenix-AZ-85020/7787085_zpid/,33.5706,-112.053,2017-11-09,2017-11-09
220035,23846647,"833 E Seldon Ln, Phoenix, AZ 85020 ",85020,0.0007641657106635095,215000,https://www.zillow.com/homedetails/833-E-Seldon-Ln-Phoenix-AZ-85020/7789529_zpid/,33.561,-112.06200000000001,2017-11-30,2017-11-30
221325,23840148,"9625 N 2nd St, Phoenix, AZ 85020 ",85020,0.0007597270330120544,168000,https://www.zillow.com/homedetails/9625-N-2nd-St-Phoenix-AZ-85020/7788559_zpid/,33.5743,-112.072,2017-11-21,2017-11-21
1665598,23827301,"17430 N Lime Rock Dr, Sun City, AZ 85373 ",85373,0.0007568620274020266,225000,https://www.zillow.com/homedetails/17430-N-Lime-Rock-Dr-Sun-City-AZ-85373/7898027_zpid/,33.6431,-112.265,2017-11-08,2017-11-08
256281,23819820,"4218 W Boca Raton Rd, Phoenix, AZ 85053 ",85053,0.0007554313348946297,168000,https://www.zillow.com/homedetails/4218-W-Boca-Raton-Rd-Phoenix-AZ-85053/7945462_zpid/,33.6112,-112.15,2017-11-03,2017-11-03
221514,23819824,"9826 N 1st St, Phoenix, AZ 85020 ",85020,0.00074805107646141,229890,https://www.zillow.com/homedetails/9826-N-1st-St-Phoenix-AZ-85020/7788481_zpid/,33.5762,-112.073,2017-11-03,2017-11-03
220511,22736827,"8820 N 6th St, Phoenix, AZ 85020 ",85020,0.0007451364465138412,162500,https://www.zillow.com/homedetails/8820-N-6th-St-Phoenix-AZ-85020/7793853_zpid/,33.5648,-112.06700000000001,2017-07-28,2017-07-28
217475,23849198,"520 E Orchid Ln, Phoenix, AZ 85020 ",85020,0.0007327257200809143,219900,https://www.zillow.com/homedetails/520-E-Orchid-Ln-Phoenix-AZ-85020/7793796_zpid/,33.562,-112.06700000000001,2017-12-02,2017-12-02
422815,23843266,"8324 N 56th Ln, Glendale, AZ 85302 ",85302,0.0007320972486985632,240000,https://www.zillow.com/homedetails/8324-N-56th-Ln-Glendale-AZ-85302/7732897_zpid/,33.5576,-112.181,2017-11-28,2017-11-28
246567,22745687,"3407 W Port Au Prince Ln, Phoenix, AZ 85053 ",85053,0.0007317019625347932,175000,https://www.zillow.com/homedetails/3407-W-Port-Au-Prince-Ln-Phoenix-AZ-85053/7943671_zpid/,33.6229,-112.132,2017-10-09,2017-10-09
224188,23754064,"14213 N 35th Dr, Phoenix, AZ 85053 ",85053,0.0007262962957422241,200000,https://www.zillow.com/homedetails/14213-N-35th-Dr-Phoenix-AZ-85053/7944539_zpid/,33.6154,-112.135,2017-10-16,2017-10-16
219462,23818678,"811 E Diana Ave, Phoenix, AZ 85020 ",85020,0.0007251313346383306,219000,https://www.zillow.com/homedetails/811-E-Diana-Ave-Phoenix-AZ-85020/7789582_zpid/,33.5625,-112.06299999999999,2017-11-02,2017-11-02
221575,23843969,"9841 N 11th St, Phoenix, AZ 85020 ",85020,0.0007202684058631366,169900,https://www.zillow.com/homedetails/9841-N-11th-St-Phoenix-AZ-85020/7787496_zpid/,33.5764,-112.059,2017-11-29,2017-11-29
139696,23836139,"9423 W Willowbrook Dr, Sun City, AZ 85373 ",85373,0.0007161345060285933,209900,https://www.zillow.com/homedetails/9423-W-Willowbrook-Dr-Sun-City-AZ-85373/7897827_zpid/,33.6478,-112.262,2017-11-16,2017-11-16
1665023,22711430,"17403 N Hitching Post Dr, Sun City, AZ 85373 ",85373,0.0007160872296269222,243000,https://www.zillow.com/homedetails/17403-N-Hitching-Post-Dr-Sun-City-AZ-85373/7898070_zpid/,33.6412,-112.266,2017-09-22,2017-09-22
21687,23821796,"8810 N 6th Pl, Phoenix, AZ 85020 ",85020,0.0007159991902541851,200000,https://www.zillow.com/homedetails/8810-N-6th-Pl-Phoenix-AZ-85020/7793867_zpid/,33.5646,-112.066,2017-11-03,2017-11-03
1665351,23819526,"17415 N Country Club Dr, Sun City, AZ 85373 ",85373,0.0007120732235907342,235000,https://www.zillow.com/homedetails/17415-N-Country-Club-Dr-Sun-City-AZ-85373/7897399_zpid/,33.6428,-112.26,2017-11-02,2017-11-02
416972,23831830,"4633 W Ruth Ave, Glendale, AZ 85302 ",85302,0.0007092779266178565,195000,https://www.zillow.com/homedetails/4633-W-Ruth-Ave-Glendale-AZ-85302/7731286_zpid/,33.5632,-112.15899999999999,2017-11-14,2017-11-14
220078,23817452,"8352 N 3rd St, Phoenix, AZ 85020 ",85020,0.0006900318989226709,200000,https://www.zillow.com/homedetails/8352-N-3rd-St-Phoenix-AZ-85020/7794017_zpid/,33.5605,-112.07,2017-11-01,2017-11-01
220117,23821501,"840 E Butler Dr, Phoenix, AZ 85020 ",85020,0.0006770017278125761,249900,https://www.zillow.com/homedetails/840-E-Butler-Dr-Phoenix-AZ-85020/7789512_zpid/,33.5607,-112.06200000000001,2017-11-05,2017-11-05
229748,23841145,"16450 N 29th Ln, Phoenix, AZ 85053 ",85053,0.0006753909608677797,168000,https://www.zillow.com/homedetails/16450-N-29th-Ln-Phoenix-AZ-85053/7955346_zpid/,33.6357,-112.12200000000001,2017-11-25,2017-11-25
419496,23846538,"5437 W Orchid Ln, Glendale, AZ 85302 ",85302,0.0006690216776072248,238000,https://www.zillow.com/homedetails/5437-W-Orchid-Ln-Glendale-AZ-85302/7733771_zpid/,33.5625,-112.177,2017-12-01,2017-12-01
1118623,23834612,"2101 N Tamarisk St, Chandler, AZ 85224 ",85224,0.0006297914087026413,249900,https://www.zillow.com/homedetails/2101-N-Tamarisk-St-Chandler-AZ-85224/8192386_zpid/,33.3365,-111.881,2017-11-17,2017-11-17
9020650,23832106,"324 W Rosal Pl, Chandler, AZ 85225 ",85225,0.0006088557831729834,215000,https://www.zillow.com/homedetails/324-W-Rosal-Pl-Chandler-AZ-85225/8177217_zpid/,33.3433,-111.848,2017-11-09,2017-11-09
420828,22557561,"5930 W Loma Ln, Glendale, AZ 85302 ",85302,0.0005966713888148146,245000,https://www.zillow.com/homedetails/5930-W-Loma-Ln-Glendale-AZ-85302/7704301_zpid/,33.5544,-112.18799999999999,2017-08-22,2017-08-22
422454,22731449,"6652 W Delmonico Ln, Glendale, AZ 85302 ",85302,0.0005906268055191673,235000,https://www.zillow.com/homedetails/6652-W-Delmonico-Ln-Glendale-AZ-85302/50187742_zpid/,33.5645,-112.20200000000001,2017-09-29,2017-09-29
987121,23849044,"1238 S Cholla Ct, Chandler, AZ 85286 ",85286,0.0005892788765568571,249900,https://www.zillow.com/homedetails/1238-S-Cholla-Ct-Chandler-AZ-85286/8208827_zpid/,33.2878,-111.87299999999999,2017-12-06,2017-12-06
9012601,23824429,"8709 W C P Hayes Dr, Tolleson, AZ 85353 ",85353,0.000577872894928333,215000,https://www.zillow.com/homedetails/8709-W-C-P-Hayes-Dr-Tolleson-AZ-85353/7476816_zpid/,33.4541,-112.24799999999999,2017-11-09,2017-11-09
388499,23823809,"3827 W Glendale Ave, Phoenix, AZ 85051 ",85051,0.0005772026949714107,155000,https://www.zillow.com/homedetails/3827-W-Glendale-Ave-Phoenix-AZ-85051/7758350_zpid/,33.5383,-112.14200000000001,2017-11-08,2017-11-08
308089,23836076,"742 S 1st St, Phoenix, AZ 85004 ",85004,0.0005757577164684932,135000,https://www.zillow.com/homedetails/742-S-1st-St-Phoenix-AZ-85004/7522903_zpid/,33.4396,-112.073,2017-11-17,2017-11-17
9024345,23841587,"710 W Farmdale Ave, Mesa, AZ 85210 ",85210,0.000569070800621337,199000,https://www.zillow.com/homedetails/710-W-Farmdale-Ave-Mesa-AZ-85210/7598519_zpid/,33.3963,-111.84700000000001,2017-11-24,2017-11-24
421245,23823724,"6222 W Echo Ln, Glendale, AZ 85302 ",85302,0.000563177561122602,205000,https://www.zillow.com/homedetails/6222-W-Echo-Ln-Glendale-AZ-85302/7704166_zpid/,33.5584,-112.194,2017-11-07,2017-11-07
307196,23783098,"215 E Mckinley St STE 202, Phoenix, AZ 85004 ",85004,0.0005537008850492248,225900,https://www.zillow.com/homedetails/215-E-Mckinley-St-STE-202-Phoenix-AZ-85004/81957074_zpid/,33.4563,-112.07,2017-03-16,2017-03-16
10732,23838876,"215 E Mckinley St STE 407, Phoenix, AZ 85004 ",85004,0.0005452704036123817,245000,https://www.zillow.com/homedetails/215-E-Mckinley-St-STE-407-Phoenix-AZ-85004/81957084_zpid/,33.4563,-112.07,2017-11-09,2017-11-09
1126602,23844453,"2807 N Central Dr, Chandler, AZ 85224 ",85224,0.000544099543272716,245900,https://www.zillow.com/homedetails/2807-N-Central-Dr-Chandler-AZ-85224/8199127_zpid/,33.3475,-111.866,2017-11-30,2017-11-30
5088735,23778838,"1314 W Cortez Ct, Chandler, AZ 85224 ",85224,0.0005406064105742033,239900,https://www.zillow.com/homedetails/1314-W-Cortez-Ct-Chandler-AZ-85224/8172443_zpid/,33.3557,-111.865,2017-03-02,2017-03-02
9024818,23850186,"3161 N Bentrup Cir, Chandler, AZ 85224 ",85224,0.0005393555074645841,227500,https://www.zillow.com/homedetails/3161-N-Bentrup-Cir-Chandler-AZ-85224/8171572_zpid/,33.3512,-111.891,2017-12-09,2017-12-09
423250,23837732,"8602 N 55TH Ave, Glendale, AZ 85302 ",85302,0.0005387460427227441,234900,https://www.zillow.com/homedetails/8602-N-55th-Ave-Glendale-AZ-85302/7733439_zpid/,33.5627,-112.178,2017-11-19,2017-11-19
422023,23835263,"6461 W Ruth Ave, Glendale, AZ 85302 ",85302,0.0005384833449373814,210000,https://www.zillow.com/homedetails/6461-W-Ruth-Ave-Glendale-AZ-85302/67790198_zpid/,33.5625,-112.198,2017-11-18,2017-11-18
422412,23760087,"6622 W Golden Ln, Glendale, AZ 85302 ",85302,0.0005349859435425335,190000,https://www.zillow.com/homedetails/6622-W-Golden-Ln-Glendale-AZ-85302/50187805_zpid/,33.5652,-112.20200000000001,2017-10-20,2017-10-20
391111,23845510,"4056 W Camino Acequia, Phoenix, AZ 85051 ",85051,0.0005335045944696642,239500,https://www.zillow.com/homedetails/4056-W-Camino-Acequia-Phoenix-AZ-85051/7745951_zpid/,33.5776,-112.145,2017-11-29,2017-11-29
405373,23833538,"4656 W Juniper Ave, Glendale, AZ 85306 ",85306,0.0005309536394068102,214277,https://www.zillow.com/homedetails/4656-W-Juniper-Ave-Glendale-AZ-85306/7950811_zpid/,33.6389,-112.15799999999999,2017-11-10,2017-11-10
344279,23649625,"2322 W Papago St, Phoenix, AZ 85009 ",85009,0.0005285298760623161,125000,https://www.zillow.com/homedetails/2322-W-Papago-St-Phoenix-AZ-85009/81972695_zpid/,33.4343,-112.11,2017-10-14,2017-10-14
8959309,23803780,"4201 W Mission Ln, Phoenix, AZ 85051 ",85051,0.0005263263664253051,219000,https://www.zillow.com/homedetails/4201-W-Mission-Ln-Phoenix-AZ-85051/7746195_zpid/,33.5703,-112.149,2017-10-19,2017-10-19
423069,23831999,"8502 N 54th Dr, Glendale, AZ 85302 ",85302,0.00051549035747964,196900,https://www.zillow.com/homedetails/8502-N-54th-Dr-Glendale-AZ-85302/7733696_zpid/,33.5606,-112.177,2017-11-09,2017-11-09
359160,23848562,"15 N 86th Ln, Tolleson, AZ 85353 ",85353,0.0005092246450882421,217000,https://www.zillow.com/homedetails/15-N-86th-Ln-Tolleson-AZ-85353/95078499_zpid/,33.4485,-112.24600000000001,2017-12-01,2017-12-01
435965,23838336,"2237 N 94th Ave, Phoenix, AZ 85037 ",85037,0.0005042012293401347,229900,https://www.zillow.com/homedetails/2237-N-94th-Ave-Phoenix-AZ-85037/67773064_zpid/,33.4752,-112.26100000000001,2017-11-21,2017-11-21
7425243,23848380,"3629 E Yale St, Phoenix, AZ 85008 ",85008,0.0005035464974978315,230000,https://www.zillow.com/homedetails/3629-E-Yale-St-Phoenix-AZ-85008/67082142_zpid/,33.4758,-112.00299999999999,2017-12-06,2017-12-06
258179,23843719,"417 W Renee Dr, Phoenix, AZ 85027 ",85027,0.000503258106516179,212500,https://www.zillow.com/homedetails/417-W-Renee-Dr-Phoenix-AZ-85027/7972590_zpid/,33.6551,-112.08,2017-11-29,2017-11-29
976591,23840164,"803 N Laveen Dr, Chandler, AZ 85226 ",85226,0.0005025147888367832,240000,https://www.zillow.com/homedetails/803-N-Laveen-Dr-Chandler-AZ-85226/8264997_zpid/,33.3165,-111.91,2017-11-22,2017-11-22
379250,23806503,"2622 W Northview Ave, Phoenix, AZ 85051 ",85051,0.0005017356325615664,169900,https://www.zillow.com/homedetails/2622-W-Northview-Ave-Phoenix-AZ-85051/7779483_zpid/,33.5439,-112.115,2017-10-25,2017-10-25
9021253,23756561,"2832 N 28th Dr, Phoenix, AZ 85008 ",85008,0.0005002447210022185,139900,https://www.zillow.com/homedetails/2832-N-28th-Dr-Phoenix-AZ-85008/7513343_zpid/,33.4797,-112.021,2017-10-13,2017-10-13
640835,22743106,"622 W Portobello Ave, Mesa, AZ 85210 ",85210,0.0004999784024971033,240000,https://www.zillow.com/homedetails/622-W-Portobello-Ave-Mesa-AZ-85210/8190949_zpid/,33.3608,-111.84700000000001,2017-10-06,2017-10-06
379293,23843863,"2626 W Northview Ave, Phoenix, AZ 85051 ",85051,0.0004996495061893431,134900,https://www.zillow.com/homedetails/2626-W-Northview-Ave-Phoenix-AZ-85051/7779482_zpid/,33.5439,-112.116,2017-11-29,2017-11-29
322674,23758532,"4248 N 4th Ave, Phoenix, AZ 85013 ",85013,0.0004981541035570479,199900,https://www.zillow.com/homedetails/4248-N-4th-Ave-Phoenix-AZ-85013/7770331_zpid/,33.4974,-112.08200000000001,2017-10-20,2017-10-20
420158,23823709,"5666 W Laurie Ln, Glendale, AZ 85302 ",85302,0.0004970370555332624,209000,https://www.zillow.com/homedetails/5666-W-Laurie-Ln-Glendale-AZ-85302/7732919_zpid/,33.5593,-112.181,2017-11-07,2017-11-07
973060,23846554,"600 N Aspen Dr, Chandler, AZ 85226 ",85226,0.0004963006502883845,242000,https://www.zillow.com/homedetails/600-N-Aspen-Dr-Chandler-AZ-85226/8262023_zpid/,33.3128,-111.945,2017-11-29,2017-11-29
1406612,23791492,"6765 N 74th Dr, Glendale, AZ 85303 ",85303,0.0004940316444405186,210000,https://www.zillow.com/homedetails/6765-N-74th-Dr-Glendale-AZ-85303/14094753_zpid/,33.5349,-112.22,2017-03-15,2017-03-15
328410,23830937,"2203 W Marlette Ave, Phoenix, AZ 85015 ",85015,0.0004915065732955048,229900,https://www.zillow.com/homedetails/2203-W-Marlette-Ave-Phoenix-AZ-85015/7773094_zpid/,33.5291,-112.10600000000001,2017-11-13,2017-11-13
640201,23837467,"613 W Peralta Ave, Mesa, AZ 85210 ",85210,0.0004904939170896956,229000,https://www.zillow.com/homedetails/613-W-Peralta-Ave-Mesa-AZ-85210/8190639_zpid/,33.3572,-111.84700000000001,2017-11-20,2017-11-20
319451,23853539,"1219 W Indian School Rd, Phoenix, AZ 85013 ",85013,0.0004885211227047491,206599,https://www.zillow.com/homedetails/1219-W-Indian-School-Rd-Phoenix-AZ-85013/7516440_zpid/,33.4947,-112.089,2017-12-09,2017-12-09
390775,23814136,"4034 W Hatcher Rd, Phoenix, AZ 85051 ",85051,0.0004883267905659351,225000,https://www.zillow.com/homedetails/4034-W-Hatcher-Rd-Phoenix-AZ-85051/7746477_zpid/,33.5721,-112.147,2017-10-29,2017-10-29
1408938,22494674,"6956 W Northview Ave, Glendale, AZ 85303 ",85303,0.0004866273652472848,138000,https://www.zillow.com/homedetails/6956-W-Northview-Ave-Glendale-AZ-85303/7704861_zpid/,33.543,-112.21,2017-08-01,2017-08-01
8959430,23823810,"4054 W Northview Ave, Phoenix, AZ 85051 ",85051,0.00048537580801278214,199500,https://www.zillow.com/homedetails/4054-W-Northview-Ave-Phoenix-AZ-85051/7757834_zpid/,33.5436,-112.147,2017-11-07,2017-11-07
394545,23835062,"7239 N 41st Dr, Phoenix, AZ 85051 ",85051,0.0004835982961797548,199900,https://www.zillow.com/homedetails/7239-N-41st-Dr-Phoenix-AZ-85051/7756453_zpid/,33.5436,-112.148,2017-11-17,2017-11-17
386606,23830834,"3661 W Alice Ave, Phoenix, AZ 85051 ",85051,0.00048326920444378805,170000,https://www.zillow.com/homedetails/3661-W-Alice-Ave-Phoenix-AZ-85051/7753529_zpid/,33.5637,-112.139,2017-11-09,2017-11-09
243287,22690475,"3218 W Angela Dr, Phoenix, AZ 85053 ",85053,0.00047878396855318214,209000,https://www.zillow.com/homedetails/3218-W-Angela-Dr-Phoenix-AZ-85053/7942085_zpid/,33.6461,-112.12899999999999,2017-09-18,2017-09-18
9011104,22672448,"12997 N 71st Ave, Peoria, AZ 85381 ",85381,0.00047326314011936313,200000,https://www.zillow.com/homedetails/12997-N-71st-Ave-Peoria-AZ-85381/50185506_zpid/,33.603,-112.211,2017-07-18,2017-07-18
380762,23785452,"2911 W Lawrence Ln, Phoenix, AZ 85051 ",85051,0.00047157548537860906,155000,https://www.zillow.com/homedetails/2911-W-Lawrence-Ln-Phoenix-AZ-85051/7750459_zpid/,33.5641,-112.12200000000001,2017-03-06,2017-03-06
418501,23844506,"5136 W Laurie Ln, Glendale, AZ 85302 ",85302,0.0004682034345287566,211000,https://www.zillow.com/homedetails/5136-W-Laurie-Ln-Glendale-AZ-85302/7732574_zpid/,33.559,-112.171,2017-11-30,2017-11-30
561112,23847992,"1043 W Frito Ave, Mesa, AZ 85210 ",85210,0.0004681222311819935,195000,https://www.zillow.com/homedetails/1043-W-Frito-Ave-Mesa-AZ-85210/7598695_zpid/,33.3951,-111.854,2017-11-30,2017-11-30
9018003,23819878,"1842 W Alamo Dr, Chandler, AZ 85224 ",85224,0.00046775496085364927,244500,https://www.zillow.com/homedetails/1842-W-Alamo-Dr-Chandler-AZ-85224/8199834_zpid/,33.3482,-111.875,2017-11-03,2017-11-03
385922,23822262,"3614 W Echo Ln, Phoenix, AZ 85051 ",85051,0.0004664478504635889,185000,https://www.zillow.com/homedetails/3614-W-Echo-Ln-Phoenix-AZ-85051/7754459_zpid/,33.5595,-112.137,2017-11-06,2017-11-06
390730,22745703,"4032 W North Ln, Phoenix, AZ 85051 ",85051,0.00046543573605713873,195000,https://www.zillow.com/homedetails/4032-W-North-Ln-Phoenix-AZ-85051/7746045_zpid/,33.5817,-112.146,2017-10-08,2017-10-08
423456,22436549,"8633 N 55th Ave, Glendale, AZ 85302 ",85302,0.00046246943579614116,174000,https://www.zillow.com/homedetails/8633-N-55th-Ave-Glendale-AZ-85302/7733817_zpid/,33.5637,-112.178,2017-07-29,2017-07-29
9024207,23837704,"3545 W Gardenia Ave, Phoenix, AZ 85051 ",85051,0.0004616437459728724,224500,https://www.zillow.com/homedetails/3545-W-Gardenia-Ave-Phoenix-AZ-85051/7756303_zpid/,33.5441,-112.13600000000001,2017-11-20,2017-11-20
955402,23827093,"117 S Crestview St, Chandler, AZ 85226 ",85226,0.00046089594445540316,245000,https://www.zillow.com/homedetails/117-S-Crestview-St-Chandler-AZ-85226/8262999_zpid/,33.3011,-111.94,2017-11-13,2017-11-13
423278,23849909,"8609 N 56th Dr, Glendale, AZ 85302 ",85302,0.00045935662723714933,208000,https://www.zillow.com/homedetails/8609-N-56th-Dr-Glendale-AZ-85302/7733469_zpid/,33.5628,-112.18,2017-12-07,2017-12-07
9017497,23847149,"3044 E Roosevelt St, Phoenix, AZ 85008 ",85008,0.0004578176950313191,239900,https://www.zillow.com/homedetails/3044-E-Roosevelt-St-Phoenix-AZ-85008/2098123425_zpid/,33.4588,-112.015,2017-12-03,2017-12-03
388744,23819809,"3835 W Camino Acequia, Phoenix, AZ 85051 ",85051,0.00045352088012702975,233900,https://www.zillow.com/homedetails/3835-W-Camino-Acequia-Phoenix-AZ-85051/7745922_zpid/,33.5749,-112.14200000000001,2017-11-03,2017-11-03
344420,17868383,"2408 W Mohave St, Phoenix, AZ 85009 ",85009,0.00045088523748155985,120000,https://www.zillow.com/homedetails/2408-W-Mohave-St-Phoenix-AZ-85009/94639214_zpid/,33.4316,-112.111,2017-02-16,2017-02-16
1410407,23835273,"7080 W Glenn Dr, Glendale, AZ 85303 ",85303,0.00044985304354337876,234900,https://www.zillow.com/homedetails/7080-W-Glenn-Dr-Glendale-AZ-85303/55173602_zpid/,33.5399,-112.211,2017-11-15,2017-11-15
404082,23831516,"16245 N 43rd Dr, Glendale, AZ 85306 ",85306,0.00044979598016050876,244900,https://www.zillow.com/homedetails/16245-N-43rd-Dr-Glendale-AZ-85306/7950704_zpid/,33.6339,-112.152,2017-11-14,2017-11-14
8958977,23756263,"2545 E Piute Ave, Phoenix, AZ 85050 ",85050,0.0004486865979301363,159000,https://www.zillow.com/homedetails/2545-E-Piute-Ave-Phoenix-AZ-85050/7994601_zpid/,33.6629,-112.027,2017-10-13,2017-10-13
387374,23846451,"3735 W Cochise Dr, Phoenix, AZ 85051 ",85051,0.0004483327486047632,249900,https://www.zillow.com/homedetails/3735-W-Cochise-Dr-Phoenix-AZ-85051/7745459_zpid/,33.5803,-112.14,2017-12-01,2017-12-01
388107,23830843,"3813 W Townley Ave, Phoenix, AZ 85051 ",85051,0.00044805571590273124,225000,https://www.zillow.com/homedetails/3813-W-Townley-Ave-Phoenix-AZ-85051/7754216_zpid/,33.5645,-112.141,2017-11-10,2017-11-10
423289,23823760,"8613 N 53rd Ave, Glendale, AZ 85302 ",85302,0.000444318876014357,194900,https://www.zillow.com/homedetails/8613-N-53rd-Ave-Glendale-AZ-85302/7733929_zpid/,33.563,-112.17299999999999,2017-11-08,2017-11-08
830701,23830958,"3833 W Ocotillo Rd, Phoenix, AZ 85019 ",85019,0.0004415367052037632,199900,https://www.zillow.com/homedetails/3833-W-Ocotillo-Rd-Phoenix-AZ-85019/7758511_zpid/,33.5346,-112.14200000000001,2017-11-12,2017-11-12
392666,23759961,"4208 W El Camino Dr, Phoenix, AZ 85051 ",85051,0.0004406658384504101,215000,https://www.zillow.com/homedetails/4208-W-El-Camino-Dr-Phoenix-AZ-85051/7752812_zpid/,33.5573,-112.15,2017-10-21,2017-10-21
524930,22304530,"9134 W Vernon Ave, Phoenix, AZ 85037 ",85037,0.00043926991666757914,249000,https://www.zillow.com/homedetails/9134-W-Vernon-Ave-Phoenix-AZ-85037/67764424_zpid/,33.473,-112.257,2017-07-11,2017-07-11
350009,23781671,"18518 N 20th Pl, Phoenix, AZ 85022 ",85022,0.00043885850793489036,225000,https://www.zillow.com/homedetails/18518-N-20th-Pl-Phoenix-AZ-85022/61629214_zpid/,33.6544,-112.038,2017-03-18,2017-03-18
9020875,23833520,"319 W Utopia Rd, Phoenix, AZ 85027 ",85027,0.00043733240186237635,238000,https://www.zillow.com/homedetails/319-W-Utopia-Rd-Phoenix-AZ-85027/7968688_zpid/,33.6617,-112.079,2017-11-15,2017-11-15
8454416,23849518,"10609 N 81st Ave, Peoria, AZ 85345 ",85345,0.00043541687624469035,129900,https://www.zillow.com/homedetails/10609-N-81st-Ave-Peoria-AZ-85345/81966276_zpid/,33.5813,-112.23299999999999,2017-12-07,2017-12-07
393150,23840514,"4228 W Vista Ave, Phoenix, AZ 85051 ",85051,0.0004336107699852454,172400,https://www.zillow.com/homedetails/4228-W-Vista-Ave-Phoenix-AZ-85051/7758035_zpid/,33.5467,-112.15,2017-11-21,2017-11-21
420568,22722083,"5807 W Puget Ave, Glendale, AZ 85302 ",85302,0.0004306388867764932,200000,https://www.zillow.com/homedetails/5807-W-Puget-Ave-Glendale-AZ-85302/7733279_zpid/,33.5668,-112.185,2017-09-25,2017-09-25
686694,23841252,"2821 N 28th Pl, Phoenix, AZ 85008 ",85008,0.0004300432673904282,235000,https://www.zillow.com/homedetails/2821-N-28th-Pl-Phoenix-AZ-85008/7542846_zpid/,33.4793,-112.02,2017-11-26,2017-11-26
343597,23846279,"1713 E Aire Libre Ave, Phoenix, AZ 85022 ",85022,0.0004295323142618222,226500,https://www.zillow.com/homedetails/1713-E-Aire-Libre-Ave-Phoenix-AZ-85022/8004787_zpid/,33.6363,-112.045,2017-11-30,2017-11-30
1412767,23846610,"7238 W Ocotillo Rd, Glendale, AZ 85303 ",85303,0.00042902962861314384,245000,https://www.zillow.com/homedetails/7238-W-Ocotillo-Rd-Glendale-AZ-85303/67800379_zpid/,33.5344,-112.215,2017-11-30,2017-11-30
695985,23844261,"28 S 29th Ave, Phoenix, AZ 85009 ",85009,0.00042330367146508274,119900,https://www.zillow.com/homedetails/28-S-29th-Ave-Phoenix-AZ-85009/7514868_zpid/,33.4477,-112.12200000000001,2017-11-29,2017-11-29
237883,17872058,"3009 W Charleston Ave, Phoenix, AZ 85053 ",85053,0.0004230619781377155,220000,https://www.zillow.com/homedetails/3009-W-Charleston-Ave-Phoenix-AZ-85053/7940776_zpid/,33.6487,-112.124,2017-03-16,2017-03-16
258487,23844522,"619 W Wescott Dr, Phoenix, AZ 85027 ",85027,0.00042063158433421896,239900,https://www.zillow.com/homedetails/619-W-Wescott-Dr-Phoenix-AZ-85027/7968519_zpid/,33.6581,-112.08200000000001,2017-11-30,2017-11-30
1413516,22924606,"7311 N 73rd Dr, Glendale, AZ 85303 ",85303,0.00042003329803743923,248700,https://www.zillow.com/homedetails/7311-N-73rd-Dr-Glendale-AZ-85303/59270763_zpid/,33.5425,-112.21600000000001,2017-10-07,2017-10-07
436097,23849120,"2311 N 91st Gln, Phoenix, AZ 85037 ",85037,0.00041911220063696816,225150,https://www.zillow.com/homedetails/2311-N-91st-Gln-Phoenix-AZ-85037/60974969_zpid/,33.4747,-112.257,2017-12-06,2017-12-06
258476,23717515,"614 W Rosemonte Dr, Phoenix, AZ 85027 ",85027,0.000418416139847971,234900,https://www.zillow.com/homedetails/614-W-Rosemonte-Dr-Phoenix-AZ-85027/7968459_zpid/,33.657,-112.08200000000001,2017-10-12,2017-10-12
380897,23810921,"2920 W Townley Ave, Phoenix, AZ 85051 ",85051,0.0004171458604663503,155000,https://www.zillow.com/homedetails/2920-W-Townley-Ave-Phoenix-AZ-85051/7750513_zpid/,33.5653,-112.12200000000001,2017-10-27,2017-10-27
420041,23840554,"5643 W Alice Ave, Glendale, AZ 85302 ",85302,0.00041685243944955547,195000,https://www.zillow.com/homedetails/5643-W-Alice-Ave-Glendale-AZ-85302/7733508_zpid/,33.5643,-112.181,2017-11-22,2017-11-22
1406108,23835268,"6734 N 77th Dr, Glendale, AZ 85303 ",85303,0.00041458309005056634,249000,https://www.zillow.com/homedetails/6734-N-77th-Dr-Glendale-AZ-85303/7463022_zpid/,33.5345,-112.226,2017-11-17,2017-11-17
378692,23849012,"10228 N 36th Ave, Phoenix, AZ 85051 ",85051,0.0004141584532639671,210000,https://www.zillow.com/homedetails/10228-N-36th-Ave-Phoenix-AZ-85051/7745264_zpid/,33.5794,-112.13600000000001,2017-12-05,2017-12-05
527842,23846678,"9515 W Monte Vista Rd, Phoenix, AZ 85037 ",85037,0.0004122626266888075,226000,https://www.zillow.com/homedetails/9515-W-Monte-Vista-Rd-Phoenix-AZ-85037/60974977_zpid/,33.4699,-112.265,2017-11-30,2017-11-30
524793,23853453,"9129 W Vernon Ave, Phoenix, AZ 85037 ",85037,0.00041222033335660104,220000,https://www.zillow.com/homedetails/9129-W-Vernon-Ave-Phoenix-AZ-85037/67764435_zpid/,33.4726,-112.257,2017-11-18,2017-11-18
9023951,23835138,"4206 W North Ln, Phoenix, AZ 85051 ",85051,0.00041221225488193366,189000,https://www.zillow.com/homedetails/4206-W-North-Ln-Phoenix-AZ-85051/7746035_zpid/,33.5817,-112.149,2017-11-16,2017-11-16
687768,22691896,"3239 E Yale St, Phoenix, AZ 85008 ",85008,0.0004111276700257636,249500,https://www.zillow.com/homedetails/3239-E-Yale-St-Phoenix-AZ-85008/7541022_zpid/,33.4757,-112.01100000000001,2017-09-18,2017-09-18
209311,23846146,"3420 E Cambridge Ave, Phoenix, AZ 85008 ",85008,0.00041099717786716546,195000,http://www.zillow.com/homedetails/3420-E-Cambridge-Ave-Phoenix-AZ-85008/81975682_zpid,33.478,-112.008,2017-11-30,2017-11-30
389338,23787313,"3912 W Townley Ave, Phoenix, AZ 85051 ",85051,0.00041087116387364284,184900,https://www.zillow.com/homedetails/3912-W-Townley-Ave-Phoenix-AZ-85051/7754475_zpid/,33.5662,-112.14399999999999,2017-03-23,2017-03-23
1344157,23837960,"4614 W Palo Verde Dr, Glendale, AZ 85301 ",85301,0.00040961691531912596,229999,https://www.zillow.com/homedetails/4614-W-Palo-Verde-Dr-Glendale-AZ-85301/7717953_zpid/,33.5235,-112.15899999999999,2017-11-20,2017-11-20
9020435,22875945,"3838 W Carol Ave, Phoenix, AZ 85051 ",85051,0.0004096139384508863,219990,https://www.zillow.com/homedetails/3838-W-Carol-Ave-Phoenix-AZ-85051/7746969_zpid/,33.5731,-112.14200000000001,2017-10-10,2017-10-10
534651,23837198,"1931 W Ashland Ave, Phoenix, AZ 85009 ",85009,0.00040849597076830736,239900,https://www.zillow.com/homedetails/1931-W-Ashland-Ave-Phoenix-AZ-85009/7519553_zpid/,33.4752,-112.101,2017-11-17,2017-11-17
343418,23811515,"2029 W Wilshire Dr, Phoenix, AZ 85009 ",85009,0.000408411930397088,215000,https://www.zillow.com/homedetails/2029-W-Wilshire-Dr-Phoenix-AZ-85009/7519525_zpid/,33.476,-112.104,2017-10-28,2017-10-28
7520977,22428537,"7562 W Turquoise Ave, Peoria, AZ 85345 ",85345,0.0004067522998605239,189900,https://www.zillow.com/homedetails/7562-W-Turquoise-Ave-Peoria-AZ-85345/7682178_zpid/,33.5747,-112.223,2017-04-28,2017-04-28
388766,22745700,"3835 W Ruth Ave, Phoenix, AZ 85051 ",85051,0.0004061530253499955,162500,https://www.zillow.com/homedetails/3835-W-Ruth-Ave-Phoenix-AZ-85051/7752429_zpid/,33.5625,-112.14200000000001,2017-10-08,2017-10-08
1114416,23820184,"1617 W Stottler Dr, Chandler, AZ 85224 ",85224,0.00040577267297511215,229900,https://www.zillow.com/homedetails/1617-W-Stottler-Dr-Chandler-AZ-85224/8193816_zpid/,33.3325,-111.87,2017-11-03,2017-11-03
330786,22738433,"1001 E Bluefield Ave, Phoenix, AZ 85022 ",85022,0.000404759035833482,207500,https://www.zillow.com/homedetails/1001-E-Bluefield-Ave-Phoenix-AZ-85022/8002596_zpid/,33.6522,-112.06,2017-10-04,2017-10-04
390667,23787702,"4029 W Caron St, Phoenix, AZ 85051 ",85051,0.00040435699435311984,189900,https://www.zillow.com/homedetails/4029-W-Caron-St-Phoenix-AZ-85051/7746120_zpid/,33.5682,-112.146,2017-02-25,2017-02-25
837297,23835058,"6553 N 41st Ave, Phoenix, AZ 85019 ",85019,0.00040364041025576006,199999,https://www.zillow.com/homedetails/6553-N-41st-Ave-Phoenix-AZ-85019/7762442_zpid/,33.5332,-112.147,2017-11-18,2017-11-18
380026,23830832,"2815 W Echo Ln, Phoenix, AZ 85051 ",85051,0.00040203957579760814,179900,https://www.zillow.com/homedetails/2815-W-Echo-Ln-Phoenix-AZ-85051/7750984_zpid/,33.5592,-112.12,2017-11-14,2017-11-14
9023070,23847662,"2024 E Villa Theresa Dr, Phoenix, AZ 85022 ",85022,0.00040007906658552617,243000,https://www.zillow.com/homedetails/2024-E-Villa-Theresa-Dr-Phoenix-AZ-85022/8000570_zpid/,33.6544,-112.039,2017-12-04,2017-12-04
534105,23842749,"1902 W Palm Ln, Phoenix, AZ 85009 ",85009,0.00039819085746172015,199500,https://www.zillow.com/homedetails/1902-W-Palm-Ln-Phoenix-AZ-85009/7519867_zpid/,33.4693,-112.1,2017-11-28,2017-11-28
331152,23847346,"1025 E Annette Dr, Phoenix, AZ 85022 ",85022,0.0003980166652982975,248000,https://www.zillow.com/homedetails/1025-E-Annette-Dr-Phoenix-AZ-85022/8002681_zpid/,33.6531,-112.059,2017-12-02,2017-12-02
392885,23819817,"4216 W Royal Palm Rd, Phoenix, AZ 85051 ",85051,0.0003965532363835561,215000,https://www.zillow.com/homedetails/4216-W-Royal-Palm-Rd-Phoenix-AZ-85051/7753122_zpid/,33.5558,-112.15,2017-11-03,2017-11-03
395328,22561906,"7760 N 33rd Ave, Phoenix, AZ 85051 ",85051,0.00039617334332938683,195000,https://www.zillow.com/homedetails/7760-N-33rd-Ave-Phoenix-AZ-85051/7757755_zpid/,33.5514,-112.13,2017-08-22,2017-08-22
393461,22738571,"4244 W Butler Dr, Phoenix, AZ 85051 ",85051,0.0003959120737712369,185900,https://www.zillow.com/homedetails/4244-W-Butler-Dr-Phoenix-AZ-85051/7752975_zpid/,33.5601,-112.15100000000001,2017-09-29,2017-09-29
1415032,23792388,"7420 N 69th Ln, Glendale, AZ 85303 ",85303,0.00039469212789408853,185000,https://www.zillow.com/homedetails/7420-N-69th-Ln-Glendale-AZ-85303/7704959_zpid/,33.5444,-112.21,2017-01-26,2017-01-26
9023952,23835040,"3231 W Belmont Ave, Phoenix, AZ 85051 ",85051,0.0003940310104248206,214900,https://www.zillow.com/homedetails/3231-W-Belmont-Ave-Phoenix-AZ-85051/7758304_zpid/,33.55,-112.12899999999999,2017-11-16,2017-11-16
384150,23834117,"3417 W Diana Ave, Phoenix, AZ 85051 ",85051,0.0003927971693494448,179900,https://www.zillow.com/homedetails/3417-W-Diana-Ave-Phoenix-AZ-85051/7753849_zpid/,33.5627,-112.133,2017-11-13,2017-11-13
368437,23829034,"3430 E Renee Dr, Phoenix, AZ 85050 ",85050,0.0003916726849926679,249000,https://www.zillow.com/homedetails/3430-E-Renee-Dr-Phoenix-AZ-85050/7993430_zpid/,33.6562,-112.008,2017-11-09,2017-11-09
352186,23759913,"2024 E Danbury Rd, Phoenix, AZ 85022 ",85022,0.00039157546242848793,242000,https://www.zillow.com/homedetails/2024-E-Danbury-Rd-Phoenix-AZ-85022/8000757_zpid/,33.6429,-112.039,2017-10-21,2017-10-21
11902,23846461,"3827 W Loma Ln, Phoenix, AZ 85051 ",85051,0.0003915497285145578,219900,https://www.zillow.com/homedetails/3827-W-Loma-Ln-Phoenix-AZ-85051/7753747_zpid/,33.5537,-112.14200000000001,2017-12-01,2017-12-01
345778,23810944,"17441 N 20th St, Phoenix, AZ 85022 ",85022,0.000391078388233387,235000,https://www.zillow.com/homedetails/17441-N-20th-St-Phoenix-AZ-85022/8000666_zpid/,33.6457,-112.039,2017-10-27,2017-10-27
1414144,23831100,"7341 N 70th Dr, Glendale, AZ 85303 ",85303,0.0003907024847651798,183000,https://www.zillow.com/homedetails/7341-N-70th-Dr-Glendale-AZ-85303/7704927_zpid/,33.5435,-112.211,2017-11-10,2017-11-10
9005353,23845395,"3307 W Glendale Ave, Phoenix, AZ 85051 ",85051,0.0003899214024250184,145900,https://www.zillow.com/homedetails/3307-W-Glendale-Ave-Phoenix-AZ-85051/7760570_zpid/,33.5382,-112.131,2017-11-28,2017-11-28
388115,23831776,"3814 W Davidson Ln, Phoenix, AZ 85051 ",85051,0.00038906762644848574,192000,https://www.zillow.com/homedetails/3814-W-Davidson-Ln-Phoenix-AZ-85051/7746767_zpid/,33.5701,-112.141,2017-11-07,2017-11-07
380759,23849139,"2911 W Cactus Wren Dr, Phoenix, AZ 85051 ",85051,0.0003859504405750718,189000,https://www.zillow.com/homedetails/2911-W-Cactus-Wren-Dr-Phoenix-AZ-85051/7757126_zpid/,33.5392,-112.12200000000001,2017-12-06,2017-12-06
386720,23821733,"3706 W Palmaire Ave, Phoenix, AZ 85051 ",85051,0.00038469396466038914,175000,https://www.zillow.com/homedetails/3706-W-Palmaire-Ave-Phoenix-AZ-85051/7756805_zpid/,33.5416,-112.139,2017-11-05,2017-11-05
1404598,23821104,"6113 N 71st Ln, Glendale, AZ 85303 ",85303,0.00038398528323498065,194990,https://www.zillow.com/homedetails/6113-N-71st-Ln-Glendale-AZ-85303/7707065_zpid/,33.5257,-112.214,2017-11-04,2017-11-04
9021305,23830839,"3713 W Eva St, Phoenix, AZ 85051 ",85051,0.0003838522295734966,218400,https://www.zillow.com/homedetails/3713-W-Eva-St-Phoenix-AZ-85051/7746745_zpid/,33.5705,-112.139,2017-11-14,2017-11-14
389263,23841981,"3907 W Davidson Ln, Phoenix, AZ 85051 ",85051,0.0003836848850614905,244900,https://www.zillow.com/homedetails/3907-W-Davidson-Ln-Phoenix-AZ-85051/7746545_zpid/,33.5698,-112.14299999999999,2017-11-25,2017-11-25
390742,23821739,"4033 W Eva St, Phoenix, AZ 85051 ",85051,0.00038303215326880336,200000,https://www.zillow.com/homedetails/4033-W-Eva-St-Phoenix-AZ-85051/7746522_zpid/,33.5702,-112.146,2017-11-03,2017-11-03
41734,23815416,"637 N 69th Ave, Phoenix, AZ 85043 ",85043,0.0003805503264102752,169900,https://www.zillow.com/homedetails/637-N-69th-Ave-Phoenix-AZ-85043/7476326_zpid/,33.4562,-112.208,2017-10-31,2017-10-31
9012379,22682953,"928 N Central Dr, Chandler, AZ 85224 ",85224,0.0003802529103732017,249000,https://www.zillow.com/homedetails/928-N-Central-Dr-Chandler-AZ-85224/8186076_zpid/,33.3193,-111.863,2017-09-15,2017-09-15
387630,23847157,"3746 W Puget Ave, Phoenix, AZ 85051 ",85051,0.000378588732762067,189400,https://www.zillow.com/homedetails/3746-W-Puget-Ave-Phoenix-AZ-85051/7754271_zpid/,33.567,-112.141,2017-12-02,2017-12-02
236208,23512189,"2919 W Libby St, Phoenix, AZ 85053 ",85053,0.00037840161996191226,219000,https://www.zillow.com/homedetails/2919-W-Libby-St-Phoenix-AZ-85053/7940817_zpid/,33.6477,-112.12200000000001,2017-10-07,2017-10-07
390721,23808934,"4031 W North Ln, Phoenix, AZ 85051 ",85051,0.00037813348271312897,184900,https://www.zillow.com/homedetails/4031-W-North-Ln-Phoenix-AZ-85051/7746050_zpid/,33.5813,-112.146,2017-10-26,2017-10-26
391398,23818338,"4112 W Camino Acequia, Phoenix, AZ 85051 ",85051,0.0003764608272223811,220986,https://www.zillow.com/homedetails/4112-W-Camino-Acequia-Phoenix-AZ-85051/7745955_zpid/,33.5781,-112.146,2017-11-02,2017-11-02
326659,22740088,"1824 W Stella Ln, Phoenix, AZ 85015 ",85015,0.0003760306786779535,238900,https://www.zillow.com/homedetails/1824-W-Stella-Ln-Phoenix-AZ-85015/7774085_zpid/,33.5301,-112.098,2017-10-05,2017-10-05
1166,23837694,"8039 N 29th Ave, Phoenix, AZ 85051 ",85051,0.00037561024095513016,180000,https://www.zillow.com/homedetails/8039-N-29th-Ave-Phoenix-AZ-85051/7751052_zpid/,33.5545,-112.12100000000001,2017-11-20,2017-11-20
383025,23840468,"3232 W Camino Vis, Phoenix, AZ 85051 ",85051,0.0003746649626948424,204500,https://www.zillow.com/homedetails/3232-W-Camino-Vis-Phoenix-AZ-85051/7739710_zpid/,33.5732,-112.12899999999999,2017-11-22,2017-11-22
327533,23842990,"2036 W Denton Ln, Phoenix, AZ 85015 ",85015,0.0003743444195369733,187900,https://www.zillow.com/homedetails/2036-W-Denton-Ln-Phoenix-AZ-85015/7765203_zpid/,33.5163,-112.103,2017-11-23,2017-11-23
534315,23853548,"1914 W Granada Rd, Phoenix, AZ 85009 ",85009,0.0003742266781509144,189000,https://www.zillow.com/homedetails/1914-W-Granada-Rd-Phoenix-AZ-85009/7519853_zpid/,33.4686,-112.101,2017-12-06,2017-12-06
526828,22737450,"9418 W Sheridan St, Phoenix, AZ 85037 ",85037,0.0003738280604172458,214500,https://www.zillow.com/homedetails/9418-W-Sheridan-St-Phoenix-AZ-85037/67773035_zpid/,33.475,-112.262,2017-09-28,2017-09-28
342848,23829559,"16841 N 18th Pl, Phoenix, AZ 85022 ",85022,0.00037373848057872154,238900,https://www.zillow.com/homedetails/16841-N-18th-Pl-Phoenix-AZ-85022/8004961_zpid/,33.6391,-112.04299999999999,2017-11-09,2017-11-09
398944,22432872,"9409 N 36th Dr, Phoenix, AZ 85051 ",85051,0.0003735267744804317,215000,https://www.zillow.com/homedetails/9409-N-36th-Dr-Phoenix-AZ-85051/7746677_zpid/,33.5717,-112.137,2017-05-01,2017-05-01
555448,23821996,"2310 W Washington St, Phoenix, AZ 85009 ",85009,0.00037256710435966926,169900,https://www.zillow.com/homedetails/2310-W-Washington-St-Phoenix-AZ-85009/7515224_zpid/,33.4483,-112.109,2017-11-06,2017-11-06
1421352,23835289,"8016 W Sierra Vista Dr, Glendale, AZ 85303 ",85303,0.0003724166820284889,235000,https://www.zillow.com/homedetails/8016-W-Sierra-Vista-Dr-Glendale-AZ-85303/7462651_zpid/,33.5314,-112.23299999999999,2017-11-15,2017-11-15
326029,23814914,"1734 W Rose Ln, Phoenix, AZ 85015 ",85015,0.0003724103865214554,194900,https://www.zillow.com/homedetails/1734-W-Rose-Ln-Phoenix-AZ-85015/7774223_zpid/,33.5279,-112.09700000000001,2017-10-29,2017-10-29
9025461,23852787,"2114 W Monroe St, Phoenix, AZ 85009 ",85009,0.0003709435140061878,229900,https://www.zillow.com/homedetails/2114-W-Monroe-St-Phoenix-AZ-85009/7514471_zpid/,33.4505,-112.105,2017-12-07,2017-12-07
384676,23814267,"3501 W Ironwood Dr, Phoenix, AZ 85051 ",85051,0.0003698260953930034,239900,https://www.zillow.com/homedetails/3501-W-Ironwood-Dr-Phoenix-AZ-85051/7745307_zpid/,33.5759,-112.134,2017-10-29,2017-10-29
383781,22501929,"3339 W Malapai Dr, Phoenix, AZ 85051 ",85051,0.0003689706135502957,244900,https://www.zillow.com/homedetails/3339-W-Malapai-Dr-Phoenix-AZ-85051/7739353_zpid/,33.5756,-112.131,2017-08-12,2017-08-12
1409866,23835277,"7017 N 77th Dr, Glendale, AZ 85303 ",85303,0.00036790152324213307,215000,https://www.zillow.com/homedetails/7017-N-77th-Dr-Glendale-AZ-85303/55260208_zpid/,33.5385,-112.225,2017-11-16,2017-11-16
392781,23831799,"4212 W Townley Ave, Phoenix, AZ 85051 ",85051,0.0003673296395855634,239000,https://www.zillow.com/homedetails/4212-W-Townley-Ave-Phoenix-AZ-85051/7754721_zpid/,33.5659,-112.149,2017-11-04,2017-11-04
391605,23759518,"4120 W Ironwood Dr, Phoenix, AZ 85051 ",85051,0.0003669688791462013,245000,https://www.zillow.com/homedetails/4120-W-Ironwood-Dr-Phoenix-AZ-85051/7746405_zpid/,33.5754,-112.147,2017-10-21,2017-10-21
524525,23853423,"9119 W Cypress St, Phoenix, AZ 85037 ",85037,0.00036695750511633803,189900,https://www.zillow.com/homedetails/9119-W-Cypress-St-Phoenix-AZ-85037/67762984_zpid/,33.4715,-112.256,2017-11-14,2017-11-14
342822,22678663,"1925 W Holly St, Phoenix, AZ 85009 ",85009,0.00036682342895024946,160000,https://www.zillow.com/homedetails/1925-W-Holly-St-Phoenix-AZ-85009/7519786_zpid/,33.4699,-112.102,2017-09-15,2017-09-15
396647,23804893,"8225 N 32ND Ave, Phoenix, AZ 85051 ",85051,0.00036550004748390016,120000,https://www.zillow.com/homedetails/8225-N-32ND-Ave-Phoenix-AZ-85051/7751472_zpid/,33.5568,-112.12899999999999,2017-08-28,2017-08-28
354125,22802972,"2231 E Everett Dr, Phoenix, AZ 85022 ",85022,0.00036515317898847905,206900,https://www.zillow.com/homedetails/2231-E-Everett-Dr-Phoenix-AZ-85022/8014080_zpid/,33.6195,-112.03399999999999,2017-10-10,2017-10-10
1109968,23827087,"1231 W Tulsa St, Chandler, AZ 85224 ",85224,0.00036487271205263785,245000,https://www.zillow.com/homedetails/1231-W-Tulsa-St-Chandler-AZ-85224/8185626_zpid/,33.3123,-111.865,2017-11-11,2017-11-11
1409526,23835276,"7001 N 77th Ave, Glendale, AZ 85303 ",85303,0.0003643904224484697,169900,https://www.zillow.com/homedetails/7001-N-77th-Ave-Glendale-AZ-85303/7684833_zpid/,33.5382,-112.22399999999999,2017-11-18,2017-11-18
352697,23823583,"2111 E Beck Ln, Phoenix, AZ 85022 ",85022,0.0003639691363403402,210000,https://www.zillow.com/homedetails/2111-E-Beck-Ln-Phoenix-AZ-85022/8008032_zpid/,33.6277,-112.038,2017-11-07,2017-11-07
386267,23830833,"3629 W Lawrence Ln, Phoenix, AZ 85051 ",85051,0.00036368603607641627,199800,https://www.zillow.com/homedetails/3629-W-Lawrence-Ln-Phoenix-AZ-85051/7753974_zpid/,33.5645,-112.13799999999999,2017-11-08,2017-11-08
8991893,23837557,"9352 W Jefferson St, Tolleson, AZ 85353 ",85353,0.00036301698916000154,229900,https://www.zillow.com/homedetails/9352-W-Jefferson-St-Tolleson-AZ-85353/7460100_zpid/,33.4464,-112.26100000000001,2017-11-20,2017-11-20
331533,23824354,"1101 E Michigan Ave, Phoenix, AZ 85022 ",85022,0.00036284159782512304,212000,https://www.zillow.com/homedetails/1101-E-Michigan-Ave-Phoenix-AZ-85022/8002507_zpid/,33.6513,-112.05799999999999,2017-11-09,2017-11-09
1412890,23846613,"7253 W Aurelius Ave, Glendale, AZ 85303 ",85303,0.0003623801184616366,219900,https://www.zillow.com/homedetails/7253-W-Aurelius-Ave-Glendale-AZ-85303/95170805_zpid/,33.5399,-112.214,2017-11-30,2017-11-30
328925,23848851,"2316 W Whitton Ave, Phoenix, AZ 85015 ",85015,0.0003613521674215975,195000,https://www.zillow.com/homedetails/2316-W-Whitton-Ave-Phoenix-AZ-85015/7517392_zpid/,33.4899,-112.109,2017-11-30,2017-11-30
7413432,13306387,"7110 E Continental Dr, Scottsdale, AZ 85257 ",85257,0.000360967534438139,150000,https://www.zillow.com/homedetails/7110-E-Continental-Dr-Scottsdale-AZ-85257/2111146291_zpid/,33.4595,-111.928,2017-02-08,2017-02-08
7437201,23841799,"2038 W Alvarado Rd, Phoenix, AZ 85009 ",85009,0.00036041659045296036,235000,https://www.zillow.com/homedetails/2038-W-Alvarado-Rd-Phoenix-AZ-85009/7519729_zpid/,33.4727,-112.104,2017-11-26,2017-11-26
312550,23849588,"1517 W Taylor St, Phoenix, AZ 85007 ",85007,0.000359680737461324,179995,https://www.zillow.com/homedetails/1517-W-Taylor-St-Phoenix-AZ-85007/7521670_zpid/,33.4538,-112.09200000000001,2017-12-05,2017-12-05
389426,22616784,"3916 W Northern Ave, Phoenix, AZ 85051 ",85051,0.0003595908959082658,179990,https://www.zillow.com/homedetails/3916-W-Northern-Ave-Phoenix-AZ-85051/7754161_zpid/,33.5534,-112.14399999999999,2017-08-17,2017-08-17
1129854,23830354,"549 N Arrowhead Dr, Chandler, AZ 85224 ",85224,0.0003587785980037014,209000,https://www.zillow.com/homedetails/549-N-Arrowhead-Dr-Chandler-AZ-85224/8185610_zpid/,33.3129,-111.867,2017-11-09,2017-11-09
9022191,23824622,"3728 E Yale St, Phoenix, AZ 85008 ",85008,0.0003577889467623857,239999,https://www.zillow.com/homedetails/3728-E-Yale-St-Phoenix-AZ-85008/7541377_zpid/,33.4759,-112.00399999999999,2017-11-09,2017-11-09
976127,23846057,"734 N Tangerine Dr, Chandler, AZ 85226 ",85226,0.00035735560277641766,204900,https://www.zillow.com/homedetails/734-N-Tangerine-Dr-Chandler-AZ-85226/8156625_zpid/,33.3162,-111.928,2017-12-01,2017-12-01
1867405,23806135,"7571 W Comet Ave, Peoria, AZ 85345 ",85345,0.0003551950417519534,212000,https://www.zillow.com/homedetails/7571-W-Comet-Ave-Peoria-AZ-85345/7682477_zpid/,33.5791,-112.22200000000001,2017-10-25,2017-10-25
9019232,23843081,"3428 E Sheridan St, Phoenix, AZ 85008 ",85008,0.00035495978997025817,240000,https://www.zillow.com/homedetails/3428-E-Sheridan-St-Phoenix-AZ-85008/7541233_zpid/,33.4752,-112.007,2017-11-27,2017-11-27
9021871,23807926,"12120 N 89th Dr, Peoria, AZ 85345 ",85345,0.0003546510078746394,249900,https://www.zillow.com/homedetails/12120-N-89th-Dr-Peoria-AZ-85345/7685583_zpid/,33.5947,-112.25200000000001,2017-10-25,2017-10-25
9019224,23831968,"8005 W Shaw Butte Dr, Peoria, AZ 85345 ",85345,0.0003542670000022049,225500,https://www.zillow.com/homedetails/8005-W-Shaw-Butte-Dr-Peoria-AZ-85345/7680677_zpid/,33.5951,-112.23100000000001,2017-11-14,2017-11-14
702539,23848156,"545 S Stewart, Mesa, AZ 85202 ",85202,0.0003534195189302759,199900,https://www.zillow.com/homedetails/545-S-Stewart-Mesa-AZ-85202/7604679_zpid/,33.4045,-111.859,2017-12-04,2017-12-04
389184,23830961,"3901 W Kaler Dr, Phoenix, AZ 85051 ",85051,0.000353256619076375,219000,https://www.zillow.com/homedetails/3901-W-Kaler-Dr-Phoenix-AZ-85051/7757975_zpid/,33.5485,-112.14299999999999,2017-11-13,2017-11-13
1406067,23813622,"6732 N 79th Ave, Glendale, AZ 85303 ",85303,0.00035321466788782195,215000,https://www.zillow.com/homedetails/6732-N-79th-Ave-Glendale-AZ-85303/7462444_zpid/,33.5339,-112.229,2017-10-28,2017-10-28
233618,23850090,"18243 N 31st Ave, Phoenix, AZ 85053 ",85053,0.0003524266161007588,224997,https://www.zillow.com/homedetails/18243-N-31st-Ave-Phoenix-AZ-85053/7940528_zpid/,33.6526,-112.126,2017-12-08,2017-12-08
354621,23808089,"2310 E Winchcomb Dr, Phoenix, AZ 85022 ",85022,0.0003521398347281549,224900,https://www.zillow.com/homedetails/2310-E-Winchcomb-Dr-Phoenix-AZ-85022/8010116_zpid/,33.6168,-112.03399999999999,2017-10-25,2017-10-25
381684,22380395,"3111 W Laurie Ln, Phoenix, AZ 85051 ",85051,0.00035129854081717083,229900,https://www.zillow.com/homedetails/3111-W-Laurie-Ln-Phoenix-AZ-85051/7754882_zpid/,33.5587,-112.126,2017-07-13,2017-07-13
386285,23809974,"3631 W Caron St, Phoenix, AZ 85051 ",85051,0.00035073262676314136,245000,https://www.zillow.com/homedetails/3631-W-Caron-St-Phoenix-AZ-85051/7746596_zpid/,33.5684,-112.13799999999999,2017-10-26,2017-10-26
831318,23816388,"4008 W Citrus Way, Phoenix, AZ 85019 ",85019,0.00034943414789148294,205000,https://www.zillow.com/homedetails/4008-W-Citrus-Way-Phoenix-AZ-85019/7761902_zpid/,33.5299,-112.145,2017-10-31,2017-10-31
232170,23847359,"17834 N 33rd Dr, Phoenix, AZ 85053 ",85053,0.0003490224550119002,249999,https://www.zillow.com/homedetails/17834-N-33rd-Dr-Phoenix-AZ-85053/7941287_zpid/,33.6484,-112.131,2017-11-30,2017-11-30
9012405,23844536,"7326 W Sierra St, Peoria, AZ 85345 ",85345,0.00034876130419744914,225000,https://www.zillow.com/homedetails/7326-W-Sierra-St-Peoria-AZ-85345/7700347_zpid/,33.5903,-112.21700000000001,2017-11-30,2017-11-30
242590,22686911,"3202 W Angela Dr, Phoenix, AZ 85053 ",85053,0.00034757053147464344,234900,https://www.zillow.com/homedetails/3202-W-Angela-Dr-Phoenix-AZ-85053/7942083_zpid/,33.6461,-112.12799999999999,2017-09-12,2017-09-12
1373435,23850162,"8759 W Peppertree Ln, Glendale, AZ 85305 ",85305,0.00034667189030818433,249850,https://www.zillow.com/homedetails/8759-W-Peppertree-Ln-Glendale-AZ-85305/95158696_zpid/,33.5368,-112.24700000000001,2017-12-08,2017-12-08
556266,23783983,"2325 N 28th Pl, Phoenix, AZ 85008 ",85008,0.0003463374715022794,144000,https://www.zillow.com/homedetails/2325-N-28th-Pl-Phoenix-AZ-85008/7542977_zpid/,33.4742,-112.02,2017-04-06,2017-04-06
339837,23825426,"15615 N 23rd Pl, Phoenix, AZ 85022 ",85022,0.00034624774930813306,189500,https://www.zillow.com/homedetails/15615-N-23rd-Pl-Phoenix-AZ-85022/55267932_zpid/,33.6285,-112.03200000000001,2017-11-09,2017-11-09
8985061,23798423,"1918 E Willetta St, Phoenix, AZ 85006 ",85006,0.0003459393256566852,220000,https://www.zillow.com/homedetails/1918-E-Willetta-St-Phoenix-AZ-85006/7528826_zpid/,33.464,-112.04,2017-10-12,2017-10-12
9021527,23824183,"7384 W Greer Ave, Peoria, AZ 85345 ",85345,0.00034540571788249186,209900,https://www.zillow.com/homedetails/7384-W-Greer-Ave-Peoria-AZ-85345/7701234_zpid/,33.5882,-112.21799999999999,2017-11-09,2017-11-09
311927,23848462,"1329 W Taylor St, Phoenix, AZ 85007 ",85007,0.0003446913683443971,210000,https://www.zillow.com/homedetails/1329-W-Taylor-St-Phoenix-AZ-85007/7521763_zpid/,33.454,-112.09,2017-12-02,2017-12-02
834955,22429468,"3614 W Sierra Vista Dr, Phoenix, AZ 85019 ",85019,0.00034437116265039126,175000,https://www.zillow.com/homedetails/3614-W-Sierra-Vista-Dr-Phoenix-AZ-85019/7761685_zpid/,33.5322,-112.137,2017-04-28,2017-04-28
386830,22622903,"3712 W Palmaire Ave, Phoenix, AZ 85051 ",85051,0.00034314495466404484,183500,https://www.zillow.com/homedetails/3712-W-Palmaire-Ave-Phoenix-AZ-85051/88886444_zpid/,33.5416,-112.139,2017-09-02,2017-09-02
9019398,23819886,"2116 E Vista Dr, Phoenix, AZ 85022 ",85022,0.0003427285167239048,249900,https://www.zillow.com/homedetails/2116-E-Vista-Dr-Phoenix-AZ-85022/8010925_zpid/,33.6222,-112.037,2017-11-03,2017-11-03
9022259,23847162,"3927 W Orangewood Ave, Phoenix, AZ 85051 ",85051,0.00034105777669213137,213900,https://www.zillow.com/homedetails/3927-W-Orangewood-Ave-Phoenix-AZ-85051/7757884_zpid/,33.5455,-112.14399999999999,2017-12-03,2017-12-03
1413226,22747483,"7301 W Cavalier Dr, Glendale, AZ 85303 ",85303,0.00034101272161192404,179900,https://www.zillow.com/homedetails/7301-W-Cavalier-Dr-Glendale-AZ-85303/7707198_zpid/,33.5243,-112.21600000000001,2017-10-10,2017-10-10
392024,23756985,"4134 W Linger Ln, Phoenix, AZ 85051 ",85051,0.00034019182000096773,235000,https://www.zillow.com/homedetails/4134-W-Linger-Ln-Phoenix-AZ-85051/7755387_zpid/,33.5528,-112.148,2017-10-19,2017-10-19
334027,23820917,"6217 N 25th Ave, Phoenix, AZ 85015 ",85015,0.00033953038633955236,186500,https://www.zillow.com/homedetails/6217-N-25th-Ave-Phoenix-AZ-85015/7772678_zpid/,33.5283,-112.11200000000001,2017-11-03,2017-11-03
354848,22739897,"2320 E Beck Ln, Phoenix, AZ 85022 ",85022,0.0003394125250312457,170000,https://www.zillow.com/homedetails/2320-E-Beck-Ln-Phoenix-AZ-85022/8007959_zpid/,33.626999999999995,-112.03299999999999,2017-10-04,2017-10-04
1404969,23834294,"6396 N 73rd Dr, Glendale, AZ 85303 ",85303,0.0003382045398638502,240000,https://www.zillow.com/homedetails/6396-N-73rd-Dr-Glendale-AZ-85303/95163104_zpid/,33.5285,-112.21700000000001,2017-11-16,2017-11-16
7419652,23752910,"4450 N 37TH Ave, Phoenix, AZ 85019 ",85019,0.0003371594471191816,240000,https://www.zillow.com/homedetails/4450-N-37TH-Ave-Phoenix-AZ-85019/95137035_zpid/,33.5016,-112.139,2017-10-15,2017-10-15
316133,23843612,"435 N 17th Ave, Phoenix, AZ 85007 ",85007,0.0003362463779766661,179000,https://www.zillow.com/homedetails/435-N-17th-Ave-Phoenix-AZ-85007/7521605_zpid/,33.4546,-112.095,2017-11-29,2017-11-29
553527,23781588,"1840 N 27th Pl, Phoenix, AZ 85008 ",85008,0.0003355875359254137,225000,https://www.zillow.com/homedetails/1840-N-27th-Pl-Phoenix-AZ-85008/7543221_zpid/,33.4689,-112.023,2016-12-16,2016-12-16
553013,23837564,"1645 N 27th Pl, Phoenix, AZ 85008 ",85008,0.0003340191604661701,238500,https://www.zillow.com/homedetails/1645-N-27th-Pl-Phoenix-AZ-85008/7543235_zpid/,33.4675,-112.023,2017-11-20,2017-11-20
335242,23814162,"6803 N 19th Dr, Phoenix, AZ 85015 ",85015,0.00033237589241887967,159900,https://www.zillow.com/homedetails/6803-N-19th-Dr-Phoenix-AZ-85015/7773475_zpid/,33.5368,-112.1,2017-10-28,2017-10-28
26983,23842750,"1927 W Mitchell Dr, Phoenix, AZ 85015 ",85015,0.00033035800420886844,174999,https://www.zillow.com/homedetails/1927-W-Mitchell-Dr-Phoenix-AZ-85015/7517163_zpid/,33.4885,-112.101,2017-11-27,2017-11-27
9019709,23816778,"2325 W Adams St, Phoenix, AZ 85009 ",85009,0.0003296200454729693,150000,https://www.zillow.com/homedetails/2325-W-Adams-St-Phoenix-AZ-85009/7515215_zpid/,33.4489,-112.11,2017-11-01,2017-11-01
9021060,23754387,"3522 W Michelle Dr, Glendale, AZ 85308 ",85308,0.00032835931990479793,232500,https://www.zillow.com/homedetails/3522-W-Michelle-Dr-Glendale-AZ-85308/7947823_zpid/,33.6498,-112.135,2017-10-16,2017-10-16
644742,23842033,"2222 W Peralta Ave, Mesa, AZ 85202 ",85202,0.0003279607681537152,200000,https://www.zillow.com/homedetails/2222-W-Peralta-Ave-Mesa-AZ-85202/8171027_zpid/,33.3578,-111.882,2017-11-27,2017-11-27
1410517,21990149,"7108 N 73rd Dr, Glendale, AZ 85303 ",85303,0.0003278908539321443,229000,https://www.zillow.com/homedetails/7108-N-73rd-Dr-Glendale-AZ-85303/82823489_zpid/,33.5387,-112.21700000000001,2017-05-16,2017-05-16
834633,23845436,"3526 W Ocotillo Rd, Phoenix, AZ 85019 ",85019,0.0003272943347302592,220000,https://www.zillow.com/homedetails/3526-W-Ocotillo-Rd-Phoenix-AZ-85019/7761449_zpid/,33.535,-112.13600000000001,2017-11-24,2017-11-24
7387290,23818465,"1542 W Mckinley St, Phoenix, AZ 85007 ",85007,0.00032703367138651606,169900,https://www.zillow.com/homedetails/1542-W-Mckinley-St-Phoenix-AZ-85007/7521496_zpid/,33.4571,-112.09299999999999,2017-11-02,2017-11-02
9023241,23843236,"7710 W Cheryl Dr, Peoria, AZ 85345 ",85345,0.00032687885862573216,194900,https://www.zillow.com/homedetails/7710-W-Cheryl-Dr-Peoria-AZ-85345/7682371_zpid/,33.5776,-112.225,2017-11-26,2017-11-26
9022591,23824443,"3101 E Garfield St, Phoenix, AZ 85008 ",85008,0.0003267393312329454,212000,https://www.zillow.com/homedetails/3101-E-Garfield-St-Phoenix-AZ-85008/7545005_zpid/,33.4573,-112.015,2017-11-09,2017-11-09
9021439,23809744,"17630 N 33rd Ln, Phoenix, AZ 85053 ",85053,0.0003256819318216453,224500,https://www.zillow.com/homedetails/17630-N-33rd-Ln-Phoenix-AZ-85053/7942069_zpid/,33.6462,-112.131,2017-10-26,2017-10-26
1421999,23820040,"8134 W Mclellan Rd, Glendale, AZ 85303 ",85303,0.000325592277330081,222500,https://www.zillow.com/homedetails/8134-W-Mclellan-Rd-Glendale-AZ-85303/7462575_zpid/,33.5326,-112.235,2017-11-03,2017-11-03
312687,23848473,"1527 W Sherman St, Phoenix, AZ 85007 ",85007,0.0003244514083397307,169900,https://www.zillow.com/homedetails/1527-W-Sherman-St-Phoenix-AZ-85007/7522607_zpid/,33.4401,-112.09299999999999,2017-12-05,2017-12-05
235380,23850360,"2831 W Grovers Ave, Phoenix, AZ 85053 ",85053,0.0003237137067835796,215000,https://www.zillow.com/homedetails/2831-W-Grovers-Ave-Phoenix-AZ-85053/7942333_zpid/,33.6472,-112.12200000000001,2017-12-09,2017-12-09
8977430,22376634,"1505 W Hadley St, Phoenix, AZ 85007 ",85007,0.0003229409084606722,180000,https://www.zillow.com/homedetails/1505-W-Hadley-St-Phoenix-AZ-85007/2112748542_zpid/,33.4392,-112.09200000000001,2017-07-24,2017-07-24
831732,23849168,"4039 W Rovey Ave, Phoenix, AZ 85019 ",85019,0.00032261898709396797,200000,https://www.zillow.com/homedetails/4039-W-Rovey-Ave-Phoenix-AZ-85019/7760355_zpid/,33.5246,-112.146,2017-12-04,2017-12-04
9022959,23843239,"7726 W Shangri La Rd, Peoria, AZ 85345 ",85345,0.0003221544653983548,219999,https://www.zillow.com/homedetails/7726-W-Shangri-La-Rd-Peoria-AZ-85345/7681844_zpid/,33.5866,-112.229,2017-11-27,2017-11-27
237433,23843870,"2957 W Michelle Dr, Phoenix, AZ 85053 ",85053,0.00032180048467684056,225000,https://www.zillow.com/homedetails/2957-W-Michelle-Dr-Phoenix-AZ-85053/7940747_zpid/,33.6492,-112.124,2017-11-29,2017-11-29
968057,23816718,"510 N Los Feliz Dr, Chandler, AZ 85226 ",85226,0.0003208079208268206,199900,https://www.zillow.com/homedetails/510-N-Los-Feliz-Dr-Chandler-AZ-85226/8154966_zpid/,33.3119,-111.905,2017-11-01,2017-11-01
385650,23850122,"3601 W Royal Palm Rd, Phoenix, AZ 85051 ",85051,0.00032062031905501014,229900,https://www.zillow.com/homedetails/3601-W-Royal-Palm-Rd-Phoenix-AZ-85051/7753622_zpid/,33.5554,-112.137,2017-12-08,2017-12-08
231458,23841403,"17447 N 28th Ave, Phoenix, AZ 85053 ",85053,0.00032055654967865405,179500,https://www.zillow.com/homedetails/17447-N-28th-Ave-Phoenix-AZ-85053/7942439_zpid/,33.6446,-112.119,2017-11-24,2017-11-24
233458,23847110,"18230 N 33rd Ave, Phoenix, AZ 85053 ",85053,0.0003203268993664467,189900,https://www.zillow.com/homedetails/18230-N-33rd-Ave-Phoenix-AZ-85053/7941211_zpid/,33.652,-112.13,2017-12-03,2017-12-03
402515,23808878,"15205 N 51st Dr, Glendale, AZ 85306 ",85306,0.00031988224969836486,189900,https://www.zillow.com/homedetails/15205-N-51st-Dr-Glendale-AZ-85306/7910980_zpid/,33.6226,-112.169,2017-10-26,2017-10-26
8984109,23843223,"7426 W Carol Ave, Peoria, AZ 85345 ",85345,0.0003196251912883474,195000,https://www.zillow.com/homedetails/7426-W-Carol-Ave-Peoria-AZ-85345/7702134_zpid/,33.5726,-112.219,2017-11-24,2017-11-24
972401,23849849,"5810 W Frye Rd, Chandler, AZ 85226 ",85226,0.0003193299807594605,214900,https://www.zillow.com/homedetails/5810-W-Frye-Rd-Chandler-AZ-85226/8262620_zpid/,33.2971,-111.943,2017-12-06,2017-12-06
1121709,23849692,"2370 W Orchid Ln, Chandler, AZ 85224 ",85224,0.00031820940143737625,225000,https://www.zillow.com/homedetails/2370-W-Orchid-Ln-Chandler-AZ-85224/8201830_zpid/,33.324,-111.883,2017-12-07,2017-12-07
238285,23837083,"3015 W Villa Rita Dr, Phoenix, AZ 85053 ",85053,0.00031778704266333417,225000,https://www.zillow.com/homedetails/3015-W-Villa-Rita-Dr-Phoenix-AZ-85053/7940712_zpid/,33.65,-112.124,2017-11-16,2017-11-16
828523,23849753,"3544 W Maryland Ave, Phoenix, AZ 85019 ",85019,0.0003176629319152879,174900,https://www.zillow.com/homedetails/3544-W-Maryland-Ave-Phoenix-AZ-85019/7761656_zpid/,33.5312,-112.13600000000001,2017-12-07,2017-12-07
324692,23842158,"1622 W Clarendon Ave, Phoenix, AZ 85015 ",85015,0.00031519278068915037,233500,https://www.zillow.com/homedetails/1622-W-Clarendon-Ave-Phoenix-AZ-85015/7516431_zpid/,33.4916,-112.095,2017-11-27,2017-11-27
231524,23650293,"17459 N 28th Ave, Phoenix, AZ 85053 ",85053,0.0003150326972844364,199000,https://www.zillow.com/homedetails/17459-N-28th-Ave-Phoenix-AZ-85053/7942436_zpid/,33.6449,-112.119,2017-10-14,2017-10-14
552484,23825389,"1244 N 28th Pl, Phoenix, AZ 85008 ",85008,0.00031498748439649603,155000,https://www.zillow.com/homedetails/1244-N-28th-Pl-Phoenix-AZ-85008/7545284_zpid/,33.4636,-112.021,2017-11-13,2017-11-13
1863393,23849248,"8223 W Poinsettia Dr, Peoria, AZ 85345 ",85345,0.0003146414525847445,229900,https://www.zillow.com/homedetails/8223-W-Poinsettia-Dr-Peoria-AZ-85345/7680859_zpid/,33.5929,-112.236,2017-12-05,2017-12-05
1416084,23849882,"7583 W Krall St, Glendale, AZ 85303 ",85303,0.0003145323404012252,220000,https://www.zillow.com/homedetails/7583-W-Krall-St-Glendale-AZ-85303/7463213_zpid/,33.5346,-112.22200000000001,2017-12-07,2017-12-07
9022548,23847697,"6803 W Cherry Hills Dr, Peoria, AZ 85345 ",85345,0.0003138878060133347,220000,https://www.zillow.com/homedetails/6803-W-Cherry-Hills-Dr-Peoria-AZ-85345/7700208_zpid/,33.5936,-112.205,2017-12-04,2017-12-04
8987452,23806670,"13360 N 79th Ave, Peoria, AZ 85381 ",85381,0.0003137861845497164,219000,https://www.zillow.com/homedetails/13360-N-79th-Ave-Peoria-AZ-85381/8100973_zpid/,33.6063,-112.229,2017-10-25,2017-10-25
434848,23811348,"2008 N 89th Dr, Phoenix, AZ 85037 ",85037,0.0003132995659025213,170000,https://www.zillow.com/homedetails/2008-N-89th-Dr-Phoenix-AZ-85037/7486878_zpid/,33.469,-112.25200000000001,2017-10-27,2017-10-27
9022220,23813743,"3934 W Sheridan St, Phoenix, AZ 85009 ",85009,0.0003119136160713498,175000,https://www.zillow.com/homedetails/3934-W-Sheridan-St-Phoenix-AZ-85009/7512512_zpid/,33.4754,-112.145,2017-10-28,2017-10-28
354473,23783928,"2302 E Beck Ln, Phoenix, AZ 85022 ",85022,0.0003108821082525915,149900,https://www.zillow.com/homedetails/2302-E-Beck-Ln-Phoenix-AZ-85022/8007955_zpid/,33.6274,-112.03299999999999,2017-03-14,2017-03-14
326871,23842977,"1917 W Campbell Ave, Phoenix, AZ 85015 ",85015,0.00031081606516530024,190000,https://www.zillow.com/homedetails/1917-W-Campbell-Ave-Phoenix-AZ-85015/7767390_zpid/,33.5022,-112.101,2017-11-28,2017-11-28
481915,23852927,"2518 N 67th Dr, Phoenix, AZ 85035 ",85035,0.0003108148710892394,145000,https://www.zillow.com/homedetails/2518-N-67th-Dr-Phoenix-AZ-85035/7475839_zpid/,33.4762,-112.204,2017-12-08,2017-12-08
8976951,23840656,"8540 W Cherry Hills Dr, Peoria, AZ 85345 ",85345,0.00031017281276758115,233900,https://www.zillow.com/homedetails/8540-W-Cherry-Hills-Dr-Peoria-AZ-85345/7685498_zpid/,33.5927,-112.243,2017-11-21,2017-11-21
314137,23848469,"1718 W Cocopah St, Phoenix, AZ 85007 ",85007,0.00030999702103654556,155000,https://www.zillow.com/homedetails/1718-W-Cocopah-St-Phoenix-AZ-85007/7501240_zpid/,33.4318,-112.096,2017-12-05,2017-12-05
434601,23841755,"1838 N 83rd Ln, Phoenix, AZ 85037 ",85037,0.0003098033842850345,195000,https://www.zillow.com/homedetails/1838-N-83rd-Ln-Phoenix-AZ-85037/7487940_zpid/,33.4683,-112.24,2017-11-23,2017-11-23
334383,22732912,"12827 N 22nd Pl, Phoenix, AZ 85022 ",85022,0.0003097421131474258,218000,https://www.zillow.com/homedetails/12827-N-22nd-Pl-Phoenix-AZ-85022/7815663_zpid/,33.6034,-112.03299999999999,2017-10-01,2017-10-01
1373864,23831106,"8783 W State Ave, Glendale, AZ 85305 ",85305,0.0003095649395350573,240000,https://www.zillow.com/homedetails/8783-W-State-Ave-Glendale-AZ-85305/61627820_zpid/,33.5431,-112.24799999999999,2017-11-11,2017-11-11
9023830,23833574,"4019 W Woodridge Dr, Glendale, AZ 85308 ",85308,0.0003091183285649677,217500,https://www.zillow.com/homedetails/4019-W-Woodridge-Dr-Glendale-AZ-85308/7946693_zpid/,33.64,-112.146,2017-11-11,2017-11-11
312249,23814876,"1433 S 14th Ave, Phoenix, AZ 85007 ",85007,0.0003084274497183066,174900,https://www.zillow.com/homedetails/1433-S-14th-Ave-Phoenix-AZ-85007/7500688_zpid/,33.4338,-112.09,2017-10-29,2017-10-29
450133,23853376,"8659 W Palm Ln, Phoenix, AZ 85037 ",85037,0.00030793046237767574,179900,https://www.zillow.com/homedetails/8659-W-Palm-Ln-Phoenix-AZ-85037/7487502_zpid/,33.47,-112.244,2017-12-09,2017-12-09
23746,23853535,"9447 W Virginia Ave, Phoenix, AZ 85037 ",85037,0.00030789483296338676,199000,https://www.zillow.com/homedetails/9447-W-Virginia-Ave-Phoenix-AZ-85037/62727172_zpid/,33.4763,-112.262,2017-12-08,2017-12-08
8950821,23840949,"7245 W Brown St, Peoria, AZ 85345 ",85345,0.0003072056089949939,199999,https://www.zillow.com/homedetails/7245-W-Brown-St-Peoria-AZ-85345/7701411_zpid/,33.5771,-112.215,2017-11-24,2017-11-24
832728,23830962,"4250 W Cavalier Dr, Phoenix, AZ 85019 ",85019,0.00030709728790336146,188000,https://www.zillow.com/homedetails/4250-W-Cavalier-Dr-Phoenix-AZ-85019/7760522_zpid/,33.5263,-112.15100000000001,2017-11-14,2017-11-14
7449241,23819586,"11935 N 68th Ave, Peoria, AZ 85345 ",85345,0.0003062597921744013,245000,https://www.zillow.com/homedetails/11935-N-68th-Ave-Peoria-AZ-85345/7700139_zpid/,33.594,-112.204,2017-11-03,2017-11-03
9022124,23839846,"8533 W Ruth Ave, Peoria, AZ 85345 ",85345,0.00030593812777512605,200000,https://www.zillow.com/homedetails/8533-W-Ruth-Ave-Peoria-AZ-85345/7683557_zpid/,33.5621,-112.244,2017-11-21,2017-11-21
828576,23818644,"3555 W Coolidge St, Phoenix, AZ 85019 ",85019,0.0003056552167303824,185900,https://www.zillow.com/homedetails/3555-W-Coolidge-St-Phoenix-AZ-85019/7506892_zpid/,33.5051,-112.13600000000001,2017-11-02,2017-11-02
450725,23853431,"8746 W Granada Rd, Phoenix, AZ 85037 ",85037,0.0003052653148496678,209900,https://www.zillow.com/homedetails/8746-W-Granada-Rd-Phoenix-AZ-85037/7487519_zpid/,33.4683,-112.249,2017-12-08,2017-12-08
330587,22131299,"4508 N 17th Ave, Phoenix, AZ 85015 ",85015,0.0003052293594466886,185000,https://www.zillow.com/homedetails/4508-N-17th-Ave-Phoenix-AZ-85015/7772361_zpid/,33.5027,-112.096,2017-04-22,2017-04-22
7450958,21944041,"12172 N 86th Ln, Peoria, AZ 85345 ",85345,0.0003050627899562122,215000,https://www.zillow.com/homedetails/12172-N-86th-Ln-Peoria-AZ-85345/7685390_zpid/,33.5947,-112.24600000000001,2017-03-21,2017-03-21
497355,23849485,"6740 W Cypress St, Phoenix, AZ 85035 ",85035,0.0003045606700389336,149000,https://www.zillow.com/homedetails/6740-W-Cypress-St-Phoenix-AZ-85035/7475682_zpid/,33.4729,-112.205,2017-12-05,2017-12-05
9012841,23819608,"8121 W Hatcher Rd, Peoria, AZ 85345 ",85345,0.0003038584067504078,239000,https://www.zillow.com/homedetails/8121-W-Hatcher-Rd-Peoria-AZ-85345/7682649_zpid/,33.57,-112.234,2017-11-02,2017-11-02
8997758,23843208,"7132 W Cholla St, Peoria, AZ 85345 ",85345,0.0003035314264085346,239000,https://www.zillow.com/homedetails/7132-W-Cholla-St-Peoria-AZ-85345/7700503_zpid/,33.5888,-112.213,2017-11-17,2017-11-17
434832,23841757,"2007 N 90th Ln, Phoenix, AZ 85037 ",85037,0.00030309476554328887,179000,https://www.zillow.com/homedetails/2007-N-90th-Ln-Phoenix-AZ-85037/7487835_zpid/,33.4691,-112.25399999999999,2017-11-24,2017-11-24
9023130,23824201,"7101 W Paradise Dr, Peoria, AZ 85345 ",85345,0.000303087688043787,199999,https://www.zillow.com/homedetails/7101-W-Paradise-Dr-Peoria-AZ-85345/7700652_zpid/,33.5947,-112.212,2017-11-07,2017-11-07
1885773,23853073,"4339 N 63rd Dr, Phoenix, AZ 85033 ",85033,0.00030273268137218844,215000,https://www.zillow.com/homedetails/4339-N-63rd-Dr-Phoenix-AZ-85033/7717229_zpid/,33.5005,-112.196,2017-11-14,2017-11-14
8456513,23825748,"7372 W Mescal St, Peoria, AZ 85345 ",85345,0.0003022455390700675,199880,https://www.zillow.com/homedetails/7372-W-Mescal-St-Peoria-AZ-85345/7700861_zpid/,33.5857,-112.21799999999999,2017-11-11,2017-11-11
829866,23846790,"3725 W Hazelwood St, Phoenix, AZ 85019 ",85019,0.00030159731672317413,199599,https://www.zillow.com/homedetails/3725-W-Hazelwood-St-Phoenix-AZ-85019/7507053_zpid/,33.5033,-112.14,2017-12-02,2017-12-02
832330,23845531,"4148 W Maryland Ave, Phoenix, AZ 85019 ",85019,0.0003013860435023164,178500,https://www.zillow.com/homedetails/4148-W-Maryland-Ave-Phoenix-AZ-85019/7762142_zpid/,33.5312,-112.149,2017-11-28,2017-11-28
8991640,23842259,"8746 W Cherry Hills Dr, Peoria, AZ 85345 ",85345,0.0003010897704321041,215000,https://www.zillow.com/homedetails/8746-W-Cherry-Hills-Dr-Peoria-AZ-85345/7685529_zpid/,33.5927,-112.24799999999999,2017-11-27,2017-11-27
402667,23823693,"15234 N 51st Dr, Glendale, AZ 85306 ",85306,0.00030100437861374713,245000,https://www.zillow.com/homedetails/15234-N-51st-Dr-Glendale-AZ-85306/7911002_zpid/,33.6236,-112.169,2017-11-06,2017-11-06
8996157,23841902,"11202 N 69th Dr, Peoria, AZ 85345 ",85345,0.00030060328971169873,208000,https://www.zillow.com/homedetails/11202-N-69th-Dr-Peoria-AZ-85345/7699586_zpid/,33.5869,-112.208,2017-11-24,2017-11-24
525075,23853525,"9142 W Palm Ln, Phoenix, AZ 85037 ",85037,0.00029970977439334025,204000,https://www.zillow.com/homedetails/9142-W-Palm-Ln-Phoenix-AZ-85037/60047154_zpid/,33.4689,-112.257,2017-12-05,2017-12-05
329444,22745740,"2423 W San Miguel Ave, Phoenix, AZ 85015 ",85015,0.00029949369102031347,178800,https://www.zillow.com/homedetails/2423-W-San-Miguel-Ave-Phoenix-AZ-85015/7763696_zpid/,33.5193,-112.11200000000001,2017-10-06,2017-10-06
9021740,23846180,"11119 N 82nd Dr, Peoria, AZ 85345 ",85345,0.00029922234121696183,194900,https://www.zillow.com/homedetails/11119-N-82nd-Dr-Peoria-AZ-85345/7681327_zpid/,33.5851,-112.236,2017-12-01,2017-12-01
329381,23823804,"2413 W Coolidge St, Phoenix, AZ 85015 ",85015,0.0002989201370070159,194999,https://www.zillow.com/homedetails/2413-W-Coolidge-St-Phoenix-AZ-85015/7767010_zpid/,33.505,-112.111,2017-11-07,2017-11-07
490976,23837976,"5531 W Edgemont Ave, Phoenix, AZ 85035 ",85035,0.00029846488771246963,156999,https://www.zillow.com/homedetails/5531-W-Edgemont-Ave-Phoenix-AZ-85035/7491827_zpid/,33.4795,-112.179,2017-11-16,2017-11-16
1374907,23793911,"9008 W Nicolet Ave, Glendale, AZ 85305 ",85305,0.000297741217764801,231798,https://www.zillow.com/homedetails/9008-W-Nicolet-Ave-Glendale-AZ-85305/95082341_zpid/,33.5415,-112.25299999999999,2017-02-23,2017-02-23
8989113,22740158,"19153 N 75th Dr, Glendale, AZ 85308 ",85308,0.00029590025152886174,235000,https://www.zillow.com/homedetails/19153-N-75th-Dr-Glendale-AZ-85308/7892099_zpid/,33.6583,-112.221,2017-10-05,2017-10-05
8977481,23842943,"17255 N 55th Dr, Glendale, AZ 85308 ",85308,0.0002949584522331739,249000,https://www.zillow.com/homedetails/17255-N-55th-Dr-Glendale-AZ-85308/8099562_zpid/,33.6425,-112.179,2017-11-28,2017-11-28
9022258,23835030,"3023 W Krall St, Phoenix, AZ 85017 ",85017,0.00029474504446621853,249900,https://www.zillow.com/homedetails/3023-W-Krall-St-Phoenix-AZ-85017/7759497_zpid/,33.534,-112.125,2017-11-17,2017-11-17
8952003,23825700,"11625 N 80th Dr, Peoria, AZ 85345 ",85345,0.0002943287942036159,175000,https://www.zillow.com/homedetails/11625-N-80th-Dr-Peoria-AZ-85345/7681012_zpid/,33.5904,-112.23200000000001,2017-11-11,2017-11-11
352271,23842122,"6938 W Villa St, Phoenix, AZ 85043 ",85043,0.0002942650963521693,165000,https://www.zillow.com/homedetails/6938-W-Villa-St-Phoenix-AZ-85043/7476296_zpid/,33.455999999999996,-112.209,2017-11-27,2017-11-27
8988082,23849229,"6914 W Sierra St, Peoria, AZ 85345 ",85345,0.0002936402995603535,198900,https://www.zillow.com/homedetails/6914-W-Sierra-St-Peoria-AZ-85345/7699742_zpid/,33.5904,-112.208,2017-12-05,2017-12-05
326637,23840748,"1821 W Heatherbrae Dr, Phoenix, AZ 85015 ",85015,0.0002934944600533196,243900,https://www.zillow.com/homedetails/1821-W-Heatherbrae-Dr-Phoenix-AZ-85015/7772229_zpid/,33.498000000000005,-112.09899999999999,2017-11-23,2017-11-23
835193,22740118,"3633 W Mariposa St, Phoenix, AZ 85019 ",85019,0.00029266632605009477,180000,https://www.zillow.com/homedetails/3633-W-Mariposa-St-Phoenix-AZ-85019/7506850_zpid/,33.5075,-112.13799999999999,2017-10-05,2017-10-05
527415,23853531,"9437 W Terri Lee Dr, Phoenix, AZ 85037 ",85037,0.00029181052979261157,205000,https://www.zillow.com/homedetails/9437-W-Terri-Lee-Dr-Phoenix-AZ-85037/67764458_zpid/,33.4667,-112.264,2017-11-26,2017-11-26
405134,21884112,"4532 W Bobbie Ter, Glendale, AZ 85306 ",85306,0.0002915373850947831,234975,https://www.zillow.com/homedetails/4532-W-Bobbie-Ter-Glendale-AZ-85306/7950550_zpid/,33.635999999999996,-112.154,2017-03-13,2017-03-13
8946570,21960648,"7614 W Turquoise Ave, Peoria, AZ 85345 ",85345,0.00029136263214521755,219000,https://www.zillow.com/homedetails/7614-W-Turquoise-Ave-Peoria-AZ-85345/7682180_zpid/,33.5747,-112.223,2017-05-10,2017-05-10
349598,23800467,"18407 N 16th Pl, Phoenix, AZ 85022 ",85022,0.00029098501268233083,240000,https://www.zillow.com/homedetails/18407-N-16th-Pl-Phoenix-AZ-85022/8001275_zpid/,33.6534,-112.04700000000001,2017-10-24,2017-10-24
8969477,23756066,"9324 W Mountain View Rd, Peoria, AZ 85345 ",85345,0.0002903212912740512,214000,https://www.zillow.com/homedetails/9324-W-Mountain-View-Rd-Peoria-AZ-85345/7697441_zpid/,33.5733,-112.26100000000001,2017-10-18,2017-10-18
1412762,23830526,"7238 W Bethany Home Rd, Glendale, AZ 85303 ",85303,0.0002901949699645359,170000,https://www.zillow.com/homedetails/7238-W-Bethany-Home-Rd-Glendale-AZ-85303/7707005_zpid/,33.5235,-112.215,2017-11-10,2017-11-10
829369,14952856,"3650 W Cavalier Dr, Phoenix, AZ 85019 ",85019,0.0002895540101167083,167400,http://www.zillow.com/homedetails/3650-W-Cavalier-Dr-Phoenix-AZ-85019/7759138_zpid/,33.5264,-112.13799999999999,2017-01-06,2017-01-06
1859,23650472,"9128 W Alvarado St, Phoenix, AZ 85037 ",85037,0.0002894498721233245,214000,https://www.zillow.com/homedetails/9128-W-Alvarado-St-Phoenix-AZ-85037/60047210_zpid/,33.4712,-112.257,2017-10-12,2017-10-12
1870092,23845845,"7450 W Sahuaro Dr, Peoria, AZ 85345 ",85345,0.0002891095547864706,179000,https://www.zillow.com/homedetails/7450-W-Sahuaro-Dr-Peoria-AZ-85345/7705671_zpid/,33.5838,-112.22,2017-11-28,2017-11-28
9021737,23842822,"10136 N 73RD Ave, Peoria, AZ 85345 ",85345,0.0002887222569738063,208000,https://www.zillow.com/homedetails/10136-N-73rd-Ave-Peoria-AZ-85345/92353333_zpid/,33.5777,-112.215,2017-11-28,2017-11-28
9024018,23835783,"1725 W Auburn St, Mesa, AZ 85201 ",85201,0.0002887036343082492,189900,https://www.zillow.com/homedetails/1725-W-Auburn-St-Mesa-AZ-85201/7612538_zpid/,33.4176,-111.869,2017-11-16,2017-11-16
25059,21638916,"777 W Roosevelt St, Phoenix, AZ 85007 ",85007,0.00028847987520992565,207000,https://www.zillow.com/homedetails/777-W-Roosevelt-St-Phoenix-AZ-85007/2107063726_zpid/,33.4582,-112.083,2017-02-09,2017-02-09
9020725,23815067,"9537 W Sunnyslope Ln, Peoria, AZ 85345 ",85345,0.00028809908808103877,224000,https://www.zillow.com/homedetails/9537-W-Sunnyslope-Ln-Peoria-AZ-85345/7697879_zpid/,33.5693,-112.265,2017-10-30,2017-10-30
326266,22680508,"1747 W Colter St, Phoenix, AZ 85015 ",85015,0.0002862046771858774,249900,https://www.zillow.com/homedetails/1747-W-Colter-St-Phoenix-AZ-85015/7775943_zpid/,33.5127,-112.098,2017-09-14,2017-09-14
325345,23781077,"1710 W Bethany Home Rd, Phoenix, AZ 85015 ",85015,0.0002858299527510002,219000,https://www.zillow.com/homedetails/1710-W-Bethany-Home-Rd-Phoenix-AZ-85015/7774319_zpid/,33.5243,-112.096,2017-03-13,2017-03-13
1342305,23849185,"4413 W Maryland Ave, Glendale, AZ 85301 ",85301,0.00028561530864844455,232500,https://www.zillow.com/homedetails/4413-W-Maryland-Ave-Glendale-AZ-85301/7724234_zpid/,33.5309,-112.154,2017-12-05,2017-12-05
829049,23814294,"3625 W San Juan Ave, Phoenix, AZ 85019 ",85019,0.00028377596218909863,150000,https://www.zillow.com/homedetails/3625-W-San-Juan-Ave-Phoenix-AZ-85019/7719375_zpid/,33.5186,-112.13799999999999,2017-10-29,2017-10-29
394881,23830983,"7533 N 30th Ave, Phoenix, AZ 85051 ",85051,0.0002833968373660254,237900,https://www.zillow.com/homedetails/7533-N-30th-Ave-Phoenix-AZ-85051/95143966_zpid/,33.5471,-112.124,2017-11-11,2017-11-11
9020195,23820290,"8638 W Laurel Ln, Peoria, AZ 85345 ",85345,0.0002831683733976232,247700,https://www.zillow.com/homedetails/8638-W-Laurel-Ln-Peoria-AZ-85345/7685468_zpid/,33.5934,-112.245,2017-11-03,2017-11-03
8964694,23800320,"9084 N 80th Ln, Peoria, AZ 85345 ",85345,0.0002828647692225436,170000,https://www.zillow.com/homedetails/9084-N-80th-Ln-Peoria-AZ-85345/50187199_zpid/,33.5677,-112.23299999999999,2017-08-01,2017-08-01
9022649,23849873,"7133 W Mountain View Rd, Peoria, AZ 85345 ",85345,0.0002819692718221062,209800,https://www.zillow.com/homedetails/7133-W-Mountain-View-Rd-Peoria-AZ-85345/7702397_zpid/,33.5743,-112.213,2017-12-04,2017-12-04
8996166,23838042,"8901 W Malapai Dr, Peoria, AZ 85345 ",85345,0.0002817648535688525,194000,https://www.zillow.com/homedetails/8901-W-Malapai-Dr-Peoria-AZ-85345/7684242_zpid/,33.5749,-112.251,2017-11-16,2017-11-16
9023260,23825739,"6913 W Beryl Ave, Peoria, AZ 85345 ",85345,0.00028119741658733804,197000,https://www.zillow.com/homedetails/6913-W-Beryl-Ave-Peoria-AZ-85345/7701889_zpid/,33.5787,-112.208,2017-11-11,2017-11-11
337488,23779389,"1424 E Le Marche Ave, Phoenix, AZ 85022 ",85022,0.0002791356383994786,223000,https://www.zillow.com/homedetails/1424-E-Le-Marche-Ave-Phoenix-AZ-85022/8003944_zpid/,33.6325,-112.051,2017-03-17,2017-03-17
344412,23649622,"2406 W Tonto St, Phoenix, AZ 85009 ",85009,0.0002790014385187276,195000,https://www.zillow.com/homedetails/2406-W-Tonto-St-Phoenix-AZ-85009/7515658_zpid/,33.4388,-112.111,2017-10-12,2017-10-12
314996,23833971,"1841 W Pima St, Phoenix, AZ 85007 ",85007,0.0002787400541693788,154999,https://www.zillow.com/homedetails/1841-W-Pima-St-Phoenix-AZ-85007/7501195_zpid/,33.4329,-112.09899999999999,2017-11-16,2017-11-16
7409762,23824228,"8709 W Diana Ave, Peoria, AZ 85345 ",85345,0.0002784673424329904,244950,https://www.zillow.com/homedetails/8709-W-Diana-Ave-Peoria-AZ-85345/7683828_zpid/,33.5611,-112.24700000000001,2017-11-07,2017-11-07
222617,22606562,"1010 W Renee Dr, Phoenix, AZ 85027 ",85027,0.00027777793195173935,245000,https://www.zillow.com/homedetails/1010-W-Renee-Dr-Phoenix-AZ-85027/7971269_zpid/,33.6551,-112.085,2017-08-30,2017-08-30
404268,23780495,"16417 N 47th Dr, Glendale, AZ 85306 ",85306,0.00027716174141376924,245000,https://www.zillow.com/homedetails/16417-N-47th-Dr-Glendale-AZ-85306/7951226_zpid/,33.6345,-112.161,2017-03-09,2017-03-09
328718,23810569,"2235 W Highland Ave, Phoenix, AZ 85015 ",85015,0.0002760535143074258,99000,https://www.zillow.com/homedetails/2235-W-Highland-Ave-Phoenix-AZ-85015/7767290_zpid/,33.5055,-112.10799999999999,2017-10-27,2017-10-27
8999939,23837041,"1334 W Utopia Rd, Phoenix, AZ 85027 ",85027,0.00027488097763480674,243000,https://www.zillow.com/homedetails/1334-W-Utopia-Rd-Phoenix-AZ-85027/7971426_zpid/,33.6619,-112.089,2017-11-17,2017-11-17
328241,23845148,"2138 W Thomas Rd, Phoenix, AZ 85015 ",85015,0.00027450566557419296,225000,https://www.zillow.com/homedetails/2138-W-Thomas-Rd-Phoenix-AZ-85015/7518981_zpid/,33.481,-112.10600000000001,2017-11-30,2017-11-30
244451,23841407,"1933 W Davis Rd, Phoenix, AZ 85023 ",85023,0.00027448854078862783,200000,https://www.zillow.com/homedetails/1933-W-Davis-Rd-Phoenix-AZ-85023/81995109_zpid/,33.6318,-112.101,2017-11-24,2017-11-24
230933,23837060,"18608 N 17th Ave, Phoenix, AZ 85027 ",85027,0.0002744520568160208,219900,https://www.zillow.com/homedetails/18608-N-17th-Ave-Phoenix-AZ-85027/7969674_zpid/,33.6552,-112.096,2017-11-16,2017-11-16
8950822,21960213,"7406 W Eva St, Peoria, AZ 85345 ",85345,0.0002740767859383467,185000,https://www.zillow.com/homedetails/7406-W-Eva-St-Peoria-AZ-85345/7702481_zpid/,33.5683,-112.21799999999999,2017-05-17,2017-05-17
8996162,23846649,"8420 W Butler Dr, Peoria, AZ 85345 ",85345,0.0002721742493283168,235900,https://www.zillow.com/homedetails/8420-W-Butler-Dr-Peoria-AZ-85345/7683722_zpid/,33.5593,-112.241,2017-11-29,2017-11-29
9023142,23824279,"9820 N 90th Ln, Peoria, AZ 85345 ",85345,0.00027101034894322313,205000,https://www.zillow.com/homedetails/9820-N-90th-Ln-Peoria-AZ-85345/7684197_zpid/,33.574,-112.255,2017-11-08,2017-11-08
355855,23833551,"702 E Rose Marie Ln, Phoenix, AZ 85022 ",85022,0.0002703159906288925,247000,https://www.zillow.com/homedetails/702-E-Rose-Marie-Ln-Phoenix-AZ-85022/49942677_zpid/,33.6527,-112.065,2017-11-14,2017-11-14
9019605,22737585,"9213 W Fillmore St, Tolleson, AZ 85353 ",85353,0.00027003720800301476,195000,https://www.zillow.com/homedetails/9213-W-Fillmore-St-Tolleson-AZ-85353/7476932_zpid/,33.4532,-112.258,2017-10-04,2017-10-04
499623,23853309,"7113 W Holly St, Phoenix, AZ 85035 ",85035,0.0002693361507127948,135000,https://www.zillow.com/homedetails/7113-W-Holly-St-Phoenix-AZ-85035/7475387_zpid/,33.4699,-112.213,2017-12-05,2017-12-05
9020722,23840670,"8826 W Diana Ave, Peoria, AZ 85345 ",85345,0.0002689945264613898,212500,https://www.zillow.com/homedetails/8826-W-Diana-Ave-Peoria-AZ-85345/7683842_zpid/,33.5613,-112.25,2017-11-17,2017-11-17
836805,23790332,"5534 N 41st Ave, Phoenix, AZ 85019 ",85019,0.0002688683329492159,194999,https://www.zillow.com/homedetails/5534-N-41st-Ave-Phoenix-AZ-85019/7718832_zpid/,33.5179,-112.148,2017-02-10,2017-02-10
461231,23830943,"2512 W Luke Ave, Phoenix, AZ 85017 ",85017,0.0002682686887408273,180000,https://www.zillow.com/homedetails/2512-W-Luke-Ave-Phoenix-AZ-85017/7763843_zpid/,33.5188,-112.113,2017-11-09,2017-11-09
9021813,23820289,"8528 W Eva St, Peoria, AZ 85345 ",85345,0.00026791989868909437,186000,https://www.zillow.com/homedetails/8528-W-Eva-St-Peoria-AZ-85345/7696910_zpid/,33.5674,-112.243,2017-11-03,2017-11-03
556309,23847953,"2429 W Washington St, Phoenix, AZ 85009 ",85009,0.0002667533234914908,169000,https://www.zillow.com/homedetails/2429-W-Washington-St-Phoenix-AZ-85009/7515236_zpid/,33.4478,-112.11200000000001,2017-12-06,2017-12-06
409027,23846575,"6509 W Grandview Rd, Glendale, AZ 85306 ",85306,0.0002654221519561354,229900,https://www.zillow.com/homedetails/6509-W-Grandview-Rd-Glendale-AZ-85306/7902066_zpid/,33.6342,-112.198,2017-12-01,2017-12-01
401171,22726857,"14216 N 45th Dr, Glendale, AZ 85306 ",85306,0.0002642392988793918,199900,https://www.zillow.com/homedetails/14216-N-45th-Dr-Glendale-AZ-85306/7952135_zpid/,33.6149,-112.15700000000001,2017-09-26,2017-09-26
9022810,23853729,"18636 N 22nd Ln, Phoenix, AZ 85027 ",85027,0.0002642168950738952,189000,https://www.zillow.com/homedetails/18636-N-22nd-Ln-Phoenix-AZ-85027/7969783_zpid/,33.6561,-112.10799999999999,2017-12-09,2017-12-09
830040,23835035,"3735 W Cavalier Dr, Phoenix, AZ 85019 ",85019,0.0002639978946361712,189900,https://www.zillow.com/homedetails/3735-W-Cavalier-Dr-Phoenix-AZ-85019/7758958_zpid/,33.525999999999996,-112.14,2017-11-16,2017-11-16
261913,23649326,"5308 N 78th Pl, Scottsdale, AZ 85250 ",85250,0.0002639191911034378,229000,https://www.zillow.com/homedetails/5308-N-78th-Pl-Scottsdale-AZ-85250/7842267_zpid/,33.5142,-111.913,2017-10-13,2017-10-13
255668,23837407,"412 W Sandra Ter, Phoenix, AZ 85023 ",85023,0.00026280071710340947,229999,https://www.zillow.com/homedetails/412-W-Sandra-Ter-Phoenix-AZ-85023/7965434_zpid/,33.6344,-112.08,2017-11-20,2017-11-20
1866845,23763851,"1825 W Ray Rd, Chandler, AZ 85224 ",85224,0.00026220243726501,179000,http://www.zillow.com/homedetails/1825-W-Ray-Rd-Chandler-AZ-85224/2109892120_zpid/,33.318000000000005,-111.87299999999999,2017-01-27,2017-01-27
226007,23837043,"1415 W Topeka Dr, Phoenix, AZ 85027 ",85027,0.00026179757524263545,248000,https://www.zillow.com/homedetails/1415-W-Topeka-Dr-Phoenix-AZ-85027/7971784_zpid/,33.6594,-112.089,2017-11-16,2017-11-16
1373662,23843286,"8771 W Ocotillo Rd, Glendale, AZ 85305 ",85305,0.000261657609727714,185000,https://www.zillow.com/homedetails/8771-W-Ocotillo-Rd-Glendale-AZ-85305/7461673_zpid/,33.5332,-112.25,2017-11-27,2017-11-27
9024146,23837153,"18231 N 35th Dr, Glendale, AZ 85308 ",85308,0.0002614011478117644,249900,https://www.zillow.com/homedetails/18231-N-35th-Dr-Glendale-AZ-85308/7947905_zpid/,33.652,-112.135,2017-11-18,2017-11-18
501068,23853288,"7426 W Monte Vista Rd, Phoenix, AZ 85035 ",85035,0.0002612529474305015,155000,https://www.zillow.com/homedetails/7426-W-Monte-Vista-Rd-Phoenix-AZ-85035/7474922_zpid/,33.471,-112.22,2017-11-15,2017-11-15
345142,23753531,"1739 E Bluefield Ave, Phoenix, AZ 85022 ",85022,0.0002610375852185553,224900,https://www.zillow.com/homedetails/1739-E-Bluefield-Ave-Phoenix-AZ-85022/8001407_zpid/,33.6526,-112.044,2017-10-16,2017-10-16
694777,22426089,"4826 W Charleston Ave, Glendale, AZ 85308 ",85308,0.00026099438641031977,234500,https://www.zillow.com/homedetails/4826-W-Charleston-Ave-Glendale-AZ-85308/7949355_zpid/,33.6493,-112.164,2017-07-28,2017-07-28
228141,22578193,"1602 W Morrow Dr, Phoenix, AZ 85027 ",85027,0.00026056072645101096,239900,https://www.zillow.com/homedetails/1602-W-Morrow-Dr-Phoenix-AZ-85027/7968856_zpid/,33.6572,-112.094,2017-08-24,2017-08-24
9018953,23821610,"1515 W Utopia Rd, Phoenix, AZ 85027 ",85027,0.0002602312169858263,210000,https://www.zillow.com/homedetails/1515-W-Utopia-Rd-Phoenix-AZ-85027/7969635_zpid/,33.6617,-112.09200000000001,2017-11-05,2017-11-05
149903,23800141,"8309 E Indian School Rd, Scottsdale, AZ 85251 ",85251,0.00026013685623719877,239850,https://www.zillow.com/homedetails/8309-E-Indian-School-Rd-Scottsdale-AZ-85251/7577019_zpid/,33.4948,-111.902,2017-10-15,2017-10-15
234163,23837062,"1923 W Kristal Way, Phoenix, AZ 85027 ",85027,0.00025903319784968643,220000,https://www.zillow.com/homedetails/1923-W-Kristal-Way-Phoenix-AZ-85027/7969934_zpid/,33.6606,-112.101,2017-11-16,2017-11-16
475131,23850151,"6801 N 30th Ave, Phoenix, AZ 85017 ",85017,0.00025857233868881104,214900,https://www.zillow.com/homedetails/6801-N-30th-Ave-Phoenix-AZ-85017/7758750_zpid/,33.5364,-112.124,2017-12-08,2017-12-08
833447,23561389,"5713 N 42nd Ave, Phoenix, AZ 85019 ",85019,0.00025802391818690554,165000,https://www.zillow.com/homedetails/5713-N-42nd-Ave-Phoenix-AZ-85019/7718429_zpid/,33.5207,-112.148,2017-10-13,2017-10-13
405688,23849827,"4818 W Lavey Rd, Glendale, AZ 85306 ",85306,0.00025708982546147126,184900,https://www.zillow.com/homedetails/4818-W-Lavey-Rd-Glendale-AZ-85306/7951069_zpid/,33.6373,-112.163,2017-12-07,2017-12-07
1885354,23821625,"4921 W Tonto Rd, Glendale, AZ 85308 ",85308,0.0002570654652024438,235000,https://www.zillow.com/homedetails/4921-W-Tonto-Rd-Glendale-AZ-85308/7938037_zpid/,33.665,-112.166,2017-11-05,2017-11-05
828736,22708030,"3602 W Pasadena Ave, Phoenix, AZ 85019 ",85019,0.0002563655143058247,197500,https://www.zillow.com/homedetails/3602-W-Pasadena-Ave-Phoenix-AZ-85019/7719981_zpid/,33.5109,-112.137,2017-09-20,2017-09-20
831502,23849786,"4020 W Bethany Home Rd, Phoenix, AZ 85019 ",85019,0.00025628264355654127,175000,https://www.zillow.com/homedetails/4020-W-Bethany-Home-Rd-Phoenix-AZ-85019/7760362_zpid/,33.5242,-112.146,2017-12-07,2017-12-07
702422,23836601,"3144 S Rogers, Mesa, AZ 85202 ",85202,0.00025618613207086227,244000,https://www.zillow.com/homedetails/3144-S-Rogers-Mesa-AZ-85202/8171993_zpid/,33.3577,-111.86399999999999,2017-11-16,2017-11-16
402730,23831013,"15243 N 66th Dr, Glendale, AZ 85306 ",85306,0.0002555592417117852,239900,https://www.zillow.com/homedetails/15243-N-66th-Dr-Glendale-AZ-85306/8100497_zpid/,33.6248,-112.20100000000001,2017-11-11,2017-11-11
237155,23837068,"2001 W Wescott Dr, Phoenix, AZ 85027 ",85027,0.00025554540538861393,249900,https://www.zillow.com/homedetails/2001-W-Wescott-Dr-Phoenix-AZ-85027/7970026_zpid/,33.6578,-112.103,2017-11-17,2017-11-17
696770,23849140,"2922 W Granada Rd, Phoenix, AZ 85009 ",85009,0.0002547203880065262,199999,https://www.zillow.com/homedetails/2922-W-Granada-Rd-Phoenix-AZ-85009/81980880_zpid/,33.4689,-112.12200000000001,2017-12-04,2017-12-04
259474,23846319,"19668 N 48th Ln, Glendale, AZ 85308 ",85308,0.0002545238822393431,214500,https://www.zillow.com/homedetails/19668-N-48th-Ln-Glendale-AZ-85308/7937775_zpid/,33.6642,-112.165,2017-12-01,2017-12-01
7415543,23760080,"5627 W Mission Ln, Glendale, AZ 85302 ",85302,0.00025307756463989033,223900,https://www.zillow.com/homedetails/5627-W-Mission-Ln-Glendale-AZ-85302/7734682_zpid/,33.569,-112.18,2017-10-20,2017-10-20
9023689,23831075,"5604 W Grovers Ave, Glendale, AZ 85308 ",85308,0.00025248873958434834,195000,https://www.zillow.com/homedetails/5604-W-Grovers-Ave-Glendale-AZ-85308/7900778_zpid/,33.6469,-112.18,2017-11-09,2017-11-09
312944,23779408,"1426 E Hubbell St, Phoenix, AZ 85006 ",85006,0.0002523398769098509,249900,https://www.zillow.com/homedetails/1426-E-Hubbell-St-Phoenix-AZ-85006/7532374_zpid/,33.4705,-112.051,2017-04-12,2017-04-12
479646,23848674,"2215 N 58th Dr, Phoenix, AZ 85035 ",85035,0.0002512874970413853,199000,https://www.zillow.com/homedetails/2215-N-58th-Dr-Phoenix-AZ-85035/7492426_zpid/,33.4717,-112.185,2017-12-01,2017-12-01
364303,22743539,"9353 W Taylor St, Tolleson, AZ 85353 ",85353,0.00025110764094148254,99000,https://www.zillow.com/homedetails/9353-W-Taylor-St-Tolleson-AZ-85353/7477007_zpid/,33.4524,-112.26100000000001,2017-10-07,2017-10-07
8996505,23849755,"3601 W Wagoner Rd, Glendale, AZ 85308 ",85308,0.0002509846835872978,244000,https://www.zillow.com/homedetails/3601-W-Wagoner-Rd-Glendale-AZ-85308/7947927_zpid/,33.6528,-112.13600000000001,2017-12-07,2017-12-07
353592,23843404,"7913 W Whyman Ave, Phoenix, AZ 85043 ",85043,0.0002508343978120911,229900,https://www.zillow.com/homedetails/7913-W-Whyman-Ave-Phoenix-AZ-85043/23725365_zpid/,33.4271,-112.23100000000001,2017-11-29,2017-11-29
233636,23845084,"19201 N 21st Ave, Phoenix, AZ 85027 ",85027,0.0002506473720432192,209500,https://www.zillow.com/homedetails/19201-N-21st-Ave-Phoenix-AZ-85027/7970134_zpid/,33.6596,-112.105,2017-12-01,2017-12-01
8992552,23527037,"6029 W Mary Jane Ln, Glendale, AZ 85306 ",85306,0.00025015606839564025,239000,https://www.zillow.com/homedetails/6029-W-Mary-Jane-Ln-Glendale-AZ-85306/8097193_zpid/,33.6273,-112.189,2017-10-11,2017-10-11
408932,23816436,"6425 W Monte Cristo Ave, Glendale, AZ 85306 ",85306,0.0002493305054849301,214900,https://www.zillow.com/homedetails/6425-W-Monte-Cristo-Ave-Glendale-AZ-85306/7902187_zpid/,33.631,-112.197,2017-10-31,2017-10-31
646338,23847131,"2249 W Portobello Ave, Mesa, AZ 85202 ",85202,0.0002493063341846293,215000,https://www.zillow.com/homedetails/2249-W-Portobello-Ave-Mesa-AZ-85202/8170991_zpid/,33.3591,-111.882,2017-12-03,2017-12-03
7515382,22616806,"3843 W Grant St, Phoenix, AZ 85009 ",85009,0.000248790038160114,114900,https://www.zillow.com/homedetails/3843-W-Grant-St-Phoenix-AZ-85009/7506219_zpid/,33.4411,-112.14299999999999,2017-07-13,2017-07-13
312146,23852773,"1313 E Brill St, Phoenix, AZ 85006 ",85006,0.00024828415969507496,159000,https://www.zillow.com/homedetails/1313-E-Brill-St-Phoenix-AZ-85006/7529323_zpid/,33.4644,-112.054,2017-12-08,2017-12-08
647631,23846351,"2312 W Plata Ave, Mesa, AZ 85202 ",85202,0.0002480800555968855,214900,https://www.zillow.com/homedetails/2312-W-Plata-Ave-Mesa-AZ-85202/8170881_zpid/,33.3605,-111.883,2017-12-01,2017-12-01
9024610,23847385,"18807 N 43rd Dr, Glendale, AZ 85308 ",85308,0.0002480540108158186,235000,https://www.zillow.com/homedetails/18807-N-43rd-Dr-Glendale-AZ-85308/7938741_zpid/,33.6574,-112.15299999999999,2017-11-30,2017-11-30
409111,23815119,"6540 W Phelps Rd, Glendale, AZ 85306 ",85306,0.00024795614792192424,209900,https://www.zillow.com/homedetails/6540-W-Phelps-Rd-Glendale-AZ-85306/7901955_zpid/,33.6361,-112.20100000000001,2017-10-30,2017-10-30
244488,23837399,"1935 W Davis Rd, Phoenix, AZ 85023 ",85023,0.0002471914390053295,199500,https://www.zillow.com/homedetails/1935-W-Davis-Rd-Phoenix-AZ-85023/81978440_zpid/,33.632,-112.101,2017-11-20,2017-11-20
483706,23849130,"2639 N 63rd Ave, Phoenix, AZ 85035 ",85035,0.00024701867680562706,195000,https://www.zillow.com/homedetails/2639-N-63rd-Ave-Phoenix-AZ-85035/7491672_zpid/,33.4781,-112.195,2017-12-05,2017-12-05
330563,23849814,"4505 N 15th Ave, Phoenix, AZ 85015 ",85015,0.0002462117681491863,199900,https://www.zillow.com/homedetails/4505-N-15th-Ave-Phoenix-AZ-85015/7771428_zpid/,33.5026,-112.09100000000001,2017-12-05,2017-12-05
424042,23835298,"9015 N 57th Ave, Glendale, AZ 85302 ",85302,0.0002460340553523099,205000,https://www.zillow.com/homedetails/9015-N-57th-Ave-Glendale-AZ-85302/7734719_zpid/,33.5681,-112.182,2017-11-16,2017-11-16
408604,23849215,"6301 W Port Royale Ln, Glendale, AZ 85306 ",85306,0.00024578574928407125,249500,https://www.zillow.com/homedetails/6301-W-Port-Royale-Ln-Glendale-AZ-85306/8099500_zpid/,33.6208,-112.196,2017-12-06,2017-12-06
559806,23849557,"1320 W Pecos Ave, Mesa, AZ 85202 ",85202,0.0002455514775559832,235000,https://www.zillow.com/homedetails/1320-W-Pecos-Ave-Mesa-AZ-85202/8171833_zpid/,33.36,-111.861,2017-12-07,2017-12-07
1344942,23843906,"4709 W Hayward Ave, Glendale, AZ 85301 ",85301,0.00024546924832566787,247950,https://www.zillow.com/homedetails/4709-W-Hayward-Ave-Glendale-AZ-85301/7724530_zpid/,33.5509,-112.161,2017-11-29,2017-11-29
233478,23794869,"19046 N 15th Ave, Phoenix, AZ 85027 ",85027,0.00024531263440009634,229900,https://www.zillow.com/homedetails/19046-N-15th-Ave-Phoenix-AZ-85027/7969522_zpid/,33.6598,-112.09200000000001,2017-10-22,2017-10-22
633870,23848061,"1763 W Natal Ave, Mesa, AZ 85202 ",85202,0.00024513403645918624,245000,https://www.zillow.com/homedetails/1763-W-Natal-Ave-Mesa-AZ-85202/8251610_zpid/,33.3665,-111.87200000000001,2017-12-01,2017-12-01
9022859,23821620,"5030 W Taro Dr, Glendale, AZ 85308 ",85308,0.00024449943246517865,228000,https://www.zillow.com/homedetails/5030-W-Taro-Dr-Glendale-AZ-85308/7939791_zpid/,33.6587,-112.16799999999999,2017-11-04,2017-11-04
701826,23841957,"2733 W Jacinto Cir, Mesa, AZ 85202 ",85202,0.00024386846455025528,200000,https://www.zillow.com/homedetails/2733-W-Jacinto-Cir-Mesa-AZ-85202/8250117_zpid/,33.3796,-111.891,2017-11-22,2017-11-22
42499,23849306,"6906 W Garfield St, Phoenix, AZ 85043 ",85043,0.00024363008462468058,159000,https://www.zillow.com/homedetails/6906-W-Garfield-St-Phoenix-AZ-85043/7476239_zpid/,33.4575,-112.208,2017-12-07,2017-12-07
627067,23841484,"1610 W 7th Ave, Mesa, AZ 85202 ",85202,0.00024357946237748602,223900,https://www.zillow.com/homedetails/1610-W-7th-Ave-Mesa-AZ-85202/7604416_zpid/,33.4024,-111.866,2017-11-24,2017-11-24
1885528,22710615,"8223 W Carol Ave, Peoria, AZ 85345 ",85345,0.00024354870649849448,205000,https://www.zillow.com/homedetails/8223-W-Carol-Ave-Peoria-AZ-85345/60978276_zpid/,33.5706,-112.236,2017-09-21,2017-09-21
408027,23819948,"6041 W Mary Jane Ln, Glendale, AZ 85306 ",85306,0.00024299768194679055,234000,https://www.zillow.com/homedetails/6041-W-Mary-Jane-Ln-Glendale-AZ-85306/8097191_zpid/,33.6273,-112.19,2017-11-03,2017-11-03
40212,23823118,"2916 S 72nd Ln, Phoenix, AZ 85043 ",85043,0.0002421633237470075,175000,https://www.zillow.com/homedetails/2916-S-72nd-Ln-Phoenix-AZ-85043/67788654_zpid/,33.4218,-112.21700000000001,2017-11-09,2017-11-09
246465,23847410,"3402 W Saint John Rd, Phoenix, AZ 85053 ",85053,0.0002419160990906142,215000,https://www.zillow.com/homedetails/3402-W-Saint-John-Rd-Phoenix-AZ-85053/7941809_zpid/,33.6468,-112.132,2017-12-01,2017-12-01
413798,23850402,"6136 W Sierra St, Glendale, AZ 85304 ",85304,0.00024082355252298636,239899,https://www.zillow.com/homedetails/6136-W-Sierra-St-Glendale-AZ-85304/7698235_zpid/,33.5914,-112.19200000000001,2017-12-08,2017-12-08
9023953,23835041,"3306 W Pierson St, Phoenix, AZ 85017 ",85017,0.000240749347893396,159000,https://www.zillow.com/homedetails/3306-W-Pierson-St-Phoenix-AZ-85017/7766533_zpid/,33.507,-112.13,2017-11-14,2017-11-14
402050,23849580,"14629 N 63rd Dr, Glendale, AZ 85306 ",85306,0.000240657807623101,209000,https://www.zillow.com/homedetails/14629-N-63rd-Dr-Glendale-AZ-85306/8098816_zpid/,33.6179,-112.193,2017-12-06,2017-12-06
836722,23830966,"5221 N 41st Dr, Phoenix, AZ 85019 ",85019,0.00024022446493248746,179000,https://www.zillow.com/homedetails/5221-N-41st-Dr-Phoenix-AZ-85019/67083438_zpid/,33.5124,-112.148,2017-11-13,2017-11-13
8990250,23821754,"507 S Rogers, Mesa, AZ 85202 ",85202,0.0002400916840767816,224990,https://www.zillow.com/homedetails/507-S-Rogers-Mesa-AZ-85202/7604897_zpid/,33.4056,-111.863,2017-11-03,2017-11-03
830198,23815075,"3747 W Oregon Ave, Phoenix, AZ 85019 ",85019,0.0002386392041149726,169900,https://www.zillow.com/homedetails/3747-W-Oregon-Ave-Phoenix-AZ-85019/50188145_zpid/,33.5141,-112.14,2017-10-30,2017-10-30
9019581,23796917,"18428 N 55th Dr, Glendale, AZ 85308 ",85308,0.0002384238452194971,199995,https://www.zillow.com/homedetails/18428-N-55th-Dr-Glendale-AZ-85308/7901123_zpid/,33.6531,-112.178,2017-10-23,2017-10-23
9019582,23850094,"19025 N 43rd Dr, Glendale, AZ 85308 ",85308,0.00023788762545091585,200000,https://www.zillow.com/homedetails/19025-N-43rd-Dr-Glendale-AZ-85308/7939302_zpid/,33.6589,-112.15299999999999,2017-12-08,2017-12-08
488821,23853623,"5234 W Cambridge Ave, Phoenix, AZ 85035 ",85035,0.00023742249980800097,160000,https://www.zillow.com/homedetails/5234-W-Cambridge-Ave-Phoenix-AZ-85035/7499579_zpid/,33.4773,-112.17299999999999,2017-11-23,2017-11-23
411351,23831053,"5194 W Paradise Dr, Glendale, AZ 85304 ",85304,0.00023732042816159216,214900,https://www.zillow.com/homedetails/5194-W-Paradise-Dr-Glendale-AZ-85304/60978690_zpid/,33.5953,-112.171,2017-11-13,2017-11-13
473868,23849857,"6209 N 31st Ave, Phoenix, AZ 85017 ",85017,0.000237182767121289,207000,https://www.zillow.com/homedetails/6209-N-31st-Ave-Phoenix-AZ-85017/7761147_zpid/,33.5281,-112.125,2017-12-04,2017-12-04
497391,17864024,"6741 W Virginia Ave, Phoenix, AZ 85035 ",85035,0.0002370573478852107,145800,https://www.zillow.com/homedetails/6741-W-Virginia-Ave-Phoenix-AZ-85035/7475866_zpid/,33.4765,-112.205,2017-03-10,2017-03-10
327955,23853549,"2119 W Amelia Ave, Phoenix, AZ 85015 ",85015,0.0002368821690465262,190000,https://www.zillow.com/homedetails/2119-W-Amelia-Ave-Phoenix-AZ-85015/7515982_zpid/,33.494,-112.105,2017-12-08,2017-12-08
