property_id,transaction_id,address,zipcode,ypred,list,url,lat,long,date_listed,transaction_date
8987246,23839497,"5830 E Calle Mexico, Guadalupe, AZ 85283 ",85283,0.014708323016972313,210000,https://www.zillow.com/homedetails/5830-E-Calle-Mexico-Guadalupe-AZ-85283/8138359_zpid/,33.366,-111.959,2017-11-09,2017-11-09
555448,23821996,"2310 W Washington St, Phoenix, AZ 85009 ",85009,0.0015692649427403052,169900,https://www.zillow.com/homedetails/2310-W-Washington-St-Phoenix-AZ-85009/7515224_zpid/,33.4483,-112.109,2017-11-06,2017-11-06
534105,23842749,"1902 W Palm Ln, Phoenix, AZ 85009 ",85009,0.0015606230479369748,199500,https://www.zillow.com/homedetails/1902-W-Palm-Ln-Phoenix-AZ-85009/7519867_zpid/,33.4693,-112.1,2017-11-28,2017-11-28
343418,23811515,"2029 W Wilshire Dr, Phoenix, AZ 85009 ",85009,0.0014955136246156957,215000,https://www.zillow.com/homedetails/2029-W-Wilshire-Dr-Phoenix-AZ-85009/7519525_zpid/,33.476,-112.104,2017-10-28,2017-10-28
9025461,23852787,"2114 W Monroe St, Phoenix, AZ 85009 ",85009,0.0014852166209366152,229900,https://www.zillow.com/homedetails/2114-W-Monroe-St-Phoenix-AZ-85009/7514471_zpid/,33.4505,-112.105,2017-12-07,2017-12-07
534651,23837198,"1931 W Ashland Ave, Phoenix, AZ 85009 ",85009,0.0012631566928282061,239900,https://www.zillow.com/homedetails/1931-W-Ashland-Ave-Phoenix-AZ-85009/7519553_zpid/,33.4752,-112.101,2017-11-17,2017-11-17
627067,23841484,"1610 W 7th Ave, Mesa, AZ 85202 ",85202,0.0011252540920236936,223900,https://www.zillow.com/homedetails/1610-W-7th-Ave-Mesa-AZ-85202/7604416_zpid/,33.4024,-111.866,2017-11-24,2017-11-24
702539,23848156,"545 S Stewart, Mesa, AZ 85202 ",85202,0.0011087428917990866,199900,https://www.zillow.com/homedetails/545-S-Stewart-Mesa-AZ-85202/7604679_zpid/,33.4045,-111.859,2017-12-04,2017-12-04
632732,23848063,"1735 S Henkel Cir, Mesa, AZ 85202 ",85202,0.0010729182786525257,225000,https://www.zillow.com/homedetails/1735-S-Henkel-Cir-Mesa-AZ-85202/8250788_zpid/,33.3833,-111.865,2017-12-04,2017-12-04
644243,23819377,"2213 W Del Campo Cir, Mesa, AZ 85202 ",85202,0.0010591408910856795,215000,https://www.zillow.com/homedetails/2213-W-Del-Campo-Cir-Mesa-AZ-85202/7602126_zpid/,33.4009,-111.87899999999999,2017-11-03,2017-11-03
534315,23853548,"1914 W Granada Rd, Phoenix, AZ 85009 ",85009,0.0010588902932359896,189000,https://www.zillow.com/homedetails/1914-W-Granada-Rd-Phoenix-AZ-85009/7519853_zpid/,33.4686,-112.101,2017-12-06,2017-12-06
342822,22678663,"1925 W Holly St, Phoenix, AZ 85009 ",85009,0.0010462212506010212,160000,https://www.zillow.com/homedetails/1925-W-Holly-St-Phoenix-AZ-85009/7519786_zpid/,33.4699,-112.102,2017-09-15,2017-09-15
650458,23850182,"2419 W Naranja Ave, Mesa, AZ 85202 ",85202,0.001040397165448937,235000,https://www.zillow.com/homedetails/2419-W-Naranja-Ave-Mesa-AZ-85202/8251330_zpid/,33.3643,-111.88600000000001,2017-12-08,2017-12-08
9019709,23816778,"2325 W Adams St, Phoenix, AZ 85009 ",85009,0.000999067924416799,150000,https://www.zillow.com/homedetails/2325-W-Adams-St-Phoenix-AZ-85009/7515215_zpid/,33.4489,-112.11,2017-11-01,2017-11-01
9020422,23848865,"4227 N 11th Pl, Phoenix, AZ 85014 ",85014,0.0009978553580756808,242000,https://www.zillow.com/homedetails/4227-N-11th-Pl-Phoenix-AZ-85014/7769603_zpid/,33.4974,-112.057,2017-12-06,2017-12-06
559806,23849557,"1320 W Pecos Ave, Mesa, AZ 85202 ",85202,0.0009963619816938784,235000,https://www.zillow.com/homedetails/1320-W-Pecos-Ave-Mesa-AZ-85202/8171833_zpid/,33.36,-111.861,2017-12-07,2017-12-07
329193,23842754,"2345 W Campus Dr, Phoenix, AZ 85015 ",85015,0.0009903174159675591,223900,https://www.zillow.com/homedetails/2345-W-Campus-Dr-Phoenix-AZ-85015/7518989_zpid/,33.4842,-112.11,2017-11-28,2017-11-28
8985061,23798423,"1918 E Willetta St, Phoenix, AZ 85006 ",85006,0.000890487611293217,220000,https://www.zillow.com/homedetails/1918-E-Willetta-St-Phoenix-AZ-85006/7528826_zpid/,33.464,-112.04,2017-10-12,2017-10-12
629600,23810385,"1646 W Pecos Ave, Mesa, AZ 85202 ",85202,0.000888507064030951,214900,https://www.zillow.com/homedetails/1646-W-Pecos-Ave-Mesa-AZ-85202/8191480_zpid/,33.3602,-111.87,2017-10-27,2017-10-27
7437201,23841799,"2038 W Alvarado Rd, Phoenix, AZ 85009 ",85009,0.0008834259085878653,235000,https://www.zillow.com/homedetails/2038-W-Alvarado-Rd-Phoenix-AZ-85009/7519729_zpid/,33.4727,-112.104,2017-11-26,2017-11-26
629569,23853723,"1645 W Peralta Ave, Mesa, AZ 85202 ",85202,0.0008783288965219156,222900,https://www.zillow.com/homedetails/1645-W-Peralta-Ave-Mesa-AZ-85202/8191627_zpid/,33.3572,-111.87,2017-12-10,2017-12-10
9024730,23848481,"3432 E Taylor St, Phoenix, AZ 85008 ",85008,0.0008423918268733229,244900,https://www.zillow.com/homedetails/3432-E-Taylor-St-Phoenix-AZ-85008/7544478_zpid/,33.454,-112.007,2017-12-01,2017-12-01
321416,23852792,"331 N 13th Pl, Phoenix, AZ 85006 ",85006,0.0008195877994515566,228000,https://www.zillow.com/homedetails/331-N-13th-Pl-Phoenix-AZ-85006/81966907_zpid/,33.4526,-112.053,2017-12-07,2017-12-07
644742,23842033,"2222 W Peralta Ave, Mesa, AZ 85202 ",85202,0.0008171694622471051,200000,https://www.zillow.com/homedetails/2222-W-Peralta-Ave-Mesa-AZ-85202/8171027_zpid/,33.3578,-111.882,2017-11-27,2017-11-27
559942,16039077,"1331 W Baseline Rd, Mesa, AZ 85202 ",85202,0.0007998703289684109,135000,http://www.zillow.com/homedetails/1331-W-Baseline-Rd-Mesa-AZ-85202/2103729629_zpid/,33.3778,-111.86200000000001,2017-02-02,2017-02-02
8982670,23842974,"1934 N Iowa St, Chandler, AZ 85225 ",85225,0.000785293663218095,212500,https://www.zillow.com/homedetails/1934-N-Iowa-St-Chandler-AZ-85225/8182675_zpid/,33.3331,-111.85,2017-11-27,2017-11-27
553645,23781775,"1901 N 44th St, Phoenix, AZ 85008 ",85008,0.0007825537361525852,189000,https://www.zillow.com/homedetails/1901-N-44th-St-Phoenix-AZ-85008/7561032_zpid/,33.4681,-111.98700000000001,2017-04-18,2017-04-18
8981328,22485420,"1411 E Whitton Ave, Phoenix, AZ 85014 ",85014,0.0007798411875736146,160000,https://www.zillow.com/homedetails/1411-E-Whitton-Ave-Phoenix-AZ-85014/7534776_zpid/,33.4887,-112.051,2017-07-31,2017-07-31
9024660,23847905,"20 Hillside Dr, Saint Johns, AZ 85936 ",85936,0.000772292267085493,69000,https://www.zillow.com/homedetails/20-Hillside-Dr-Saint-Johns-AZ-85936/7354311_zpid/,33.6469,-112.059,2017-11-22,2017-11-22
312687,23848473,"1527 W Sherman St, Phoenix, AZ 85007 ",85007,0.0007702134316993808,169900,https://www.zillow.com/homedetails/1527-W-Sherman-St-Phoenix-AZ-85007/7522607_zpid/,33.4401,-112.09299999999999,2017-12-05,2017-12-05
24879,23841634,"418 N 32nd Pl, Phoenix, AZ 85008 ",85008,0.0007700871787752905,159500,https://www.zillow.com/homedetails/418-N-32nd-Pl-Phoenix-AZ-85008/7544574_zpid/,33.4537,-112.01299999999999,2017-11-23,2017-11-23
9024818,23850186,"3161 N Bentrup Cir, Chandler, AZ 85224 ",85224,0.0007619563817330027,227500,https://www.zillow.com/homedetails/3161-N-Bentrup-Cir-Chandler-AZ-85224/8171572_zpid/,33.3512,-111.891,2017-12-09,2017-12-09
312146,23852773,"1313 E Brill St, Phoenix, AZ 85006 ",85006,0.0007538206104857687,159000,https://www.zillow.com/homedetails/1313-E-Brill-St-Phoenix-AZ-85006/7529323_zpid/,33.4644,-112.054,2017-12-08,2017-12-08
693332,23841794,"1343 E Indianola Ave, Phoenix, AZ 85014 ",85014,0.0007532319001619509,249900,https://www.zillow.com/homedetails/1343-E-Indianola-Ave-Phoenix-AZ-85014/7534225_zpid/,33.4917,-112.053,2017-11-23,2017-11-23
7454178,23781563,"1831 E Monte Vista Rd, Phoenix, AZ 85006 ",85006,0.0007417646517524037,224900,https://www.zillow.com/homedetails/1831-E-Monte-Vista-Rd-Phoenix-AZ-85006/7531909_zpid/,33.4709,-112.042,2017-03-18,2017-03-18
334383,22732912,"12827 N 22nd Pl, Phoenix, AZ 85022 ",85022,0.0007386807478585922,218000,https://www.zillow.com/homedetails/12827-N-22nd-Pl-Phoenix-AZ-85022/7815663_zpid/,33.6034,-112.03299999999999,2017-10-01,2017-10-01
647964,23853799,"2321 W Portobello Ave, Mesa, AZ 85202 ",85202,0.0007347091432851887,200000,https://www.zillow.com/homedetails/2321-W-Portobello-Ave-Mesa-AZ-85202/8170942_zpid/,33.359,-111.883,2017-12-12,2017-12-12
646296,17862449,"2248 W Del Oro Cir, Mesa, AZ 85202 ",85202,0.0007277770662466101,230000,https://www.zillow.com/homedetails/2248-W-Del-Oro-Cir-Mesa-AZ-85202/7602090_zpid/,33.4019,-111.88,2017-03-23,2017-03-23
329115,23755232,"2335 W Campus Dr, Phoenix, AZ 85015 ",85015,0.0007264502047214966,212800,https://www.zillow.com/homedetails/2335-W-Campus-Dr-Phoenix-AZ-85015/7518987_zpid/,33.484,-112.11,2017-10-17,2017-10-17
9021839,23850376,"4150 N 13th Pl, Phoenix, AZ 85014 ",85014,0.0007249036325038701,155000,https://www.zillow.com/homedetails/4150-N-13th-Pl-Phoenix-AZ-85014/7769055_zpid/,33.4965,-112.054,2017-12-08,2017-12-08
524930,22304530,"9134 W Vernon Ave, Phoenix, AZ 85037 ",85037,0.0007193057336274404,249000,https://www.zillow.com/homedetails/9134-W-Vernon-Ave-Phoenix-AZ-85037/67764424_zpid/,33.473,-112.257,2017-07-11,2017-07-11
354125,22802972,"2231 E Everett Dr, Phoenix, AZ 85022 ",85022,0.0007137094024362307,206900,https://www.zillow.com/homedetails/2231-E-Everett-Dr-Phoenix-AZ-85022/8014080_zpid/,33.6195,-112.03399999999999,2017-10-10,2017-10-10
318413,23837869,"2142 E Garfield St, Phoenix, AZ 85006 ",85006,0.0007123988151749975,185000,https://www.zillow.com/homedetails/2142-E-Garfield-St-Phoenix-AZ-85006/7528690_zpid/,33.458,-112.035,2017-11-16,2017-11-16
436097,23849120,"2311 N 91st Gln, Phoenix, AZ 85037 ",85037,0.0007092772106256114,225150,https://www.zillow.com/homedetails/2311-N-91st-Gln-Phoenix-AZ-85037/60974969_zpid/,33.4747,-112.257,2017-12-06,2017-12-06
1118623,23834612,"2101 N Tamarisk St, Chandler, AZ 85224 ",85224,0.0007026164861171177,249900,https://www.zillow.com/homedetails/2101-N-Tamarisk-St-Chandler-AZ-85224/8192386_zpid/,33.3365,-111.881,2017-11-17,2017-11-17
316565,23838369,"1845 E Almeria Rd, Phoenix, AZ 85006 ",85006,0.0007000601195733981,239900,https://www.zillow.com/homedetails/1845-E-Almeria-Rd-Phoenix-AZ-85006/7531838_zpid/,33.4664,-112.041,2017-11-21,2017-11-21
342848,23829559,"16841 N 18th Pl, Phoenix, AZ 85022 ",85022,0.0006971018838480038,238900,https://www.zillow.com/homedetails/16841-N-18th-Pl-Phoenix-AZ-85022/8004961_zpid/,33.6391,-112.04299999999999,2017-11-09,2017-11-09
527842,23846678,"9515 W Monte Vista Rd, Phoenix, AZ 85037 ",85037,0.0006963485070759595,226000,https://www.zillow.com/homedetails/9515-W-Monte-Vista-Rd-Phoenix-AZ-85037/60974977_zpid/,33.4699,-112.265,2017-11-30,2017-11-30
321332,17869476,"2862 N Greenfield Rd, Phoenix, AZ 85006 ",85006,0.0006951759014199384,219900,https://www.zillow.com/homedetails/2862-N-Greenfield-Rd-Phoenix-AZ-85006/7530738_zpid/,33.4792,-112.03399999999999,2017-02-27,2017-02-27
9021461,23758479,"2442 E Adams St, Phoenix, AZ 85034 ",85034,0.0006862896543718867,175000,https://www.zillow.com/homedetails/2442-E-Adams-St-Phoenix-AZ-85034/7544716_zpid/,33.4495,-112.02799999999999,2017-10-20,2017-10-20
318987,23813756,"2220 E Palm Ln, Phoenix, AZ 85006 ",85006,0.0006844904738963454,239900,https://www.zillow.com/homedetails/2220-E-Palm-Ln-Phoenix-AZ-85006/7531376_zpid/,33.4695,-112.03399999999999,2017-10-28,2017-10-28
524793,23853453,"9129 W Vernon Ave, Phoenix, AZ 85037 ",85037,0.0006821099245885294,220000,https://www.zillow.com/homedetails/9129-W-Vernon-Ave-Phoenix-AZ-85037/67764435_zpid/,33.4726,-112.257,2017-11-18,2017-11-18
316554,23837195,"1843 E Harvard St, Phoenix, AZ 85006 ",85006,0.0006743944016513224,119900,https://www.zillow.com/homedetails/1843-E-Harvard-St-Phoenix-AZ-85006/7531029_zpid/,33.4737,-112.041,2017-11-16,2017-11-16
9024825,23850283,"509 N 41st Pl, Phoenix, AZ 85008 ",85008,0.0006729181077153025,225000,https://www.zillow.com/homedetails/509-N-41st-Pl-Phoenix-AZ-85008/7560288_zpid/,33.454,-111.992,2017-12-09,2017-12-09
475131,23850151,"6801 N 30th Ave, Phoenix, AZ 85017 ",85017,0.00067268828127662,214900,https://www.zillow.com/homedetails/6801-N-30th-Ave-Phoenix-AZ-85017/7758750_zpid/,33.5364,-112.124,2017-12-08,2017-12-08
9024731,23848484,"3516 E Taylor St, Phoenix, AZ 85008 ",85008,0.0006722396180909467,169999,https://www.zillow.com/homedetails/3516-E-Taylor-St-Phoenix-AZ-85008/7544501_zpid/,33.4542,-112.006,2017-12-01,2017-12-01
687833,23848475,"3302 E Taylor St, Phoenix, AZ 85008 ",85008,0.000668250996131166,174500,https://www.zillow.com/homedetails/3302-E-Taylor-St-Phoenix-AZ-85008/7544609_zpid/,33.4543,-112.01100000000001,2017-11-30,2017-11-30
1126602,23844453,"2807 N Central Dr, Chandler, AZ 85224 ",85224,0.0006672096056675737,245900,https://www.zillow.com/homedetails/2807-N-Central-Dr-Chandler-AZ-85224/8199127_zpid/,33.3475,-111.866,2017-11-30,2017-11-30
8980482,23829796,"24 N 29th St, Phoenix, AZ 85034 ",85034,0.0006566577480354562,174900,https://www.zillow.com/homedetails/24-N-29th-St-Phoenix-AZ-85034/7544799_zpid/,33.4489,-112.01899999999999,2017-11-13,2017-11-13
633870,23848061,"1763 W Natal Ave, Mesa, AZ 85202 ",85202,0.0006548374162339311,245000,https://www.zillow.com/homedetails/1763-W-Natal-Ave-Mesa-AZ-85202/8251610_zpid/,33.3665,-111.87200000000001,2017-12-01,2017-12-01
9024732,23848478,"1438 E Roosevelt St, Phoenix, AZ 85006 ",85006,0.0006524113348406285,164900,https://www.zillow.com/homedetails/1438-E-Roosevelt-St-Phoenix-AZ-85006/7530669_zpid/,33.459,-112.05,2017-12-02,2017-12-02
9018003,23819878,"1842 W Alamo Dr, Chandler, AZ 85224 ",85224,0.0006472608759453971,244500,https://www.zillow.com/homedetails/1842-W-Alamo-Dr-Chandler-AZ-85224/8199834_zpid/,33.3482,-111.875,2017-11-03,2017-11-03
320086,23849687,"2323 E Harvard St, Phoenix, AZ 85006 ",85006,0.0006471502661139618,155000,https://www.zillow.com/homedetails/2323-E-Harvard-St-Phoenix-AZ-85006/7531217_zpid/,33.4737,-112.031,2017-12-07,2017-12-07
9021905,23837963,"5153 E Monte Vista Rd, Phoenix, AZ 85008 ",85008,0.0006403394599749184,175000,https://www.zillow.com/homedetails/5153-E-Monte-Vista-Rd-Phoenix-AZ-85008/7562083_zpid/,33.4711,-111.971,2017-11-20,2017-11-20
328241,23845148,"2138 W Thomas Rd, Phoenix, AZ 85015 ",85015,0.0006290266155358861,225000,https://www.zillow.com/homedetails/2138-W-Thomas-Rd-Phoenix-AZ-85015/7518981_zpid/,33.481,-112.10600000000001,2017-11-30,2017-11-30
8990250,23821754,"507 S Rogers, Mesa, AZ 85202 ",85202,0.0006275498737967711,224990,https://www.zillow.com/homedetails/507-S-Rogers-Mesa-AZ-85202/7604897_zpid/,33.4056,-111.863,2017-11-03,2017-11-03
647631,23846351,"2312 W Plata Ave, Mesa, AZ 85202 ",85202,0.0006270582685036434,214900,https://www.zillow.com/homedetails/2312-W-Plata-Ave-Mesa-AZ-85202/8170881_zpid/,33.3605,-111.883,2017-12-01,2017-12-01
701826,23841957,"2733 W Jacinto Cir, Mesa, AZ 85202 ",85202,0.0006239192452834781,200000,https://www.zillow.com/homedetails/2733-W-Jacinto-Cir-Mesa-AZ-85202/8250117_zpid/,33.3796,-111.891,2017-11-22,2017-11-22
328960,22284604,"2322 W Cheery Lynn Rd, Phoenix, AZ 85015 ",85015,0.0006211691895931525,249900,https://www.zillow.com/homedetails/2322-W-Cheery-Lynn-Rd-Phoenix-AZ-85015/7517610_zpid/,33.4857,-112.109,2017-07-08,2017-07-08
1114416,23820184,"1617 W Stottler Dr, Chandler, AZ 85224 ",85224,0.0006211533897212365,229900,https://www.zillow.com/homedetails/1617-W-Stottler-Dr-Chandler-AZ-85224/8193816_zpid/,33.3325,-111.87,2017-11-03,2017-11-03
312944,23779408,"1426 E Hubbell St, Phoenix, AZ 85006 ",85006,0.0006208830949384861,249900,https://www.zillow.com/homedetails/1426-E-Hubbell-St-Phoenix-AZ-85006/7532374_zpid/,33.4705,-112.051,2017-04-12,2017-04-12
215329,22594254,"1402 E Mescal St, Phoenix, AZ 85020 ",85020,0.0006183695927064588,249900,https://www.zillow.com/homedetails/1402-E-Mescal-St-Phoenix-AZ-85020/63200956_zpid/,33.5873,-112.052,2017-08-27,2017-08-27
8990467,22512781,"1711 E Harvard Street Phoenix Az, Phoenix, AZ 85006 ",85006,0.0006164332563593567,100000,https://www.zillow.com/homedetails/1711-E-Harvard-Street-Phoenix-Az-Phoenix-AZ-85006/2093095994_zpid/,33.4742,-112.04700000000001,2017-08-16,2017-08-16
1129854,23830354,"549 N Arrowhead Dr, Chandler, AZ 85224 ",85224,0.0006146054061392375,209000,https://www.zillow.com/homedetails/549-N-Arrowhead-Dr-Chandler-AZ-85224/8185610_zpid/,33.3129,-111.867,2017-11-09,2017-11-09
329167,22718810,"2340 W Mulberry Dr, Phoenix, AZ 85015 ",85015,0.000614576306120461,210000,https://www.zillow.com/homedetails/2340-W-Mulberry-Dr-Phoenix-AZ-85015/7517577_zpid/,33.4872,-112.11,2017-09-25,2017-09-25
9012379,22682953,"928 N Central Dr, Chandler, AZ 85224 ",85224,0.0006143991926488206,249000,https://www.zillow.com/homedetails/928-N-Central-Dr-Chandler-AZ-85224/8186076_zpid/,33.3193,-111.863,2017-09-15,2017-09-15
5088735,23778838,"1314 W Cortez Ct, Chandler, AZ 85224 ",85224,0.0006116735396016657,239900,https://www.zillow.com/homedetails/1314-W-Cortez-Ct-Chandler-AZ-85224/8172443_zpid/,33.3557,-111.865,2017-03-02,2017-03-02
646338,23847131,"2249 W Portobello Ave, Mesa, AZ 85202 ",85202,0.0006092377848895568,215000,https://www.zillow.com/homedetails/2249-W-Portobello-Ave-Mesa-AZ-85202/8170991_zpid/,33.3591,-111.882,2017-12-03,2017-12-03
321430,23803362,"334 N 15th St, Phoenix, AZ 85006 ",85006,0.0006086435566668669,187000,https://www.zillow.com/homedetails/334-N-15th-St-Phoenix-AZ-85006/7529005_zpid/,33.4527,-112.04899999999999,2017-10-24,2017-10-24
1109968,23827087,"1231 W Tulsa St, Chandler, AZ 85224 ",85224,0.000606477112395153,245000,https://www.zillow.com/homedetails/1231-W-Tulsa-St-Chandler-AZ-85224/8185626_zpid/,33.3123,-111.865,2017-11-11,2017-11-11
319964,23824444,"2317 E Brill St, Phoenix, AZ 85006 ",85006,0.0006061916375260422,139000,https://www.zillow.com/homedetails/2317-E-Brill-St-Phoenix-AZ-85006/7528639_zpid/,33.4646,-112.03200000000001,2017-11-09,2017-11-09
702422,23836601,"3144 S Rogers, Mesa, AZ 85202 ",85202,0.0006033651866698351,244000,https://www.zillow.com/homedetails/3144-S-Rogers-Mesa-AZ-85202/8171993_zpid/,33.3577,-111.86399999999999,2017-11-16,2017-11-16
318590,23842752,"2205 E Harvard St, Phoenix, AZ 85006 ",85006,0.0005874213685088017,247000,https://www.zillow.com/homedetails/2205-E-Harvard-St-Phoenix-AZ-85006/7531244_zpid/,33.4737,-112.03399999999999,2017-11-27,2017-11-27
8972923,23832954,"2018 N 22nd Pl, Phoenix, AZ 85006 ",85006,0.0005750852010294537,220900,https://www.zillow.com/homedetails/2018-N-22nd-Pl-Phoenix-AZ-85006/7531384_zpid/,33.4701,-112.03399999999999,2017-11-15,2017-11-15
321465,23512213,"358 N 15th St, Phoenix, AZ 85006 ",85006,0.0005726289365541943,180000,https://www.zillow.com/homedetails/358-N-15th-St-Phoenix-AZ-85006/7529011_zpid/,33.4535,-112.04899999999999,2017-10-09,2017-10-09
345142,23753531,"1739 E Bluefield Ave, Phoenix, AZ 85022 ",85022,0.0005695353750015069,224900,https://www.zillow.com/homedetails/1739-E-Bluefield-Ave-Phoenix-AZ-85022/8001407_zpid/,33.6526,-112.044,2017-10-16,2017-10-16
344655,23837054,"17246 N 1st Pl, Phoenix, AZ 85022 ",85022,0.0005692590538976184,239990,https://www.zillow.com/homedetails/17246-N-1st-Pl-Phoenix-AZ-85022/7959242_zpid/,33.6436,-112.074,2017-11-19,2017-11-19
317916,23842179,"2028 E Granada Rd, Phoenix, AZ 85006 ",85006,0.0005643513508009238,238000,https://www.zillow.com/homedetails/2028-E-Granada-Rd-Phoenix-AZ-85006/7531712_zpid/,33.4687,-112.038,2017-11-27,2017-11-27
9022078,23810726,"1132 E Villa Maria Dr, Phoenix, AZ 85022 ",85022,0.0005619301605218477,215000,https://www.zillow.com/homedetails/1132-E-Villa-Maria-Dr-Phoenix-AZ-85022/8002438_zpid/,33.6518,-112.057,2017-10-27,2017-10-27
319525,23824915,"2238 N 22nd St, Phoenix, AZ 85006 ",85006,0.0005257935515105454,249900,https://www.zillow.com/homedetails/2238-N-22nd-St-Phoenix-AZ-85006/7531630_zpid/,33.4726,-112.035,2017-11-09,2017-11-09
9021286,23820140,"2141 E Garfield St, Phoenix, AZ 85006 ",85006,0.000515274524157278,117900,https://www.zillow.com/homedetails/2141-E-Garfield-St-Phoenix-AZ-85006/7528698_zpid/,33.4575,-112.035,2017-11-03,2017-11-03
1374907,23793911,"9008 W Nicolet Ave, Glendale, AZ 85305 ",85305,0.0005143322083490517,231798,https://www.zillow.com/homedetails/9008-W-Nicolet-Ave-Glendale-AZ-85305/95082341_zpid/,33.5415,-112.25299999999999,2017-02-23,2017-02-23
462190,23850105,"2612 W Catalina Dr, Phoenix, AZ 85017 ",85017,0.0005140046679737534,189900,https://www.zillow.com/homedetails/2612-W-Catalina-Dr-Phoenix-AZ-85017/7519226_zpid/,33.4826,-112.116,2017-12-08,2017-12-08
1373864,23831106,"8783 W State Ave, Glendale, AZ 85305 ",85305,0.0005106397167867795,240000,https://www.zillow.com/homedetails/8783-W-State-Ave-Glendale-AZ-85305/61627820_zpid/,33.5431,-112.24799999999999,2017-11-11,2017-11-11
462323,23849706,"2618 W Catalina Dr, Phoenix, AZ 85017 ",85017,0.000509058404249293,219900,https://www.zillow.com/homedetails/2618-W-Catalina-Dr-Phoenix-AZ-85017/7519227_zpid/,33.4826,-112.116,2017-12-07,2017-12-07
312249,23814876,"1433 S 14th Ave, Phoenix, AZ 85007 ",85007,0.0005054408421849477,174900,https://www.zillow.com/homedetails/1433-S-14th-Ave-Phoenix-AZ-85007/7500688_zpid/,33.4338,-112.09,2017-10-29,2017-10-29
1413516,22924606,"7311 N 73rd Dr, Glendale, AZ 85303 ",85303,0.0005001202818240748,248700,https://www.zillow.com/homedetails/7311-N-73rd-Dr-Glendale-AZ-85303/59270763_zpid/,33.5425,-112.21600000000001,2017-10-07,2017-10-07
1092802,23820224,"731 W Palomino Dr, Chandler, AZ 85225 ",85225,0.0004981308380718227,245900,https://www.zillow.com/homedetails/731-W-Palomino-Dr-Chandler-AZ-85225/8177603_zpid/,33.3404,-111.855,2017-11-03,2017-11-03
317467,23840891,"2012 N 20th St, Phoenix, AZ 85006 ",85006,0.0004969147577577976,224900,https://www.zillow.com/homedetails/2012-N-20th-St-Phoenix-AZ-85006/7531962_zpid/,33.4698,-112.039,2017-11-22,2017-11-22
314996,23833971,"1841 W Pima St, Phoenix, AZ 85007 ",85007,0.0004773722450192595,154999,https://www.zillow.com/homedetails/1841-W-Pima-St-Phoenix-AZ-85007/7501195_zpid/,33.4329,-112.09899999999999,2017-11-16,2017-11-16
8989929,23848474,"2837 E Monroe St, Phoenix, AZ 85034 ",85034,0.0004754548952288538,150000,https://www.zillow.com/homedetails/2837-E-Monroe-St-Phoenix-AZ-85034/7544758_zpid/,33.4501,-112.02,2017-11-29,2017-11-29
9017497,23847149,"3044 E Roosevelt St, Phoenix, AZ 85008 ",85008,0.00047281124016550625,239900,https://www.zillow.com/homedetails/3044-E-Roosevelt-St-Phoenix-AZ-85008/2098123425_zpid/,33.4588,-112.015,2017-12-03,2017-12-03
1410517,21990149,"7108 N 73rd Dr, Glendale, AZ 85303 ",85303,0.00047036031338016943,229000,https://www.zillow.com/homedetails/7108-N-73rd-Dr-Glendale-AZ-85303/82823489_zpid/,33.5387,-112.21700000000001,2017-05-16,2017-05-16
353672,22728286,"2201 E Nisbet Rd, Phoenix, AZ 85022 ",85022,0.0004681618541655889,199900,https://www.zillow.com/homedetails/2201-E-Nisbet-Rd-Phoenix-AZ-85022/8010593_zpid/,33.6231,-112.035,2017-09-28,2017-09-28
1416084,23849882,"7583 W Krall St, Glendale, AZ 85303 ",85303,0.0004650152818619129,220000,https://www.zillow.com/homedetails/7583-W-Krall-St-Glendale-AZ-85303/7463213_zpid/,33.5346,-112.22200000000001,2017-12-07,2017-12-07
1121709,23849692,"2370 W Orchid Ln, Chandler, AZ 85224 ",85224,0.00046215196875451953,225000,https://www.zillow.com/homedetails/2370-W-Orchid-Ln-Chandler-AZ-85224/8201830_zpid/,33.324,-111.883,2017-12-07,2017-12-07
225855,23847348,"1461 E Renee Dr, Phoenix, AZ 85024 ",85024,0.00044605507697610377,249000,https://www.zillow.com/homedetails/1461-E-Renee-Dr-Phoenix-AZ-85024/7996071_zpid/,33.6554,-112.05,2017-12-02,2017-12-02
214915,23849568,"1336 E Becker Ln, Phoenix, AZ 85020 ",85020,0.0004387713018639837,228500,https://www.zillow.com/homedetails/1336-E-Becker-Ln-Phoenix-AZ-85020/7785603_zpid/,33.5832,-112.053,2017-12-04,2017-12-04
7425243,23848380,"3629 E Yale St, Phoenix, AZ 85008 ",85008,0.0004296468326627664,230000,https://www.zillow.com/homedetails/3629-E-Yale-St-Phoenix-AZ-85008/67082142_zpid/,33.4758,-112.00299999999999,2017-12-06,2017-12-06
328410,23830937,"2203 W Marlette Ave, Phoenix, AZ 85015 ",85015,0.0004294163470667017,229900,https://www.zillow.com/homedetails/2203-W-Marlette-Ave-Phoenix-AZ-85015/7773094_zpid/,33.5291,-112.10600000000001,2017-11-13,2017-11-13
9021253,23756561,"2832 N 28th Dr, Phoenix, AZ 85008 ",85008,0.0004290192185271556,139900,https://www.zillow.com/homedetails/2832-N-28th-Dr-Phoenix-AZ-85008/7513343_zpid/,33.4797,-112.021,2017-10-13,2017-10-13
1859,23650472,"9128 W Alvarado St, Phoenix, AZ 85037 ",85037,0.0004252388345934972,214000,https://www.zillow.com/homedetails/9128-W-Alvarado-St-Phoenix-AZ-85037/60047210_zpid/,33.4712,-112.257,2017-10-12,2017-10-12
343597,23846279,"1713 E Aire Libre Ave, Phoenix, AZ 85022 ",85022,0.0004198013986009454,226500,https://www.zillow.com/homedetails/1713-E-Aire-Libre-Ave-Phoenix-AZ-85022/8004787_zpid/,33.6363,-112.045,2017-11-30,2017-11-30
9022591,23824443,"3101 E Garfield St, Phoenix, AZ 85008 ",85008,0.0004047378142545383,212000,https://www.zillow.com/homedetails/3101-E-Garfield-St-Phoenix-AZ-85008/7545005_zpid/,33.4573,-112.015,2017-11-09,2017-11-09
9021795,23822865,"747 W Rosal Pl, Chandler, AZ 85225 ",85225,0.0004044338062035968,249800,https://www.zillow.com/homedetails/747-W-Rosal-Pl-Chandler-AZ-85225/8177685_zpid/,33.3412,-111.855,2017-11-07,2017-11-07
527415,23853531,"9437 W Terri Lee Dr, Phoenix, AZ 85037 ",85037,0.0004033209424874264,205000,https://www.zillow.com/homedetails/9437-W-Terri-Lee-Dr-Phoenix-AZ-85037/67764458_zpid/,33.4667,-112.264,2017-11-26,2017-11-26
469895,23526992,"3401 W Tuckey Ln, Phoenix, AZ 85017 ",85017,0.0004025483551577737,169000,https://www.zillow.com/homedetails/3401-W-Tuckey-Ln-Phoenix-AZ-85017/7760733_zpid/,33.5332,-112.132,2017-10-11,2017-10-11
463158,22747298,"2733 W Berridge Ln, Phoenix, AZ 85017 ",85017,0.00040129066535387204,170000,https://www.zillow.com/homedetails/2733-W-Berridge-Ln-Phoenix-AZ-85017/7759928_zpid/,33.5253,-112.118,2017-10-10,2017-10-10
9022191,23824622,"3728 E Yale St, Phoenix, AZ 85008 ",85008,0.0003997805956410002,239999,https://www.zillow.com/homedetails/3728-E-Yale-St-Phoenix-AZ-85008/7541377_zpid/,33.4759,-112.00399999999999,2017-11-09,2017-11-09
314137,23848469,"1718 W Cocopah St, Phoenix, AZ 85007 ",85007,0.0003989799248424741,155000,https://www.zillow.com/homedetails/1718-W-Cocopah-St-Phoenix-AZ-85007/7501240_zpid/,33.4318,-112.096,2017-12-05,2017-12-05
473868,23849857,"6209 N 31st Ave, Phoenix, AZ 85017 ",85017,0.00039719865548971386,207000,https://www.zillow.com/homedetails/6209-N-31st-Ave-Phoenix-AZ-85017/7761147_zpid/,33.5281,-112.125,2017-12-04,2017-12-04
556266,23783983,"2325 N 28th Pl, Phoenix, AZ 85008 ",85008,0.00039698724443904963,144000,https://www.zillow.com/homedetails/2325-N-28th-Pl-Phoenix-AZ-85008/7542977_zpid/,33.4742,-112.02,2017-04-06,2017-04-06
1880517,23843270,"844 W Harrison St, Chandler, AZ 85225 ",85225,0.000396687530146985,225000,https://www.zillow.com/homedetails/844-W-Harrison-St-Chandler-AZ-85225/8186376_zpid/,33.3168,-111.85600000000001,2017-11-20,2017-11-20
1866845,23763851,"1825 W Ray Rd, Chandler, AZ 85224 ",85224,0.00039549175435454355,179000,http://www.zillow.com/homedetails/1825-W-Ray-Rd-Chandler-AZ-85224/2109892120_zpid/,33.318000000000005,-111.87299999999999,2017-01-27,2017-01-27
553013,23837564,"1645 N 27th Pl, Phoenix, AZ 85008 ",85008,0.00039447295228649487,238500,https://www.zillow.com/homedetails/1645-N-27th-Pl-Phoenix-AZ-85008/7543235_zpid/,33.4675,-112.023,2017-11-20,2017-11-20
687768,22691896,"3239 E Yale St, Phoenix, AZ 85008 ",85008,0.00039307567295190324,249500,https://www.zillow.com/homedetails/3239-E-Yale-St-Phoenix-AZ-85008/7541022_zpid/,33.4757,-112.01100000000001,2017-09-18,2017-09-18
987121,23849044,"1238 S Cholla Ct, Chandler, AZ 85286 ",85286,0.0003919252027661688,249900,https://www.zillow.com/homedetails/1238-S-Cholla-Ct-Chandler-AZ-85286/8208827_zpid/,33.2878,-111.87299999999999,2017-12-06,2017-12-06
1090459,23810641,"631 W Caroline Ln, Chandler, AZ 85225 ",85225,0.0003910364664281233,230000,https://www.zillow.com/homedetails/631-W-Caroline-Ln-Chandler-AZ-85225/8183658_zpid/,33.3304,-111.851,2017-10-27,2017-10-27
553527,23781588,"1840 N 27th Pl, Phoenix, AZ 85008 ",85008,0.0003881377578898363,225000,https://www.zillow.com/homedetails/1840-N-27th-Pl-Phoenix-AZ-85008/7543221_zpid/,33.4689,-112.023,2016-12-16,2016-12-16
1095696,23832151,"856 W Monterey St, Chandler, AZ 85225 ",85225,0.0003871737727608615,245900,https://www.zillow.com/homedetails/856-W-Monterey-St-Chandler-AZ-85225/8186284_zpid/,33.315,-111.85700000000001,2017-11-13,2017-11-13
9019232,23843081,"3428 E Sheridan St, Phoenix, AZ 85008 ",85008,0.00038716009868261574,240000,https://www.zillow.com/homedetails/3428-E-Sheridan-St-Phoenix-AZ-85008/7541233_zpid/,33.4752,-112.007,2017-11-27,2017-11-27
450133,23853376,"8659 W Palm Ln, Phoenix, AZ 85037 ",85037,0.0003819887317999337,179900,https://www.zillow.com/homedetails/8659-W-Palm-Ln-Phoenix-AZ-85037/7487502_zpid/,33.47,-112.244,2017-12-09,2017-12-09
205089,23847238,"1004 E Pueblo Rd, Phoenix, AZ 85020 ",85020,0.0003815814813166635,170000,https://www.zillow.com/homedetails/1004-E-Pueblo-Rd-Phoenix-AZ-85020/7790802_zpid/,33.5519,-112.061,2017-12-01,2017-12-01
9022258,23835030,"3023 W Krall St, Phoenix, AZ 85017 ",85017,0.000381071300019495,249900,https://www.zillow.com/homedetails/3023-W-Krall-St-Phoenix-AZ-85017/7759497_zpid/,33.534,-112.125,2017-11-17,2017-11-17
434601,23841755,"1838 N 83rd Ln, Phoenix, AZ 85037 ",85037,0.00038100102271633034,195000,https://www.zillow.com/homedetails/1838-N-83rd-Ln-Phoenix-AZ-85037/7487940_zpid/,33.4683,-112.24,2017-11-23,2017-11-23
469757,23786316,"3342 W Krall St, Phoenix, AZ 85017 ",85017,0.00038019301966579934,139900,https://www.zillow.com/homedetails/3342-W-Krall-St-Phoenix-AZ-85017/82817782_zpid/,33.5343,-112.132,2017-03-21,2017-03-21
450725,23853431,"8746 W Granada Rd, Phoenix, AZ 85037 ",85037,0.00037928421160822164,209900,https://www.zillow.com/homedetails/8746-W-Granada-Rd-Phoenix-AZ-85037/7487519_zpid/,33.4683,-112.249,2017-12-08,2017-12-08
525075,23853525,"9142 W Palm Ln, Phoenix, AZ 85037 ",85037,0.000378929029195168,204000,https://www.zillow.com/homedetails/9142-W-Palm-Ln-Phoenix-AZ-85037/60047154_zpid/,33.4689,-112.257,2017-12-05,2017-12-05
1412767,23846610,"7238 W Ocotillo Rd, Glendale, AZ 85303 ",85303,0.00037873088843131796,245000,https://www.zillow.com/homedetails/7238-W-Ocotillo-Rd-Glendale-AZ-85303/67800379_zpid/,33.5344,-112.215,2017-11-30,2017-11-30
434832,23841757,"2007 N 90th Ln, Phoenix, AZ 85037 ",85037,0.0003779967251876546,179000,https://www.zillow.com/homedetails/2007-N-90th-Ln-Phoenix-AZ-85037/7487835_zpid/,33.4691,-112.25399999999999,2017-11-24,2017-11-24
243287,22690475,"3218 W Angela Dr, Phoenix, AZ 85053 ",85053,0.00037526551478038196,209000,https://www.zillow.com/homedetails/3218-W-Angela-Dr-Phoenix-AZ-85053/7942085_zpid/,33.6461,-112.12899999999999,2017-09-18,2017-09-18
23746,23853535,"9447 W Virginia Ave, Phoenix, AZ 85037 ",85037,0.00037419591804462894,199000,https://www.zillow.com/homedetails/9447-W-Virginia-Ave-Phoenix-AZ-85037/62727172_zpid/,33.4763,-112.262,2017-12-08,2017-12-08
311927,23848462,"1329 W Taylor St, Phoenix, AZ 85007 ",85007,0.00037188032926557525,210000,https://www.zillow.com/homedetails/1329-W-Taylor-St-Phoenix-AZ-85007/7521763_zpid/,33.454,-112.09,2017-12-02,2017-12-02
331533,23824354,"1101 E Michigan Ave, Phoenix, AZ 85022 ",85022,0.0003703455592024333,212000,https://www.zillow.com/homedetails/1101-E-Michigan-Ave-Phoenix-AZ-85022/8002507_zpid/,33.6513,-112.05799999999999,2017-11-09,2017-11-09
434848,23811348,"2008 N 89th Dr, Phoenix, AZ 85037 ",85037,0.0003671663921384748,170000,https://www.zillow.com/homedetails/2008-N-89th-Dr-Phoenix-AZ-85037/7486878_zpid/,33.469,-112.25200000000001,2017-10-27,2017-10-27
9019398,23819886,"2116 E Vista Dr, Phoenix, AZ 85022 ",85022,0.00036537982327340023,249900,https://www.zillow.com/homedetails/2116-E-Vista-Dr-Phoenix-AZ-85022/8010925_zpid/,33.6222,-112.037,2017-11-03,2017-11-03
9021915,23829038,"3922 E Willow Ave, Phoenix, AZ 85032 ",85032,0.0003642973712079676,235000,https://www.zillow.com/homedetails/3922-E-Willow-Ave-Phoenix-AZ-85032/7813935_zpid/,33.6083,-111.99700000000001,2017-11-14,2017-11-14
355855,23833551,"702 E Rose Marie Ln, Phoenix, AZ 85022 ",85022,0.0003639473715805498,247000,https://www.zillow.com/homedetails/702-E-Rose-Marie-Ln-Phoenix-AZ-85022/49942677_zpid/,33.6527,-112.065,2017-11-14,2017-11-14
316133,23843612,"435 N 17th Ave, Phoenix, AZ 85007 ",85007,0.00036368375737875797,179000,https://www.zillow.com/homedetails/435-N-17th-Ave-Phoenix-AZ-85007/7521605_zpid/,33.4546,-112.095,2017-11-29,2017-11-29
8970849,23830064,"3715 E Delcoa Dr, Phoenix, AZ 85032 ",85032,0.00036211865335286696,225000,https://www.zillow.com/homedetails/3715-E-Delcoa-Dr-Phoenix-AZ-85032/7813615_zpid/,33.6109,-112.00200000000001,2017-10-25,2017-10-25
354473,23783928,"2302 E Beck Ln, Phoenix, AZ 85022 ",85022,0.00035961535999993945,149900,https://www.zillow.com/homedetails/2302-E-Beck-Ln-Phoenix-AZ-85022/8007955_zpid/,33.6274,-112.03299999999999,2017-03-14,2017-03-14
354621,23808089,"2310 E Winchcomb Dr, Phoenix, AZ 85022 ",85022,0.00035846928694397746,224900,https://www.zillow.com/homedetails/2310-E-Winchcomb-Dr-Phoenix-AZ-85022/8010116_zpid/,33.6168,-112.03399999999999,2017-10-25,2017-10-25
354848,22739897,"2320 E Beck Ln, Phoenix, AZ 85022 ",85022,0.00035774329970106095,170000,https://www.zillow.com/homedetails/2320-E-Beck-Ln-Phoenix-AZ-85022/8007959_zpid/,33.626999999999995,-112.03299999999999,2017-10-04,2017-10-04
435965,23838336,"2237 N 94th Ave, Phoenix, AZ 85037 ",85037,0.00035686844319239157,229900,https://www.zillow.com/homedetails/2237-N-94th-Ave-Phoenix-AZ-85037/67773064_zpid/,33.4752,-112.26100000000001,2017-11-21,2017-11-21
209311,23846146,"3420 E Cambridge Ave, Phoenix, AZ 85008 ",85008,0.00035682435821141246,195000,http://www.zillow.com/homedetails/3420-E-Cambridge-Ave-Phoenix-AZ-85008/81975682_zpid,33.478,-112.008,2017-11-30,2017-11-30
339837,23825426,"15615 N 23rd Pl, Phoenix, AZ 85022 ",85022,0.00035653373862001814,189500,https://www.zillow.com/homedetails/15615-N-23rd-Pl-Phoenix-AZ-85022/55267932_zpid/,33.6285,-112.03200000000001,2017-11-09,2017-11-09
349598,23800467,"18407 N 16th Pl, Phoenix, AZ 85022 ",85022,0.0003564076679935243,240000,https://www.zillow.com/homedetails/18407-N-16th-Pl-Phoenix-AZ-85022/8001275_zpid/,33.6534,-112.04700000000001,2017-10-24,2017-10-24
352697,23823583,"2111 E Beck Ln, Phoenix, AZ 85022 ",85022,0.0003496331670149557,210000,https://www.zillow.com/homedetails/2111-E-Beck-Ln-Phoenix-AZ-85022/8008032_zpid/,33.6277,-112.038,2017-11-07,2017-11-07
331152,23847346,"1025 E Annette Dr, Phoenix, AZ 85022 ",85022,0.000348985486902471,248000,https://www.zillow.com/homedetails/1025-E-Annette-Dr-Phoenix-AZ-85022/8002681_zpid/,33.6531,-112.059,2017-12-02,2017-12-02
9023070,23847662,"2024 E Villa Theresa Dr, Phoenix, AZ 85022 ",85022,0.00034781795290819554,243000,https://www.zillow.com/homedetails/2024-E-Villa-Theresa-Dr-Phoenix-AZ-85022/8000570_zpid/,33.6544,-112.039,2017-12-04,2017-12-04
1096718,23832148,"884 W Dublin St, Chandler, AZ 85225 ",85225,0.0003474599910959032,235000,https://www.zillow.com/homedetails/884-W-Dublin-St-Chandler-AZ-85225/8186411_zpid/,33.3188,-111.85799999999999,2017-11-13,2017-11-13
345778,23810944,"17441 N 20th St, Phoenix, AZ 85022 ",85022,0.0003472372702914405,235000,https://www.zillow.com/homedetails/17441-N-20th-St-Phoenix-AZ-85022/8000666_zpid/,33.6457,-112.039,2017-10-27,2017-10-27
9022987,23843142,"503 W Harrison St, Chandler, AZ 85225 ",85225,0.0003469081619121961,248000,https://www.zillow.com/homedetails/503-W-Harrison-St-Chandler-AZ-85225/8187045_zpid/,33.3166,-111.84899999999999,2017-11-27,2017-11-27
552484,23825389,"1244 N 28th Pl, Phoenix, AZ 85008 ",85008,0.0003465069652001624,155000,https://www.zillow.com/homedetails/1244-N-28th-Pl-Phoenix-AZ-85008/7545284_zpid/,33.4636,-112.021,2017-11-13,2017-11-13
352186,23759913,"2024 E Danbury Rd, Phoenix, AZ 85022 ",85022,0.0003461849993211039,242000,https://www.zillow.com/homedetails/2024-E-Danbury-Rd-Phoenix-AZ-85022/8000757_zpid/,33.6429,-112.039,2017-10-21,2017-10-21
1373435,23850162,"8759 W Peppertree Ln, Glendale, AZ 85305 ",85305,0.0003456590652045735,249850,https://www.zillow.com/homedetails/8759-W-Peppertree-Ln-Glendale-AZ-85305/95158696_zpid/,33.5368,-112.24700000000001,2017-12-08,2017-12-08
9011104,22672448,"12997 N 71st Ave, Peoria, AZ 85381 ",85381,0.00034271056262214595,200000,https://www.zillow.com/homedetails/12997-N-71st-Ave-Peoria-AZ-85381/50185506_zpid/,33.603,-112.211,2017-07-18,2017-07-18
330786,22738433,"1001 E Bluefield Ave, Phoenix, AZ 85022 ",85022,0.00034154914137931317,207500,https://www.zillow.com/homedetails/1001-E-Bluefield-Ave-Phoenix-AZ-85022/8002596_zpid/,33.6522,-112.06,2017-10-04,2017-10-04
9022220,23813743,"3934 W Sheridan St, Phoenix, AZ 85009 ",85009,0.00034037084654215993,175000,https://www.zillow.com/homedetails/3934-W-Sheridan-St-Phoenix-AZ-85009/7512512_zpid/,33.4754,-112.145,2017-10-28,2017-10-28
350009,23781671,"18518 N 20th Pl, Phoenix, AZ 85022 ",85022,0.00033982290332157746,225000,https://www.zillow.com/homedetails/18518-N-20th-Pl-Phoenix-AZ-85022/61629214_zpid/,33.6544,-112.038,2017-03-18,2017-03-18
8977430,22376634,"1505 W Hadley St, Phoenix, AZ 85007 ",85007,0.0003393059354929695,180000,https://www.zillow.com/homedetails/1505-W-Hadley-St-Phoenix-AZ-85007/2112748542_zpid/,33.4392,-112.09200000000001,2017-07-24,2017-07-24
422454,22731449,"6652 W Delmonico Ln, Glendale, AZ 85302 ",85302,0.0003391131604777121,235000,https://www.zillow.com/homedetails/6652-W-Delmonico-Ln-Glendale-AZ-85302/50187742_zpid/,33.5645,-112.20200000000001,2017-09-29,2017-09-29
9021371,23837196,"1845 E Harvard St, Phoenix, AZ 85006 ",85006,0.00033793679618323257,89900,https://www.zillow.com/homedetails/1845-E-Harvard-St-Phoenix-AZ-85006/2092345277_zpid/,33.4737,-112.041,2017-11-16,2017-11-16
9022109,23811012,"13037 N 56th Ave, Glendale, AZ 85304 ",85304,0.0003376731538047287,214900,https://www.zillow.com/homedetails/13037-N-56th-Ave-Glendale-AZ-85304/7896749_zpid/,33.6024,-112.177,2017-10-27,2017-10-27
686694,23841252,"2821 N 28th Pl, Phoenix, AZ 85008 ",85008,0.00033547003578843844,235000,https://www.zillow.com/homedetails/2821-N-28th-Pl-Phoenix-AZ-85008/7542846_zpid/,33.4793,-112.02,2017-11-26,2017-11-26
640201,23837467,"613 W Peralta Ave, Mesa, AZ 85210 ",85210,0.0003340538691626607,229000,https://www.zillow.com/homedetails/613-W-Peralta-Ave-Mesa-AZ-85210/8190639_zpid/,33.3572,-111.84700000000001,2017-11-20,2017-11-20
422412,23760087,"6622 W Golden Ln, Glendale, AZ 85302 ",85302,0.0003329475989369985,190000,https://www.zillow.com/homedetails/6622-W-Golden-Ln-Glendale-AZ-85302/50187805_zpid/,33.5652,-112.20200000000001,2017-10-20,2017-10-20
1075269,23849641,"1803 N Cheri Lynn Dr, Chandler, AZ 85225 ",85225,0.0003325320424325733,229900,https://www.zillow.com/homedetails/1803-N-Cheri-Lynn-Dr-Chandler-AZ-85225/8183501_zpid/,33.3321,-111.853,2017-12-07,2017-12-07
1412890,23846613,"7253 W Aurelius Ave, Glendale, AZ 85303 ",85303,0.0003298570737734776,219900,https://www.zillow.com/homedetails/7253-W-Aurelius-Ave-Glendale-AZ-85303/95170805_zpid/,33.5399,-112.214,2017-11-30,2017-11-30
640835,22743106,"622 W Portobello Ave, Mesa, AZ 85210 ",85210,0.00032712279335182006,240000,https://www.zillow.com/homedetails/622-W-Portobello-Ave-Mesa-AZ-85210/8190949_zpid/,33.3608,-111.84700000000001,2017-10-06,2017-10-06
253775,23843304,"950 E Piute Ave, Phoenix, AZ 85024 ",85024,0.0003269002704356103,200000,https://www.zillow.com/homedetails/950-E-Piute-Ave-Phoenix-AZ-85024/7996577_zpid/,33.6645,-112.06,2017-11-20,2017-11-20
1404969,23834294,"6396 N 73rd Dr, Glendale, AZ 85303 ",85303,0.0003253222199942001,240000,https://www.zillow.com/homedetails/6396-N-73rd-Dr-Glendale-AZ-85303/95163104_zpid/,33.5285,-112.21700000000001,2017-11-16,2017-11-16
1421999,23820040,"8134 W Mclellan Rd, Glendale, AZ 85303 ",85303,0.00032078167841540243,222500,https://www.zillow.com/homedetails/8134-W-Mclellan-Rd-Glendale-AZ-85303/7462575_zpid/,33.5326,-112.235,2017-11-03,2017-11-03
230962,23796591,"19225 N 13th St, Phoenix, AZ 85024 ",85024,0.0003199853416773437,228000,https://www.zillow.com/homedetails/19225-N-13th-St-Phoenix-AZ-85024/7995445_zpid/,33.6614,-112.054,2017-10-23,2017-10-23
416972,23831830,"4633 W Ruth Ave, Glendale, AZ 85302 ",85302,0.00031968666103824906,195000,https://www.zillow.com/homedetails/4633-W-Ruth-Ave-Glendale-AZ-85302/7731286_zpid/,33.5632,-112.15899999999999,2017-11-14,2017-11-14
463565,23835031,"2744 W Ocotillo Rd, Phoenix, AZ 85017 ",85017,0.00031857256913841883,169200,https://www.zillow.com/homedetails/2744-W-Ocotillo-Rd-Phoenix-AZ-85017/7759554_zpid/,33.535,-112.119,2017-11-17,2017-11-17
424042,23835298,"9015 N 57th Ave, Glendale, AZ 85302 ",85302,0.0003183502372168888,205000,https://www.zillow.com/homedetails/9015-N-57th-Ave-Glendale-AZ-85302/7734719_zpid/,33.5681,-112.182,2017-11-16,2017-11-16
411581,22708161,"5226 W Eugie Ave, Glendale, AZ 85304 ",85304,0.00031480251156073457,220000,https://www.zillow.com/homedetails/5226-W-Eugie-Ave-Glendale-AZ-85304/7911821_zpid/,33.608000000000004,-112.17200000000001,2017-09-21,2017-09-21
422815,23843266,"8324 N 56th Ln, Glendale, AZ 85302 ",85302,0.000314780466002869,240000,https://www.zillow.com/homedetails/8324-N-56th-Ln-Glendale-AZ-85302/7732897_zpid/,33.5576,-112.181,2017-11-28,2017-11-28
1406108,23835268,"6734 N 77th Dr, Glendale, AZ 85303 ",85303,0.00031191231127571426,249000,https://www.zillow.com/homedetails/6734-N-77th-Dr-Glendale-AZ-85303/7463022_zpid/,33.5345,-112.226,2017-11-17,2017-11-17
423007,23831139,"8427 N 47th Dr, Glendale, AZ 85302 ",85302,0.00030842179310112283,249999,https://www.zillow.com/homedetails/8427-N-47th-Dr-Glendale-AZ-85302/7731867_zpid/,33.5593,-112.161,2017-11-13,2017-11-13
473761,23754862,"6144 N 27th Dr, Phoenix, AZ 85017 ",85017,0.0003069707719924085,139000,https://www.zillow.com/homedetails/6144-N-27th-Dr-Phoenix-AZ-85017/7759825_zpid/,33.5266,-112.118,2017-10-17,2017-10-17
9023660,23829074,"3140 E Michigan Ave, Phoenix, AZ 85032 ",85032,0.0003058420871328829,205000,https://www.zillow.com/homedetails/3140-E-Michigan-Ave-Phoenix-AZ-85032/7999282_zpid/,33.652,-112.014,2017-11-10,2017-11-10
1665598,23827301,"17430 N Lime Rock Dr, Sun City, AZ 85373 ",85373,0.0003053257202541775,225000,https://www.zillow.com/homedetails/17430-N-Lime-Rock-Dr-Sun-City-AZ-85373/7898027_zpid/,33.6431,-112.265,2017-11-08,2017-11-08
337488,23779389,"1424 E Le Marche Ave, Phoenix, AZ 85022 ",85022,0.00030254357814117107,223000,https://www.zillow.com/homedetails/1424-E-Le-Marche-Ave-Phoenix-AZ-85022/8003944_zpid/,33.6325,-112.051,2017-03-17,2017-03-17
470397,23842202,"3425 W Citrus Way, Phoenix, AZ 85017 ",85017,0.000301818805137635,147000,https://www.zillow.com/homedetails/3425-W-Citrus-Way-Phoenix-AZ-85017/7758679_zpid/,33.5297,-112.133,2017-11-27,2017-11-27
254974,23837939,"3950 W Hearn Rd, Phoenix, AZ 85053 ",85053,0.0003016814510449334,227900,https://www.zillow.com/homedetails/3950-W-Hearn-Rd-Phoenix-AZ-85053/7945048_zpid/,33.6148,-112.145,2017-11-17,2017-11-17
9020650,23832106,"324 W Rosal Pl, Chandler, AZ 85225 ",85225,0.00029909432758657155,215000,https://www.zillow.com/homedetails/324-W-Rosal-Pl-Chandler-AZ-85225/8177217_zpid/,33.3433,-111.848,2017-11-09,2017-11-09
1665023,22711430,"17403 N Hitching Post Dr, Sun City, AZ 85373 ",85373,0.00029411949797010056,243000,https://www.zillow.com/homedetails/17403-N-Hitching-Post-Dr-Sun-City-AZ-85373/7898070_zpid/,33.6412,-112.266,2017-09-22,2017-09-22
419880,23820028,"5616 W Brown St, Glendale, AZ 85302 ",85302,0.00029388309795878886,199900,https://www.zillow.com/homedetails/5616-W-Brown-St-Glendale-AZ-85302/7735264_zpid/,33.5783,-112.18,2017-11-03,2017-11-03
139696,23836139,"9423 W Willowbrook Dr, Sun City, AZ 85373 ",85373,0.00029316213199621796,209900,https://www.zillow.com/homedetails/9423-W-Willowbrook-Dr-Sun-City-AZ-85373/7897827_zpid/,33.6478,-112.262,2017-11-16,2017-11-16
1421352,23835289,"8016 W Sierra Vista Dr, Glendale, AZ 85303 ",85303,0.00029159665062251434,235000,https://www.zillow.com/homedetails/8016-W-Sierra-Vista-Dr-Glendale-AZ-85303/7462651_zpid/,33.5314,-112.23299999999999,2017-11-15,2017-11-15
413653,23822290,"6114 W Shaw Butte Dr, Glendale, AZ 85304 ",85304,0.0002913901501327223,249999,https://www.zillow.com/homedetails/6114-W-Shaw-Butte-Dr-Glendale-AZ-85304/7698065_zpid/,33.596,-112.191,2017-11-06,2017-11-06
393150,23840514,"4228 W Vista Ave, Phoenix, AZ 85051 ",85051,0.0002899782014878784,172400,https://www.zillow.com/homedetails/4228-W-Vista-Ave-Phoenix-AZ-85051/7758035_zpid/,33.5467,-112.15,2017-11-21,2017-11-21
335242,23814162,"6803 N 19th Dr, Phoenix, AZ 85015 ",85015,0.000289512286248207,159900,https://www.zillow.com/homedetails/6803-N-19th-Dr-Phoenix-AZ-85015/7773475_zpid/,33.5368,-112.1,2017-10-28,2017-10-28
411761,23811017,"5271 W Lupine Ave, Glendale, AZ 85304 ",85304,0.0002878993567100103,241000,https://www.zillow.com/homedetails/5271-W-Lupine-Ave-Glendale-AZ-85304/7737196_zpid/,33.5897,-112.17299999999999,2017-10-27,2017-10-27
9024203,23844470,"3326 W Roanoke Ave, Phoenix, AZ 85009 ",85009,0.00028740992429252384,172500,https://www.zillow.com/homedetails/3326-W-Roanoke-Ave-Phoenix-AZ-85009/7510426_zpid/,33.4791,-112.131,2017-11-30,2017-11-30
1412762,23830526,"7238 W Bethany Home Rd, Glendale, AZ 85303 ",85303,0.00028599810458686953,170000,https://www.zillow.com/homedetails/7238-W-Bethany-Home-Rd-Glendale-AZ-85303/7707005_zpid/,33.5235,-112.215,2017-11-10,2017-11-10
380762,23785452,"2911 W Lawrence Ln, Phoenix, AZ 85051 ",85051,0.00028560458090676313,155000,https://www.zillow.com/homedetails/2911-W-Lawrence-Ln-Phoenix-AZ-85051/7750459_zpid/,33.5641,-112.12200000000001,2017-03-06,2017-03-06
413798,23850402,"6136 W Sierra St, Glendale, AZ 85304 ",85304,0.00028471307872733533,239899,https://www.zillow.com/homedetails/6136-W-Sierra-St-Glendale-AZ-85304/7698235_zpid/,33.5914,-112.19200000000001,2017-12-08,2017-12-08
411351,23831053,"5194 W Paradise Dr, Glendale, AZ 85304 ",85304,0.000284322362355971,214900,https://www.zillow.com/homedetails/5194-W-Paradise-Dr-Glendale-AZ-85304/60978690_zpid/,33.5953,-112.171,2017-11-13,2017-11-13
9006569,23844445,"2520 E Hillery Dr, Phoenix, AZ 85032 ",85032,0.00028323186892000414,236000,https://www.zillow.com/homedetails/2520-E-Hillery-Dr-Phoenix-AZ-85032/8013787_zpid/,33.6223,-112.027,2017-11-30,2017-11-30
351306,23846480,"4119 W Monte Vista Rd, Phoenix, AZ 85009 ",85009,0.0002823091716161248,163900,https://www.zillow.com/homedetails/4119-W-Monte-Vista-Rd-Phoenix-AZ-85009/7511620_zpid/,33.4715,-112.148,2017-12-01,2017-12-01
334027,23820917,"6217 N 25th Ave, Phoenix, AZ 85015 ",85015,0.00028162191957675976,186500,https://www.zillow.com/homedetails/6217-N-25th-Ave-Phoenix-AZ-85015/7772678_zpid/,33.5283,-112.11200000000001,2017-11-03,2017-11-03
385922,23822262,"3614 W Echo Ln, Phoenix, AZ 85051 ",85051,0.00028110674368441417,185000,https://www.zillow.com/homedetails/3614-W-Echo-Ln-Phoenix-AZ-85051/7754459_zpid/,33.5595,-112.137,2017-11-06,2017-11-06
8995966,23844478,"3707 E Joan De Arc Ave, Phoenix, AZ 85032 ",85032,0.000279386866527816,246900,https://www.zillow.com/homedetails/3707-E-Joan-De-Arc-Ave-Phoenix-AZ-85032/7813697_zpid/,33.6089,-112.00200000000001,2017-11-30,2017-11-30
386606,23830834,"3661 W Alice Ave, Phoenix, AZ 85051 ",85051,0.0002785959170178945,170000,https://www.zillow.com/homedetails/3661-W-Alice-Ave-Phoenix-AZ-85051/7753529_zpid/,33.5637,-112.139,2017-11-09,2017-11-09
9012337,23837926,"3324 E Thunderbird Rd, Phoenix, AZ 85032 ",85032,0.000278443903693291,210000,https://www.zillow.com/homedetails/3324-E-Thunderbird-Rd-Phoenix-AZ-85032/8011849_zpid/,33.6116,-112.01100000000001,2017-11-16,2017-11-16
1665351,23819526,"17415 N Country Club Dr, Sun City, AZ 85373 ",85373,0.00027810929320629883,235000,https://www.zillow.com/homedetails/17415-N-Country-Club-Dr-Sun-City-AZ-85373/7897399_zpid/,33.6428,-112.26,2017-11-02,2017-11-02
467648,23846408,"3143 W Marlette Ave, Phoenix, AZ 85017 ",85017,0.0002761157063067602,214000,https://www.zillow.com/homedetails/3143-W-Marlette-Ave-Phoenix-AZ-85017/7760936_zpid/,33.5289,-112.12799999999999,2017-12-01,2017-12-01
9013905,22694429,"2418 E Dahlia Dr, Phoenix, AZ 85032 ",85032,0.0002733027140730144,225000,https://www.zillow.com/homedetails/2418-E-Dahlia-Dr-Phoenix-AZ-85032/7820474_zpid/,33.6034,-112.03,2017-09-18,2017-09-18
8954944,23798695,"2414 E Dahlia Dr, Phoenix, AZ 85032 ",85032,0.00027133201030883825,232000,https://www.zillow.com/homedetails/2414-E-Dahlia-Dr-Phoenix-AZ-85032/7820475_zpid/,33.6034,-112.03,2017-10-19,2017-10-19
229177,23837049,"16266 N 29th Dr, Phoenix, AZ 85053 ",85053,0.0002703512345328015,230000,https://www.zillow.com/homedetails/16266-N-29th-Dr-Phoenix-AZ-85053/7954095_zpid/,33.6336,-112.12200000000001,2017-11-16,2017-11-16
1408938,22494674,"6956 W Northview Ave, Glendale, AZ 85303 ",85303,0.00026807661157459957,138000,https://www.zillow.com/homedetails/6956-W-Northview-Ave-Glendale-AZ-85303/7704861_zpid/,33.543,-112.21,2017-08-01,2017-08-01
424708,23846682,"9609 N 52nd Ln, Glendale, AZ 85302 ",85302,0.0002634628171436151,199900,https://www.zillow.com/homedetails/9609-N-52nd-Ln-Glendale-AZ-85302/7734410_zpid/,33.5731,-112.17299999999999,2017-12-01,2017-12-01
7387290,23818465,"1542 W Mckinley St, Phoenix, AZ 85007 ",85007,0.00026318474724199535,169900,https://www.zillow.com/homedetails/1542-W-Mckinley-St-Phoenix-AZ-85007/7521496_zpid/,33.4571,-112.09299999999999,2017-11-02,2017-11-02
1415032,23792388,"7420 N 69th Ln, Glendale, AZ 85303 ",85303,0.00026237755997585784,185000,https://www.zillow.com/homedetails/7420-N-69th-Ln-Glendale-AZ-85303/7704959_zpid/,33.5444,-112.21,2017-01-26,2017-01-26
1414144,23831100,"7341 N 70th Dr, Glendale, AZ 85303 ",85303,0.00026144237682372903,183000,https://www.zillow.com/homedetails/7341-N-70th-Dr-Glendale-AZ-85303/7704927_zpid/,33.5435,-112.211,2017-11-10,2017-11-10
9023664,23829104,"3719 E Eugie Ave, Phoenix, AZ 85032 ",85032,0.00026115540233996625,249000,https://www.zillow.com/homedetails/3719-E-Eugie-Ave-Phoenix-AZ-85032/7813758_zpid/,33.6096,-112.00200000000001,2017-11-12,2017-11-12
416538,23843127,"4527 W Cochise Dr, Glendale, AZ 85302 ",85302,0.0002567504734314693,219900,https://www.zillow.com/homedetails/4527-W-Cochise-Dr-Glendale-AZ-85302/7729060_zpid/,33.5803,-112.15799999999999,2017-11-28,2017-11-28
1409526,23835276,"7001 N 77th Ave, Glendale, AZ 85303 ",85303,0.00025650863044960985,169900,https://www.zillow.com/homedetails/7001-N-77th-Ave-Glendale-AZ-85303/7684833_zpid/,33.5382,-112.22399999999999,2017-11-18,2017-11-18
322674,23758532,"4248 N 4th Ave, Phoenix, AZ 85013 ",85013,0.0002557702073841491,199900,https://www.zillow.com/homedetails/4248-N-4th-Ave-Phoenix-AZ-85013/7770331_zpid/,33.4974,-112.08200000000001,2017-10-20,2017-10-20
7405341,13303918,"3626 N 37th St, Phoenix, AZ 85018 ",85018,0.00025571684097851286,119000,https://www.zillow.com/homedetails/3626-N-37th-St-Phoenix-AZ-85018/2104158165_zpid/,33.4905,-112.00200000000001,2017-01-31,2017-01-31
1410407,23835273,"7080 W Glenn Dr, Glendale, AZ 85303 ",85303,0.00025537416823972396,234900,https://www.zillow.com/homedetails/7080-W-Glenn-Dr-Glendale-AZ-85303/55173602_zpid/,33.5399,-112.211,2017-11-15,2017-11-15
9023068,23823620,"15224 N 30th St, Phoenix, AZ 85032 ",85032,0.00025500408889271055,229000,https://www.zillow.com/homedetails/15224-N-30th-St-Phoenix-AZ-85032/8011594_zpid/,33.6253,-112.01799999999999,2017-11-07,2017-11-07
1409866,23835277,"7017 N 77th Dr, Glendale, AZ 85303 ",85303,0.000254826597611345,215000,https://www.zillow.com/homedetails/7017-N-77th-Dr-Glendale-AZ-85303/55260208_zpid/,33.5385,-112.225,2017-11-16,2017-11-16
1373662,23843286,"8771 W Ocotillo Rd, Glendale, AZ 85305 ",85305,0.0002528214666562478,185000,https://www.zillow.com/homedetails/8771-W-Ocotillo-Rd-Glendale-AZ-85305/7461673_zpid/,33.5332,-112.25,2017-11-27,2017-11-27
1372616,23837733,"8549 W Tuckey Ln, Glendale, AZ 85305 ",85305,0.00025078016164134417,206000,https://www.zillow.com/homedetails/8549-W-Tuckey-Ln-Glendale-AZ-85305/7461499_zpid/,33.533,-112.245,2017-11-19,2017-11-19
422023,23835263,"6461 W Ruth Ave, Glendale, AZ 85302 ",85302,0.0002502155259119132,210000,https://www.zillow.com/homedetails/6461-W-Ruth-Ave-Glendale-AZ-85302/67790198_zpid/,33.5625,-112.198,2017-11-18,2017-11-18
1406067,23813622,"6732 N 79th Ave, Glendale, AZ 85303 ",85303,0.00024964103839783856,215000,https://www.zillow.com/homedetails/6732-N-79th-Ave-Glendale-AZ-85303/7462444_zpid/,33.5339,-112.229,2017-10-28,2017-10-28
423250,23837732,"8602 N 55TH Ave, Glendale, AZ 85302 ",85302,0.0002495851791971155,234900,https://www.zillow.com/homedetails/8602-N-55th-Ave-Glendale-AZ-85302/7733439_zpid/,33.5627,-112.178,2017-11-19,2017-11-19
423069,23831999,"8502 N 54th Dr, Glendale, AZ 85302 ",85302,0.00024764473967087006,196900,https://www.zillow.com/homedetails/8502-N-54th-Dr-Glendale-AZ-85302/7733696_zpid/,33.5606,-112.177,2017-11-09,2017-11-09
9024345,23841587,"710 W Farmdale Ave, Mesa, AZ 85210 ",85210,0.0002468323002615296,199000,https://www.zillow.com/homedetails/710-W-Farmdale-Ave-Mesa-AZ-85210/7598519_zpid/,33.3963,-111.84700000000001,2017-11-24,2017-11-24
394545,23835062,"7239 N 41st Dr, Phoenix, AZ 85051 ",85051,0.0002467627434653459,199900,https://www.zillow.com/homedetails/7239-N-41st-Dr-Phoenix-AZ-85051/7756453_zpid/,33.5436,-112.148,2017-11-17,2017-11-17
561112,23847992,"1043 W Frito Ave, Mesa, AZ 85210 ",85210,0.0002465224386088422,195000,https://www.zillow.com/homedetails/1043-W-Frito-Ave-Mesa-AZ-85210/7598695_zpid/,33.3951,-111.854,2017-11-30,2017-11-30
229748,23841145,"16450 N 29th Ln, Phoenix, AZ 85053 ",85053,0.00024542419131349456,168000,https://www.zillow.com/homedetails/16450-N-29th-Ln-Phoenix-AZ-85053/7955346_zpid/,33.6357,-112.12200000000001,2017-11-25,2017-11-25
8959430,23823810,"4054 W Northview Ave, Phoenix, AZ 85051 ",85051,0.0002450157801286918,199500,https://www.zillow.com/homedetails/4054-W-Northview-Ave-Phoenix-AZ-85051/7757834_zpid/,33.5436,-112.147,2017-11-07,2017-11-07
226063,23841398,"1510 E Taro Ln, Phoenix, AZ 85024 ",85024,0.00024462580609756624,220000,https://www.zillow.com/homedetails/1510-E-Taro-Ln-Phoenix-AZ-85024/7995792_zpid/,33.6596,-112.04899999999999,2017-11-22,2017-11-22
420158,23823709,"5666 W Laurie Ln, Glendale, AZ 85302 ",85302,0.000244491998751691,209000,https://www.zillow.com/homedetails/5666-W-Laurie-Ln-Glendale-AZ-85302/7732919_zpid/,33.5593,-112.181,2017-11-07,2017-11-07
225959,23779726,"1502 E Taro Ln, Phoenix, AZ 85024 ",85024,0.00024432101509439306,208500,https://www.zillow.com/homedetails/1502-E-Taro-Ln-Phoenix-AZ-85024/7995794_zpid/,33.6595,-112.05,2017-03-15,2017-03-15
319451,23853539,"1219 W Indian School Rd, Phoenix, AZ 85013 ",85013,0.00024381285083413672,206599,https://www.zillow.com/homedetails/1219-W-Indian-School-Rd-Phoenix-AZ-85013/7516440_zpid/,33.4947,-112.089,2017-12-09,2017-12-09
421245,23823724,"6222 W Echo Ln, Glendale, AZ 85302 ",85302,0.0002431491310449321,205000,https://www.zillow.com/homedetails/6222-W-Echo-Ln-Glendale-AZ-85302/7704166_zpid/,33.5584,-112.194,2017-11-07,2017-11-07
250889,23830838,"3634 W Banff Ln, Phoenix, AZ 85053 ",85053,0.0002423753593007313,243000,https://www.zillow.com/homedetails/3634-W-Banff-Ln-Phoenix-AZ-85053/7944164_zpid/,33.621,-112.137,2017-11-14,2017-11-14
409973,23835214,"4617 W Christy Dr, Glendale, AZ 85304 ",85304,0.00024232538949041515,230000,https://www.zillow.com/homedetails/4617-W-Christy-Dr-Glendale-AZ-85304/7727674_zpid/,33.5841,-112.15899999999999,2017-11-17,2017-11-17
247778,23835118,"3436 W Acoma Dr, Phoenix, AZ 85053 ",85053,0.00024023564765920079,229900,https://www.zillow.com/homedetails/3436-W-Acoma-Dr-Phoenix-AZ-85053/7943333_zpid/,33.6178,-112.133,2017-11-16,2017-11-16
234640,23785215,"2751 W Acoma Dr, Phoenix, AZ 85053 ",85053,0.0002382845202585275,210000,https://www.zillow.com/homedetails/2751-W-Acoma-Dr-Phoenix-AZ-85053/7942788_zpid/,33.6166,-112.12,2017-03-15,2017-03-15
224397,23833473,"1244 E Sequoia Dr, Phoenix, AZ 85024 ",85024,0.0002377624218967472,228500,https://www.zillow.com/homedetails/1244-E-Sequoia-Dr-Phoenix-AZ-85024/7995359_zpid/,33.6631,-112.055,2017-11-10,2017-11-10
420568,22722083,"5807 W Puget Ave, Glendale, AZ 85302 ",85302,0.00023766603854375265,200000,https://www.zillow.com/homedetails/5807-W-Puget-Ave-Glendale-AZ-85302/7733279_zpid/,33.5668,-112.185,2017-09-25,2017-09-25
423456,22436549,"8633 N 55th Ave, Glendale, AZ 85302 ",85302,0.00023765835733335607,174000,https://www.zillow.com/homedetails/8633-N-55th-Ave-Glendale-AZ-85302/7733817_zpid/,33.5637,-112.178,2017-07-29,2017-07-29
9019087,22731125,"3117 E Charleston Ave, Phoenix, AZ 85032 ",85032,0.00023739439729684127,239999,https://www.zillow.com/homedetails/3117-E-Charleston-Ave-Phoenix-AZ-85032/7999065_zpid/,33.6498,-112.015,2017-09-30,2017-09-30
379293,23843863,"2626 W Northview Ave, Phoenix, AZ 85051 ",85051,0.00023738665713986257,134900,https://www.zillow.com/homedetails/2626-W-Northview-Ave-Phoenix-AZ-85051/7779482_zpid/,33.5439,-112.116,2017-11-29,2017-11-29
416064,23818791,"4416 W Turquoise Ave, Glendale, AZ 85302 ",85302,0.00023699758249092097,249900,https://www.zillow.com/homedetails/4416-W-Turquoise-Ave-Glendale-AZ-85302/7729268_zpid/,33.5757,-112.154,2017-11-02,2017-11-02
9022959,23843239,"7726 W Shangri La Rd, Peoria, AZ 85345 ",85345,0.00023699553657507164,219999,https://www.zillow.com/homedetails/7726-W-Shangri-La-Rd-Peoria-AZ-85345/7681844_zpid/,33.5866,-112.229,2017-11-27,2017-11-27
524525,23853423,"9119 W Cypress St, Phoenix, AZ 85037 ",85037,0.0002369631162505823,189900,https://www.zillow.com/homedetails/9119-W-Cypress-St-Phoenix-AZ-85037/67762984_zpid/,33.4715,-112.256,2017-11-14,2017-11-14
526828,22737450,"9418 W Sheridan St, Phoenix, AZ 85037 ",85037,0.00023554800313640672,214500,https://www.zillow.com/homedetails/9418-W-Sheridan-St-Phoenix-AZ-85037/67773035_zpid/,33.475,-112.262,2017-09-28,2017-09-28
1413226,22747483,"7301 W Cavalier Dr, Glendale, AZ 85303 ",85303,0.00023543621655275704,179900,https://www.zillow.com/homedetails/7301-W-Cavalier-Dr-Glendale-AZ-85303/7707198_zpid/,33.5243,-112.21600000000001,2017-10-10,2017-10-10
419496,23846538,"5437 W Orchid Ln, Glendale, AZ 85302 ",85302,0.00023514440630772516,238000,https://www.zillow.com/homedetails/5437-W-Orchid-Ln-Glendale-AZ-85302/7733771_zpid/,33.5625,-112.177,2017-12-01,2017-12-01
9021799,23827252,"13014 N Lakeforest Dr, Sun City, AZ 85351 ",85351,0.0002338831337259727,240079,https://www.zillow.com/homedetails/13014-N-Lakeforest-Dr-Sun-City-AZ-85351/8095961_zpid/,33.6035,-112.26899999999999,2017-11-11,2017-11-11
420828,22557561,"5930 W Loma Ln, Glendale, AZ 85302 ",85302,0.00023372072754105958,245000,https://www.zillow.com/homedetails/5930-W-Loma-Ln-Glendale-AZ-85302/7704301_zpid/,33.5544,-112.18799999999999,2017-08-22,2017-08-22
9021060,23754387,"3522 W Michelle Dr, Glendale, AZ 85308 ",85308,0.00023018943428144972,232500,https://www.zillow.com/homedetails/3522-W-Michelle-Dr-Glendale-AZ-85308/7947823_zpid/,33.6498,-112.135,2017-10-16,2017-10-16
423289,23823760,"8613 N 53rd Ave, Glendale, AZ 85302 ",85302,0.00022936191423999174,194900,https://www.zillow.com/homedetails/8613-N-53rd-Ave-Glendale-AZ-85302/7733929_zpid/,33.563,-112.17299999999999,2017-11-08,2017-11-08
423278,23849909,"8609 N 56th Dr, Glendale, AZ 85302 ",85302,0.0002292046430949461,208000,https://www.zillow.com/homedetails/8609-N-56th-Dr-Glendale-AZ-85302/7733469_zpid/,33.5628,-112.18,2017-12-07,2017-12-07
9023033,23823351,"437 E Wescott Dr, Phoenix, AZ 85024 ",85024,0.0002275168831837344,225000,https://www.zillow.com/homedetails/437-E-Wescott-Dr-Phoenix-AZ-85024/2092120604_zpid/,33.6585,-112.068,2017-11-08,2017-11-08
8996166,23838042,"8901 W Malapai Dr, Peoria, AZ 85345 ",85345,0.00022736260389975943,194000,https://www.zillow.com/homedetails/8901-W-Malapai-Dr-Peoria-AZ-85345/7684242_zpid/,33.5749,-112.251,2017-11-16,2017-11-16
230822,23837058,"19206 N 4th St, Phoenix, AZ 85024 ",85024,0.00022699166442200045,225000,https://www.zillow.com/homedetails/19206-N-4th-St-Phoenix-AZ-85024/7972304_zpid/,33.6605,-112.07,2017-11-16,2017-11-16
8950821,23840949,"7245 W Brown St, Peoria, AZ 85345 ",85345,0.00022476946600760028,199999,https://www.zillow.com/homedetails/7245-W-Brown-St-Peoria-AZ-85345/7701411_zpid/,33.5771,-112.215,2017-11-24,2017-11-24
379250,23806503,"2622 W Northview Ave, Phoenix, AZ 85051 ",85051,0.00022472750173626005,169900,https://www.zillow.com/homedetails/2622-W-Northview-Ave-Phoenix-AZ-85051/7779483_zpid/,33.5439,-112.115,2017-10-25,2017-10-25
420041,23840554,"5643 W Alice Ave, Glendale, AZ 85302 ",85302,0.0002243657967647117,195000,https://www.zillow.com/homedetails/5643-W-Alice-Ave-Glendale-AZ-85302/7733508_zpid/,33.5643,-112.181,2017-11-22,2017-11-22
418501,23844506,"5136 W Laurie Ln, Glendale, AZ 85302 ",85302,0.00022417126807099542,211000,https://www.zillow.com/homedetails/5136-W-Laurie-Ln-Glendale-AZ-85302/7732574_zpid/,33.559,-112.171,2017-11-30,2017-11-30
327533,23842990,"2036 W Denton Ln, Phoenix, AZ 85015 ",85015,0.00022371224884809858,187900,https://www.zillow.com/homedetails/2036-W-Denton-Ln-Phoenix-AZ-85015/7765203_zpid/,33.5163,-112.103,2017-11-23,2017-11-23
232170,23847359,"17834 N 33rd Dr, Phoenix, AZ 85053 ",85053,0.0002234679717221724,249999,https://www.zillow.com/homedetails/17834-N-33rd-Dr-Phoenix-AZ-85053/7941287_zpid/,33.6484,-112.131,2017-11-30,2017-11-30
9023485,23827312,"9509 W Greenway Rd, Sun City, AZ 85351 ",85351,0.00022262159461049563,244900,https://www.zillow.com/homedetails/9509-W-Greenway-Rd-Sun-City-AZ-85351/7921752_zpid/,33.6226,-112.264,2017-11-11,2017-11-11
7415543,23760080,"5627 W Mission Ln, Glendale, AZ 85302 ",85302,0.00022246079278306075,223900,https://www.zillow.com/homedetails/5627-W-Mission-Ln-Glendale-AZ-85302/7734682_zpid/,33.569,-112.18,2017-10-20,2017-10-20
233618,23850090,"18243 N 31st Ave, Phoenix, AZ 85053 ",85053,0.00022059348534461586,224997,https://www.zillow.com/homedetails/18243-N-31st-Ave-Phoenix-AZ-85053/7940528_zpid/,33.6526,-112.126,2017-12-08,2017-12-08
1406612,23791492,"6765 N 74th Dr, Glendale, AZ 85303 ",85303,0.00021940320394343334,210000,https://www.zillow.com/homedetails/6765-N-74th-Dr-Glendale-AZ-85303/14094753_zpid/,33.5349,-112.22,2017-03-15,2017-03-15
251306,23849840,"533 E Taro Ln, Phoenix, AZ 85024 ",85024,0.00021935596803186315,241000,https://www.zillow.com/homedetails/533-E-Taro-Ln-Phoenix-AZ-85024/7972372_zpid/,33.6591,-112.066,2017-12-07,2017-12-07
448532,23828597,"8415 W Granada Rd, Phoenix, AZ 85037 ",85037,0.0002192470756679497,149900,https://www.zillow.com/homedetails/8415-W-Granada-Rd-Phoenix-AZ-85037/7487944_zpid/,33.4684,-112.241,2017-10-24,2017-10-24
413085,21986995,"5754 W Shangri La Rd, Glendale, AZ 85304 ",85304,0.00021890133700366428,227500,https://www.zillow.com/homedetails/5754-W-Shangri-La-Rd-Glendale-AZ-85304/7736186_zpid/,33.586999999999996,-112.18299999999999,2017-04-12,2017-04-12
242590,22686911,"3202 W Angela Dr, Phoenix, AZ 85053 ",85053,0.00021866840785710517,234900,https://www.zillow.com/homedetails/3202-W-Angela-Dr-Phoenix-AZ-85053/7942083_zpid/,33.6461,-112.12799999999999,2017-09-12,2017-09-12
312550,23849588,"1517 W Taylor St, Phoenix, AZ 85007 ",85007,0.00021827519232482458,179995,https://www.zillow.com/homedetails/1517-W-Taylor-St-Phoenix-AZ-85007/7521670_zpid/,33.4538,-112.09200000000001,2017-12-05,2017-12-05
17178,23846249,"14813 N 35th St, Phoenix, AZ 85032 ",85032,0.00021640476860328002,199900,https://www.zillow.com/homedetails/14813-N-35th-St-Phoenix-AZ-85032/8014278_zpid/,33.6214,-112.006,2017-11-30,2017-11-30
446554,23770921,"4817 N 92nd Dr, Phoenix, AZ 85037 ",85037,0.00021592184097196857,218000,http://www.zillow.com/homedetails/4817-N-92nd-Dr-Phoenix-AZ-85037/7466453_zpid,33.5076,-112.258,2017-02-26,2017-02-26
670,23837213,"1307 N 42nd Ave, Phoenix, AZ 85009 ",85009,0.0002153264479021984,145000,https://www.zillow.com/homedetails/1307-N-42nd-Ave-Phoenix-AZ-85009/7506479_zpid/,33.4626,-112.149,2017-11-16,2017-11-16
9024146,23837153,"18231 N 35th Dr, Glendale, AZ 85308 ",85308,0.00021489272439034632,249900,https://www.zillow.com/homedetails/18231-N-35th-Dr-Glendale-AZ-85308/7947905_zpid/,33.652,-112.135,2017-11-18,2017-11-18
350252,22116796,"3827 W Taylor St, Phoenix, AZ 85009 ",85009,0.00021484123305082374,112500,https://www.zillow.com/homedetails/3827-W-Taylor-St-Phoenix-AZ-85009/7505668_zpid/,33.454,-112.14299999999999,2017-06-04,2017-06-04
9023645,23828731,"7328 W Heatherbrae Dr, Phoenix, AZ 85033 ",85033,0.00021455371818628063,174900,https://www.zillow.com/homedetails/7328-W-Heatherbrae-Dr-Phoenix-AZ-85033/7711026_zpid/,33.4977,-112.21700000000001,2017-11-06,2017-11-06
224538,23818658,"14264 N 33rd Ave, Phoenix, AZ 85053 ",85053,0.00021382818006359397,244900,https://www.zillow.com/homedetails/14264-N-33rd-Ave-Phoenix-AZ-85053/7943194_zpid/,33.6163,-112.12899999999999,2017-11-02,2017-11-02
9000590,22678276,"2725 N 40th Ave, Phoenix, AZ 85009 ",85009,0.0002133827314507648,162900,https://www.zillow.com/homedetails/2725-N-40th-Ave-Phoenix-AZ-85009/7512795_zpid/,33.4798,-112.145,2017-09-15,2017-09-15
7520977,22428537,"7562 W Turquoise Ave, Peoria, AZ 85345 ",85345,0.00021305821496071385,189900,https://www.zillow.com/homedetails/7562-W-Turquoise-Ave-Peoria-AZ-85345/7682178_zpid/,33.5747,-112.223,2017-04-28,2017-04-28
9021937,23809351,"9129 W Hutton Dr, Sun City, AZ 85351 ",85351,0.0002129529009431126,184900,https://www.zillow.com/homedetails/9129-W-Hutton-Dr-Sun-City-AZ-85351/7904717_zpid/,33.6309,-112.257,2017-10-26,2017-10-26
412062,23570538,"5339 W Cholla St, Glendale, AZ 85304 ",85304,0.0002127093869436636,209000,https://www.zillow.com/homedetails/5339-W-Cholla-St-Glendale-AZ-85304/7736846_zpid/,33.5891,-112.175,2017-10-12,2017-10-12
422149,23849220,"6523 W Brown St, Glendale, AZ 85302 ",85302,0.0002122267634164478,215900,https://www.zillow.com/homedetails/6523-W-Brown-St-Glendale-AZ-85302/7706599_zpid/,33.5779,-112.2,2017-12-06,2017-12-06
9024207,23837704,"3545 W Gardenia Ave, Phoenix, AZ 85051 ",85051,0.00021168564309456808,224500,https://www.zillow.com/homedetails/3545-W-Gardenia-Ave-Phoenix-AZ-85051/7756303_zpid/,33.5441,-112.13600000000001,2017-11-20,2017-11-20
404277,23846221,"13213 N 55th Ave, Glendale, AZ 85304 ",85304,0.00021133005698517016,214900,https://www.zillow.com/homedetails/13213-N-55th-Ave-Glendale-AZ-85304/7911876_zpid/,33.6045,-112.177,2017-12-01,2017-12-01
8850973,23814108,"2525 E Michigan Ave, Phoenix, AZ 85032 ",85032,0.00021055968171101124,225000,https://www.zillow.com/homedetails/2525-E-Michigan-Ave-Phoenix-AZ-85032/7999906_zpid/,33.6507,-112.027,2017-10-29,2017-10-29
28539,23850066,"10829 N 46th Ave, Glendale, AZ 85304 ",85304,0.0002104348663883454,247800,https://www.zillow.com/homedetails/10829-N-46th-Ave-Glendale-AZ-85304/7727983_zpid/,33.5855,-112.156,2017-12-08,2017-12-08
411159,23837722,"5131 W Corrine Dr, Glendale, AZ 85304 ",85304,0.00021015183584547403,235000,https://www.zillow.com/homedetails/5131-W-Corrine-Dr-Glendale-AZ-85304/7911511_zpid/,33.6005,-112.171,2017-11-20,2017-11-20
401493,23754956,"11221 N 58th Ave, Glendale, AZ 85304 ",85304,0.0002099430923419196,209000,https://www.zillow.com/homedetails/11221-N-58th-Ave-Glendale-AZ-85304/7736227_zpid/,33.588,-112.184,2017-10-17,2017-10-17
1885528,22710615,"8223 W Carol Ave, Peoria, AZ 85345 ",85345,0.00020970351071666657,205000,https://www.zillow.com/homedetails/8223-W-Carol-Ave-Peoria-AZ-85345/60978276_zpid/,33.5706,-112.236,2017-09-21,2017-09-21
1404598,23821104,"6113 N 71st Ln, Glendale, AZ 85303 ",85303,0.00020741669184313078,194990,https://www.zillow.com/homedetails/6113-N-71st-Ln-Glendale-AZ-85303/7707065_zpid/,33.5257,-112.214,2017-11-04,2017-11-04
349796,23814409,"3702 W Tonto St, Phoenix, AZ 85009 ",85009,0.00020735616777196785,148800,https://www.zillow.com/homedetails/3702-W-Tonto-St-Phoenix-AZ-85009/7506279_zpid/,33.4394,-112.139,2017-10-29,2017-10-29
412045,23849202,"5337 W Mercer Ln, Glendale, AZ 85304 ",85304,0.00020725659082086295,238900,https://www.zillow.com/homedetails/5337-W-Mercer-Ln-Glendale-AZ-85304/92352572_zpid/,33.5846,-112.175,2017-12-06,2017-12-06
9020903,23833912,"14832 N 35th Pl, Phoenix, AZ 85032 ",85032,0.00020688816773858836,230000,https://www.zillow.com/homedetails/14832-N-35th-Pl-Phoenix-AZ-85032/8014288_zpid/,33.6219,-112.006,2017-11-12,2017-11-12
9023880,23833725,"3454 E Libby St, Phoenix, AZ 85032 ",85032,0.00020614679422209934,233000,https://www.zillow.com/homedetails/3454-E-Libby-St-Phoenix-AZ-85032/92349104_zpid/,33.6476,-112.005,2017-11-15,2017-11-15
9012405,23844536,"7326 W Sierra St, Peoria, AZ 85345 ",85345,0.0002059543863221312,225000,https://www.zillow.com/homedetails/7326-W-Sierra-St-Peoria-AZ-85345/7700347_zpid/,33.5903,-112.21700000000001,2017-11-30,2017-11-30
420303,23834253,"5729 W Purdue Cir, Glendale, AZ 85302 ",85302,0.00020522513602269098,220000,https://www.zillow.com/homedetails/5729-W-Purdue-Cir-Glendale-AZ-85302/7734981_zpid/,33.5741,-112.18299999999999,2017-11-15,2017-11-15
413890,23835252,"6209 W Bloomfield Rd, Glendale, AZ 85304 ",85304,0.00020512261428246538,229999,https://www.zillow.com/homedetails/6209-W-Bloomfield-Rd-Glendale-AZ-85304/7912238_zpid/,33.5984,-112.19200000000001,2017-11-18,2017-11-18
9024759,23852992,"3920 W Palm Ln, Phoenix, AZ 85009 ",85009,0.00020485623728250967,84900,https://www.zillow.com/homedetails/3920-W-Palm-Ln-Phoenix-AZ-85009/7512670_zpid/,33.4698,-112.14399999999999,2017-12-06,2017-12-06
9021527,23824183,"7384 W Greer Ave, Peoria, AZ 85345 ",85345,0.0002047844196504371,209900,https://www.zillow.com/homedetails/7384-W-Greer-Ave-Peoria-AZ-85345/7701234_zpid/,33.5882,-112.21799999999999,2017-11-09,2017-11-09
412977,23831072,"5721 W Altadena Ave, Glendale, AZ 85304 ",85304,0.000204544777019588,180000,https://www.zillow.com/homedetails/5721-W-Altadena-Ave-Glendale-AZ-85304/7737677_zpid/,33.5919,-112.18299999999999,2017-11-09,2017-11-09
227536,22735776,"15219 N 37th Ave, Phoenix, AZ 85053 ",85053,0.0002043098646154522,219000,https://www.zillow.com/homedetails/15219-N-37th-Ave-Phoenix-AZ-85053/7944373_zpid/,33.6242,-112.137,2017-09-22,2017-09-22
557194,23828210,"2601 N 41st Ave, Phoenix, AZ 85009 ",85009,0.0002040992675448958,150000,https://www.zillow.com/homedetails/2601-N-41st-Ave-Phoenix-AZ-85009/7512888_zpid/,33.477,-112.147,2017-11-12,2017-11-12
350466,23853024,"3908 W Palm Ln, Phoenix, AZ 85009 ",85009,0.0002035710658739324,149900,https://www.zillow.com/homedetails/3908-W-Palm-Ln-Phoenix-AZ-85009/7512671_zpid/,33.4698,-112.14399999999999,2017-12-05,2017-12-05
9019686,22738495,"17452 N 55th Ave, Glendale, AZ 85308 ",85308,0.00020343545948393876,249900,https://www.zillow.com/homedetails/17452-N-55th-Ave-Glendale-AZ-85308/8099766_zpid/,33.6452,-112.178,2017-10-04,2017-10-04
424819,23757935,"9632 N 53rd Ave, Glendale, AZ 85302 ",85302,0.00020326878530725937,195000,https://www.zillow.com/homedetails/9632-N-53rd-Ave-Glendale-AZ-85302/7734288_zpid/,33.5739,-112.17399999999999,2017-10-20,2017-10-20
9021889,23808090,"2926 E Charleston Ave, Phoenix, AZ 85032 ",85032,0.00020308140685788815,175000,https://www.zillow.com/homedetails/2926-E-Charleston-Ave-Phoenix-AZ-85032/7998861_zpid/,33.6495,-112.01899999999999,2017-10-25,2017-10-25
349445,23786888,"3622 W Berkeley Rd, Phoenix, AZ 85009 ",85009,0.0002030761764996161,144900,https://www.zillow.com/homedetails/3622-W-Berkeley-Rd-Phoenix-AZ-85009/7512043_zpid/,33.4684,-112.137,2017-04-17,2017-04-17
9018704,22731861,"13229 N 99th Dr, Sun City, AZ 85351 ",85351,0.0002027291309355683,152500,https://www.zillow.com/homedetails/13229-N-99th-Dr-Sun-City-AZ-85351/7914996_zpid/,33.6055,-112.27,2017-09-29,2017-09-29
7428103,23779456,"14238 N Lakeforest Dr, Sun City, AZ 85351 ",85351,0.0002024163824796237,169900,https://www.zillow.com/homedetails/14238-N-Lakeforest-Dr-Sun-City-AZ-85351/7922322_zpid/,33.6141,-112.26700000000001,2017-02-25,2017-02-25
8984109,23843223,"7426 W Carol Ave, Peoria, AZ 85345 ",85345,0.00020232294864198198,195000,https://www.zillow.com/homedetails/7426-W-Carol-Ave-Peoria-AZ-85345/7702134_zpid/,33.5726,-112.219,2017-11-24,2017-11-24
237883,17872058,"3009 W Charleston Ave, Phoenix, AZ 85053 ",85053,0.00020218267437739258,220000,https://www.zillow.com/homedetails/3009-W-Charleston-Ave-Phoenix-AZ-85053/7940776_zpid/,33.6487,-112.124,2017-03-16,2017-03-16
402515,23808878,"15205 N 51st Dr, Glendale, AZ 85306 ",85306,0.00020198315367056023,189900,https://www.zillow.com/homedetails/15205-N-51st-Dr-Glendale-AZ-85306/7910980_zpid/,33.6226,-112.169,2017-10-26,2017-10-26
556883,23809047,"2529 N 40th Ave, Phoenix, AZ 85009 ",85009,0.00020180048401773336,149899,https://www.zillow.com/homedetails/2529-N-40th-Ave-Phoenix-AZ-85009/88889007_zpid/,33.4758,-112.146,2017-10-26,2017-10-26
389338,23787313,"3912 W Townley Ave, Phoenix, AZ 85051 ",85051,0.000201762263403771,184900,https://www.zillow.com/homedetails/3912-W-Townley-Ave-Phoenix-AZ-85051/7754475_zpid/,33.5662,-112.14399999999999,2017-03-23,2017-03-23
421990,23791113,"6451 W Sunnyslope Ln, Glendale, AZ 85302 ",85302,0.0002016665067148346,219900,https://www.zillow.com/homedetails/6451-W-Sunnyslope-Ln-Glendale-AZ-85302/7703523_zpid/,33.5702,-112.199,2017-04-06,2017-04-06
8995212,23850078,"13428 N Hawthorn Dr, Sun City, AZ 85351 ",85351,0.0002009602621204373,143700,https://www.zillow.com/homedetails/13428-N-Hawthorn-Dr-Sun-City-AZ-85351/7914831_zpid/,33.6063,-112.274,2017-12-08,2017-12-08
28728,23853035,"3828 W Holly St, Phoenix, AZ 85009 ",85009,0.0002006558227188561,125000,https://www.zillow.com/homedetails/3828-W-Holly-St-Phoenix-AZ-85009/7511366_zpid/,33.4712,-112.14200000000001,2017-12-05,2017-12-05
7380359,22747336,"3611 W Maricopa St, Phoenix, AZ 85009 ",85009,0.00019973257262895285,146600,https://www.zillow.com/homedetails/3611-W-Maricopa-St-Phoenix-AZ-85009/7506371_zpid/,33.4383,-112.137,2017-10-10,2017-10-10
8959401,23821735,"3907 W Palm Ln, Phoenix, AZ 85009 ",85009,0.00019953268858462081,144900,https://www.zillow.com/homedetails/3907-W-Palm-Ln-Phoenix-AZ-85009/7511764_zpid/,33.4696,-112.14399999999999,2017-11-03,2017-11-03
9023241,23843236,"7710 W Cheryl Dr, Peoria, AZ 85345 ",85345,0.00019922754507766766,194900,https://www.zillow.com/homedetails/7710-W-Cheryl-Dr-Peoria-AZ-85345/7682371_zpid/,33.5776,-112.225,2017-11-26,2017-11-26
451684,23853388,"8809 W Windsor Ave, Phoenix, AZ 85037 ",85037,0.0001991675200396372,210000,https://www.zillow.com/homedetails/8809-W-Windsor-Ave-Phoenix-AZ-85037/7473735_zpid/,33.4773,-112.249,2017-12-07,2017-12-07
451748,23853407,"8813 W Windsor Ave, Phoenix, AZ 85037 ",85037,0.0001991413028728549,224500,https://www.zillow.com/homedetails/8813-W-Windsor-Ave-Phoenix-AZ-85037/7473734_zpid/,33.4772,-112.249,2017-12-07,2017-12-07
424652,22494705,"9451 N 65th Ave, Glendale, AZ 85302 ",85302,0.00019889729937368875,179999,https://www.zillow.com/homedetails/9451-N-65th-Ave-Glendale-AZ-85302/7703396_zpid/,33.573,-112.199,2017-08-05,2017-08-05
9019224,23831968,"8005 W Shaw Butte Dr, Peoria, AZ 85345 ",85345,0.00019867757510629323,225500,https://www.zillow.com/homedetails/8005-W-Shaw-Butte-Dr-Peoria-AZ-85345/7680677_zpid/,33.5951,-112.23100000000001,2017-11-14,2017-11-14
9024050,23836151,"9819 W Lancaster Dr, Sun City, AZ 85351 ",85351,0.00019856617586447645,121000,https://www.zillow.com/homedetails/9819-W-Lancaster-Dr-Sun-City-AZ-85351/7915437_zpid/,33.6057,-112.26799999999999,2017-11-15,2017-11-15
388766,22745700,"3835 W Ruth Ave, Phoenix, AZ 85051 ",85051,0.00019776426169775294,162500,https://www.zillow.com/homedetails/3835-W-Ruth-Ave-Phoenix-AZ-85051/7752429_zpid/,33.5625,-112.14200000000001,2017-10-08,2017-10-08
9021583,23810045,"13074 N 100th Ave, Sun City, AZ 85351 ",85351,0.0001974563424585219,120000,https://www.zillow.com/homedetails/13074-N-100th-Ave-Sun-City-AZ-85351/7916152_zpid/,33.6035,-112.274,2017-10-27,2017-10-27
8987564,23814063,"14067 N 35th St, Phoenix, AZ 85032 ",85032,0.00019705380254311764,215000,https://www.zillow.com/homedetails/14067-N-35th-St-Phoenix-AZ-85032/8011904_zpid/,33.6149,-112.007,2017-10-29,2017-10-29
8977481,23842943,"17255 N 55th Dr, Glendale, AZ 85308 ",85308,0.0001970487632856856,249000,https://www.zillow.com/homedetails/17255-N-55th-Dr-Glendale-AZ-85308/8099562_zpid/,33.6425,-112.179,2017-11-28,2017-11-28
7513271,22492993,"9830 W Emberwood Dr, Sun City, AZ 85351 ",85351,0.00019674847741443422,179900,https://www.zillow.com/homedetails/9830-W-Emberwood-Dr-Sun-City-AZ-85351/8096028_zpid/,33.6026,-112.26700000000001,2017-08-04,2017-08-04
696852,23849729,"2930 W Mckinley St, Phoenix, AZ 85009 ",85009,0.00019609945975230714,139500,https://www.zillow.com/homedetails/2930-W-Mckinley-St-Phoenix-AZ-85009/7513671_zpid/,33.4574,-112.12299999999999,2017-12-07,2017-12-07
9023875,23833720,"14623 N 38th St, Phoenix, AZ 85032 ",85032,0.00019603520190941706,244900,https://www.zillow.com/homedetails/14623-N-38th-St-Phoenix-AZ-85032/8013505_zpid/,33.6199,-112.0,2017-11-15,2017-11-15
1863393,23849248,"8223 W Poinsettia Dr, Peoria, AZ 85345 ",85345,0.0001960068634739502,229900,https://www.zillow.com/homedetails/8223-W-Poinsettia-Dr-Peoria-AZ-85345/7680859_zpid/,33.5929,-112.236,2017-12-05,2017-12-05
9025491,23853128,"4050 W Palm Ln, Phoenix, AZ 85009 ",85009,0.0001957359560889031,107500,https://www.zillow.com/homedetails/4050-W-Palm-Ln-Phoenix-AZ-85009/7512656_zpid/,33.4698,-112.147,2017-12-08,2017-12-08
1867405,23806135,"7571 W Comet Ave, Peoria, AZ 85345 ",85345,0.00019565246898815795,212000,https://www.zillow.com/homedetails/7571-W-Comet-Ave-Peoria-AZ-85345/7682477_zpid/,33.5791,-112.22200000000001,2017-10-25,2017-10-25
419794,23850143,"5539 W Hatcher Rd, Glendale, AZ 85302 ",85302,0.00019564162101144445,207999,https://www.zillow.com/homedetails/5539-W-Hatcher-Rd-Glendale-AZ-85302/7734771_zpid/,33.5705,-112.179,2017-12-08,2017-12-08
345243,23841759,"2814 N 34th Dr, Phoenix, AZ 85009 ",85009,0.00019461258341568486,135000,https://www.zillow.com/homedetails/2814-N-34th-Dr-Phoenix-AZ-85009/7510436_zpid/,33.4795,-112.133,2017-11-26,2017-11-26
380897,23810921,"2920 W Townley Ave, Phoenix, AZ 85051 ",85051,0.00019367013468979115,155000,https://www.zillow.com/homedetails/2920-W-Townley-Ave-Phoenix-AZ-85051/7750513_zpid/,33.5653,-112.12200000000001,2017-10-27,2017-10-27
9021304,23756946,"2800 E Danbury Rd, Phoenix, AZ 85032 ",85032,0.00019366242209526623,185000,https://www.zillow.com/homedetails/2800-E-Danbury-Rd-Phoenix-AZ-85032/7999387_zpid/,33.6418,-112.022,2017-10-19,2017-10-19
239765,21170292,"3054 W Acoma Dr, Phoenix, AZ 85053 ",85053,0.00019356580431829478,198500,http://www.zillow.com/homedetails/3054-W-Acoma-Dr-Phoenix-AZ-85053/7942812_zpid/,33.6179,-112.125,2017-03-04,2017-03-04
221325,23840148,"9625 N 2nd St, Phoenix, AZ 85020 ",85020,0.0001932785617439987,168000,https://www.zillow.com/homedetails/9625-N-2nd-St-Phoenix-AZ-85020/7788559_zpid/,33.5743,-112.072,2017-11-21,2017-11-21
417776,23849475,"4855 W North Ln, Glendale, AZ 85302 ",85302,0.00019324187971144497,219500,https://www.zillow.com/homedetails/4855-W-North-Ln-Glendale-AZ-85302/7728637_zpid/,33.5808,-112.164,2017-12-01,2017-12-01
253834,23843096,"3833 W Waltann Ln, Phoenix, AZ 85053 ",85053,0.00019236873812583863,234900,https://www.zillow.com/homedetails/3833-W-Waltann-Ln-Phoenix-AZ-85053/7945786_zpid/,33.6268,-112.14200000000001,2017-11-27,2017-11-27
420007,23850142,"5637 W Onyx Ave, Glendale, AZ 85302 ",85302,0.0001922158896995938,239700,https://www.zillow.com/homedetails/5637-W-Onyx-Ave-Glendale-AZ-85302/7735227_zpid/,33.5769,-112.181,2017-12-08,2017-12-08
9023486,23827318,"9908 W Crosby Cir N, Sun City, AZ 85351 ",85351,0.00019205739148651856,140000,https://www.zillow.com/homedetails/9908-W-Crosby-Cir-N-Sun-City-AZ-85351/7694583_zpid/,33.5838,-112.273,2017-11-13,2017-11-13
345079,22412828,"2742 W Pierce St, Phoenix, AZ 85009 ",85009,0.0001913094643806454,119900,https://www.zillow.com/homedetails/2742-W-Pierce-St-Phoenix-AZ-85009/7513479_zpid/,33.455999999999996,-112.119,2017-07-17,2017-07-17
424532,23814472,"9410 N 49th Ave, Glendale, AZ 85302 ",85302,0.00019117450235676107,221000,https://www.zillow.com/homedetails/9410-N-49th-Ave-Glendale-AZ-85302/7730248_zpid/,33.5719,-112.165,2017-10-28,2017-10-28
256392,23822269,"4228 W Hearn Rd, Phoenix, AZ 85053 ",85053,0.00019112288274517525,229500,https://www.zillow.com/homedetails/4228-W-Hearn-Rd-Phoenix-AZ-85053/7944988_zpid/,33.6147,-112.15100000000001,2017-11-05,2017-11-05
1935131,16185935,"4950 N Miller Rd, Scottsdale, AZ 85251 ",85251,0.00018944624702387915,171000,https://www.zillow.com/homedetails/4950-N-Miller-Rd-Scottsdale-AZ-85251/2116188615_zpid/,33.5086,-111.919,2017-02-10,2017-02-10
221514,23819824,"9826 N 1st St, Phoenix, AZ 85020 ",85020,0.0001892127962181847,229890,https://www.zillow.com/homedetails/9826-N-1st-St-Phoenix-AZ-85020/7788481_zpid/,33.5762,-112.073,2017-11-03,2017-11-03
9023260,23825739,"6913 W Beryl Ave, Peoria, AZ 85345 ",85345,0.00018918498722826277,197000,https://www.zillow.com/homedetails/6913-W-Beryl-Ave-Peoria-AZ-85345/7701889_zpid/,33.5787,-112.208,2017-11-11,2017-11-11
422210,23835261,"6538 W Vogel Ave, Glendale, AZ 85302 ",85302,0.00018912007632636993,209000,https://www.zillow.com/homedetails/6538-W-Vogel-Ave-Glendale-AZ-85302/7703283_zpid/,33.5724,-112.20100000000001,2017-11-16,2017-11-16
415138,23846153,"10020 N 44th Dr, Glendale, AZ 85302 ",85302,0.000188969749814426,219900,https://www.zillow.com/homedetails/10020-N-44th-Dr-Glendale-AZ-85302/7729319_zpid/,33.5772,-112.156,2017-12-01,2017-12-01
326029,23814914,"1734 W Rose Ln, Phoenix, AZ 85015 ",85015,0.0001886406380860353,194900,https://www.zillow.com/homedetails/1734-W-Rose-Ln-Phoenix-AZ-85015/7774223_zpid/,33.5279,-112.09700000000001,2017-10-29,2017-10-29
415104,23776939,"10015 N 45th Ave, Glendale, AZ 85302 ",85302,0.00018817123812216345,192900,https://www.zillow.com/homedetails/10015-N-45th-Ave-Glendale-AZ-85302/7729213_zpid/,33.577,-112.156,2017-03-22,2017-03-22
400713,23840251,"10843 N 45th Ln, Glendale, AZ 85304 ",85304,0.00018797952079215876,220000,https://www.zillow.com/homedetails/10843-N-45th-Ln-Glendale-AZ-85304/7727914_zpid/,33.5861,-112.156,2017-11-21,2017-11-21
8952003,23825700,"11625 N 80th Dr, Peoria, AZ 85345 ",85345,0.0001876639630955735,175000,https://www.zillow.com/homedetails/11625-N-80th-Dr-Peoria-AZ-85345/7681012_zpid/,33.5904,-112.23200000000001,2017-11-11,2017-11-11
256281,23819820,"4218 W Boca Raton Rd, Phoenix, AZ 85053 ",85053,0.00018759724241674918,168000,https://www.zillow.com/homedetails/4218-W-Boca-Raton-Rd-Phoenix-AZ-85053/7945462_zpid/,33.6112,-112.15,2017-11-03,2017-11-03
252997,23822096,"3801 W Tierra Buena Ln, Phoenix, AZ 85053 ",85053,0.00018724470558840946,245000,https://www.zillow.com/homedetails/3801-W-Tierra-Buena-Ln-Phoenix-AZ-85053/7945818_zpid/,33.6286,-112.14,2017-11-06,2017-11-06
326659,22740088,"1824 W Stella Ln, Phoenix, AZ 85015 ",85015,0.00018691135472367342,238900,https://www.zillow.com/homedetails/1824-W-Stella-Ln-Phoenix-AZ-85015/7774085_zpid/,33.5301,-112.098,2017-10-05,2017-10-05
9019112,23821748,"4426 W Vogel Ave, Glendale, AZ 85302 ",85302,0.00018685454207961456,219900,https://www.zillow.com/homedetails/4426-W-Vogel-Ave-Glendale-AZ-85302/7729451_zpid/,33.5722,-112.155,2017-11-05,2017-11-05
416034,23808888,"4413 W Mission Ln, Glendale, AZ 85302 ",85302,0.0001859800773077187,184500,https://www.zillow.com/homedetails/4413-W-Mission-Ln-Glendale-AZ-85302/7729654_zpid/,33.5689,-112.155,2017-10-26,2017-10-26
9022124,23839846,"8533 W Ruth Ave, Peoria, AZ 85345 ",85345,0.00018552548315324362,200000,https://www.zillow.com/homedetails/8533-W-Ruth-Ave-Peoria-AZ-85345/7683557_zpid/,33.5621,-112.244,2017-11-21,2017-11-21
8946570,21960648,"7614 W Turquoise Ave, Peoria, AZ 85345 ",85345,0.00018498087033573353,219000,https://www.zillow.com/homedetails/7614-W-Turquoise-Ave-Peoria-AZ-85345/7682180_zpid/,33.5747,-112.223,2017-05-10,2017-05-10
9021737,23842822,"10136 N 73RD Ave, Peoria, AZ 85345 ",85345,0.00018464953865216167,208000,https://www.zillow.com/homedetails/10136-N-73rd-Ave-Peoria-AZ-85345/92353333_zpid/,33.5777,-112.215,2017-11-28,2017-11-28
325345,23781077,"1710 W Bethany Home Rd, Phoenix, AZ 85015 ",85015,0.00018342883292780845,219000,https://www.zillow.com/homedetails/1710-W-Bethany-Home-Rd-Phoenix-AZ-85015/7774319_zpid/,33.5243,-112.096,2017-03-13,2017-03-13
384150,23834117,"3417 W Diana Ave, Phoenix, AZ 85051 ",85051,0.00018318767993883068,179900,https://www.zillow.com/homedetails/3417-W-Diana-Ave-Phoenix-AZ-85051/7753849_zpid/,33.5627,-112.133,2017-11-13,2017-11-13
9019399,23759454,"15032 N 26th St, Phoenix, AZ 85032 ",85032,0.00018204969351811549,240000,https://www.zillow.com/homedetails/15032-N-26th-St-Phoenix-AZ-85032/8013907_zpid/,33.6237,-112.027,2017-10-20,2017-10-20
968057,23816718,"510 N Los Feliz Dr, Chandler, AZ 85226 ",85226,0.00018163274647994636,199900,https://www.zillow.com/homedetails/510-N-Los-Feliz-Dr-Chandler-AZ-85226/8154966_zpid/,33.3119,-111.905,2017-11-01,2017-11-01
416225,23831022,"4436 W Palo Verde Ave, Glendale, AZ 85302 ",85302,0.00018145110973731056,219000,https://www.zillow.com/homedetails/4436-W-Palo-Verde-Ave-Glendale-AZ-85302/7729529_zpid/,33.5732,-112.156,2017-11-10,2017-11-10
388115,23831776,"3814 W Davidson Ln, Phoenix, AZ 85051 ",85051,0.00018011604497064008,192000,https://www.zillow.com/homedetails/3814-W-Davidson-Ln-Phoenix-AZ-85051/7746767_zpid/,33.5701,-112.141,2017-11-07,2017-11-07
8959309,23803780,"4201 W Mission Ln, Phoenix, AZ 85051 ",85051,0.0001793516788438939,219000,https://www.zillow.com/homedetails/4201-W-Mission-Ln-Phoenix-AZ-85051/7746195_zpid/,33.5703,-112.149,2017-10-19,2017-10-19
455957,23842692,"4810 N 57th Dr, Phoenix, AZ 85031 ",85031,0.00017896065101880056,162800,https://www.zillow.com/homedetails/4810-N-57th-Dr-Phoenix-AZ-85031/7713459_zpid/,33.5087,-112.184,2017-11-28,2017-11-28
9023831,23848643,"4412 W Morrow Dr, Glendale, AZ 85308 ",85308,0.00017839094995788192,215000,https://www.zillow.com/homedetails/4412-W-Morrow-Dr-Glendale-AZ-85308/7938771_zpid/,33.6573,-112.155,2017-12-06,2017-12-06
9021740,23846180,"11119 N 82nd Dr, Peoria, AZ 85345 ",85345,0.00017802513352575266,194900,https://www.zillow.com/homedetails/11119-N-82nd-Dr-Peoria-AZ-85345/7681327_zpid/,33.5851,-112.236,2017-12-01,2017-12-01
21687,23821796,"8810 N 6th Pl, Phoenix, AZ 85020 ",85020,0.00017796134322410333,200000,https://www.zillow.com/homedetails/8810-N-6th-Pl-Phoenix-AZ-85020/7793867_zpid/,33.5646,-112.066,2017-11-03,2017-11-03
8964694,23800320,"9084 N 80th Ln, Peoria, AZ 85345 ",85345,0.00017733761660904826,170000,https://www.zillow.com/homedetails/9084-N-80th-Ln-Peoria-AZ-85345/50187199_zpid/,33.5677,-112.23299999999999,2017-08-01,2017-08-01
454952,23752844,"4630 W Indianola Ave, Phoenix, AZ 85031 ",85031,0.00017719907459650853,159000,https://www.zillow.com/homedetails/4630-W-Indianola-Ave-Phoenix-AZ-85031/7508079_zpid/,33.4927,-112.15899999999999,2017-10-15,2017-10-15
457725,23828275,"5216 W Mulberry Dr, Phoenix, AZ 85031 ",85031,0.00017713804031182224,175000,https://www.zillow.com/homedetails/5216-W-Mulberry-Dr-Phoenix-AZ-85031/7497059_zpid/,33.4869,-112.17200000000001,2017-11-10,2017-11-10
390742,23821739,"4033 W Eva St, Phoenix, AZ 85051 ",85051,0.0001770259179898508,200000,https://www.zillow.com/homedetails/4033-W-Eva-St-Phoenix-AZ-85051/7746522_zpid/,33.5702,-112.146,2017-11-03,2017-11-03
326650,23796634,"1822 W Turney Ave, Phoenix, AZ 85015 ",85015,0.00017696595680999732,199900,https://www.zillow.com/homedetails/1822-W-Turney-Ave-Phoenix-AZ-85015/7772298_zpid/,33.5007,-112.09899999999999,2017-10-23,2017-10-23
224188,23754064,"14213 N 35th Dr, Phoenix, AZ 85053 ",85053,0.0001769464685525198,200000,https://www.zillow.com/homedetails/14213-N-35th-Dr-Phoenix-AZ-85053/7944539_zpid/,33.6154,-112.135,2017-10-16,2017-10-16
8976951,23840656,"8540 W Cherry Hills Dr, Peoria, AZ 85345 ",85345,0.00017690145393902301,233900,https://www.zillow.com/homedetails/8540-W-Cherry-Hills-Dr-Peoria-AZ-85345/7685498_zpid/,33.5927,-112.243,2017-11-21,2017-11-21
9018977,23810709,"4415 W Keating Cir, Glendale, AZ 85308 ",85308,0.00017651695721200323,235000,https://www.zillow.com/homedetails/4415-W-Keating-Cir-Glendale-AZ-85308/7950373_zpid/,33.6423,-112.154,2017-10-26,2017-10-26
389263,23841981,"3907 W Davidson Ln, Phoenix, AZ 85051 ",85051,0.0001763302516588015,244900,https://www.zillow.com/homedetails/3907-W-Davidson-Ln-Phoenix-AZ-85051/7746545_zpid/,33.5698,-112.14299999999999,2017-11-25,2017-11-25
8965018,22598974,"3850 E Friess Dr, Phoenix, AZ 85032 ",85032,0.00017622808075037504,239900,https://www.zillow.com/homedetails/3850-E-Friess-Dr-Phoenix-AZ-85032/8012529_zpid/,33.6141,-111.99600000000001,2017-08-28,2017-08-28
8454416,23849518,"10609 N 81st Ave, Peoria, AZ 85345 ",85345,0.00017599787037047153,129900,https://www.zillow.com/homedetails/10609-N-81st-Ave-Peoria-AZ-85345/81966276_zpid/,33.5813,-112.23299999999999,2017-12-07,2017-12-07
828736,22708030,"3602 W Pasadena Ave, Phoenix, AZ 85019 ",85019,0.00017599307577087744,197500,https://www.zillow.com/homedetails/3602-W-Pasadena-Ave-Phoenix-AZ-85019/7719981_zpid/,33.5109,-112.137,2017-09-20,2017-09-20
8989092,22502911,"2617 E Waltann Ln, Phoenix, AZ 85032 ",85032,0.00017558442130113786,150000,https://www.zillow.com/homedetails/2617-E-Waltann-Ln-Phoenix-AZ-85032/8007629_zpid/,33.6283,-112.02600000000001,2017-08-12,2017-08-12
391111,23845510,"4056 W Camino Acequia, Phoenix, AZ 85051 ",85051,0.00017545456016995634,239500,https://www.zillow.com/homedetails/4056-W-Camino-Acequia-Phoenix-AZ-85051/7745951_zpid/,33.5776,-112.145,2017-11-29,2017-11-29
8988800,23830205,"4343 E Bluefield Ave, Phoenix, AZ 85032 ",85032,0.00017544508643330418,214950,https://www.zillow.com/homedetails/4343-E-Bluefield-Ave-Phoenix-AZ-85032/8017922_zpid/,33.6531,-111.988,2017-11-09,2017-11-09
246567,22745687,"3407 W Port Au Prince Ln, Phoenix, AZ 85053 ",85053,0.0001753681516213684,175000,https://www.zillow.com/homedetails/3407-W-Port-Au-Prince-Ln-Phoenix-AZ-85053/7943671_zpid/,33.6229,-112.132,2017-10-09,2017-10-09
7449241,23819586,"11935 N 68th Ave, Peoria, AZ 85345 ",85345,0.00017471033109828763,245000,https://www.zillow.com/homedetails/11935-N-68th-Ave-Peoria-AZ-85345/7700139_zpid/,33.594,-112.204,2017-11-03,2017-11-03
9022548,23847697,"6803 W Cherry Hills Dr, Peoria, AZ 85345 ",85345,0.00017413579397844813,220000,https://www.zillow.com/homedetails/6803-W-Cherry-Hills-Dr-Peoria-AZ-85345/7700208_zpid/,33.5936,-112.205,2017-12-04,2017-12-04
9021305,23830839,"3713 W Eva St, Phoenix, AZ 85051 ",85051,0.000174068313848114,218400,https://www.zillow.com/homedetails/3713-W-Eva-St-Phoenix-AZ-85051/7746745_zpid/,33.5705,-112.139,2017-11-14,2017-11-14
9023830,23833574,"4019 W Woodridge Dr, Glendale, AZ 85308 ",85308,0.00017392002194350885,217500,https://www.zillow.com/homedetails/4019-W-Woodridge-Dr-Glendale-AZ-85308/7946693_zpid/,33.64,-112.146,2017-11-11,2017-11-11
342222,23780659,"1648 N 38th Dr, Phoenix, AZ 85009 ",85009,0.00017361174327253006,129900,https://www.zillow.com/homedetails/1648-N-38th-Dr-Phoenix-AZ-85009/7511922_zpid/,33.4675,-112.14200000000001,2017-04-22,2017-04-22
445578,23843131,"4653 N 99th Dr, Phoenix, AZ 85037 ",85037,0.00017351756665733953,200000,https://www.zillow.com/homedetails/4653-N-99th-Dr-Phoenix-AZ-85037/7484444_zpid/,33.5037,-112.273,2017-11-21,2017-11-21
8996505,23849755,"3601 W Wagoner Rd, Glendale, AZ 85308 ",85308,0.00017335531684955363,244000,https://www.zillow.com/homedetails/3601-W-Wagoner-Rd-Glendale-AZ-85308/7947927_zpid/,33.6528,-112.13600000000001,2017-12-07,2017-12-07
9024610,23847385,"18807 N 43rd Dr, Glendale, AZ 85308 ",85308,0.00017335517590848912,235000,https://www.zillow.com/homedetails/18807-N-43rd-Dr-Glendale-AZ-85308/7938741_zpid/,33.6574,-112.15299999999999,2017-11-30,2017-11-30
8988082,23849229,"6914 W Sierra St, Peoria, AZ 85345 ",85345,0.00017329547905333448,198900,https://www.zillow.com/homedetails/6914-W-Sierra-St-Peoria-AZ-85345/7699742_zpid/,33.5904,-112.208,2017-12-05,2017-12-05
229518,23847356,"16414 N 30th Dr, Phoenix, AZ 85053 ",85053,0.00017276715390481597,233900,https://www.zillow.com/homedetails/16414-N-30th-Dr-Phoenix-AZ-85053/7954069_zpid/,33.6359,-112.125,2017-12-01,2017-12-01
330563,23849814,"4505 N 15th Ave, Phoenix, AZ 85015 ",85015,0.00017157836063486879,199900,https://www.zillow.com/homedetails/4505-N-15th-Ave-Phoenix-AZ-85015/7771428_zpid/,33.5026,-112.09100000000001,2017-12-05,2017-12-05
8996157,23841902,"11202 N 69th Dr, Peoria, AZ 85345 ",85345,0.00017126298535554427,208000,https://www.zillow.com/homedetails/11202-N-69th-Dr-Peoria-AZ-85345/7699586_zpid/,33.5869,-112.208,2017-11-24,2017-11-24
9023130,23824201,"7101 W Paradise Dr, Peoria, AZ 85345 ",85345,0.0001709662893053946,199999,https://www.zillow.com/homedetails/7101-W-Paradise-Dr-Peoria-AZ-85345/7700652_zpid/,33.5947,-112.212,2017-11-07,2017-11-07
249764,23834130,"3554 W Hearn Rd, Phoenix, AZ 85053 ",85053,0.0001706820352103593,249900,https://www.zillow.com/homedetails/3554-W-Hearn-Rd-Phoenix-AZ-85053/7944500_zpid/,33.6149,-112.13600000000001,2017-11-10,2017-11-10
7409762,23824228,"8709 W Diana Ave, Peoria, AZ 85345 ",85345,0.0001704724879618527,244950,https://www.zillow.com/homedetails/8709-W-Diana-Ave-Peoria-AZ-85345/7683828_zpid/,33.5611,-112.24700000000001,2017-11-07,2017-11-07
409111,23815119,"6540 W Phelps Rd, Glendale, AZ 85306 ",85306,0.00016969488254549463,209900,https://www.zillow.com/homedetails/6540-W-Phelps-Rd-Glendale-AZ-85306/7901955_zpid/,33.6361,-112.20100000000001,2017-10-30,2017-10-30
8945979,23814510,"9605 W Campana Dr, Sun City, AZ 85351 ",85351,0.00016967728840531883,194300,https://www.zillow.com/homedetails/9605-W-Campana-Dr-Sun-City-AZ-85351/7905011_zpid/,33.6372,-112.26700000000001,2017-10-30,2017-10-30
973060,23846554,"600 N Aspen Dr, Chandler, AZ 85226 ",85226,0.00016953412910118357,242000,https://www.zillow.com/homedetails/600-N-Aspen-Dr-Chandler-AZ-85226/8262023_zpid/,33.3128,-111.945,2017-11-29,2017-11-29
9023484,23827307,"9501 W Hidden Valley Cir N, Sun City, AZ 85351 ",85351,0.00016952401768367115,200000,https://www.zillow.com/homedetails/9501-W-Hidden-Valley-Cir-N-Sun-City-AZ-85351/7904887_zpid/,33.6359,-112.264,2017-11-09,2017-11-09
8988163,23818314,"2650 E Hartford Ave, Phoenix, AZ 85032 ",85032,0.0001693429099807835,249500,https://www.zillow.com/homedetails/2650-E-Hartford-Ave-Phoenix-AZ-85032/59266670_zpid/,33.6425,-112.025,2017-11-02,2017-11-02
8997758,23843208,"7132 W Cholla St, Peoria, AZ 85345 ",85345,0.0001690859555090472,239000,https://www.zillow.com/homedetails/7132-W-Cholla-St-Peoria-AZ-85345/7700503_zpid/,33.5888,-112.213,2017-11-17,2017-11-17
8975652,23829621,"18232 N 26th Pl, Phoenix, AZ 85032 ",85032,0.00016902019410440259,190000,https://www.zillow.com/homedetails/18232-N-26th-Pl-Phoenix-AZ-85032/8000048_zpid/,33.6526,-112.025,2017-11-11,2017-11-11
326266,22680508,"1747 W Colter St, Phoenix, AZ 85015 ",85015,0.0001686496575476902,249900,https://www.zillow.com/homedetails/1747-W-Colter-St-Phoenix-AZ-85015/7775943_zpid/,33.5127,-112.098,2017-09-14,2017-09-14
9022171,23837829,"16402 N Orchard Hills Dr, Sun City, AZ 85351 ",85351,0.00016842163140316267,212000,https://www.zillow.com/homedetails/16402-N-Orchard-Hills-Dr-Sun-City-AZ-85351/7923378_zpid/,33.6328,-112.257,2017-11-20,2017-11-20
334479,23844396,"1608 W North Ln, Phoenix, AZ 85021 ",85021,0.00016805186553839465,174900,https://www.zillow.com/homedetails/1608-W-North-Ln-Phoenix-AZ-85021/7782113_zpid/,33.5815,-112.094,2017-11-30,2017-11-30
9023935,23834938,"18241 N 31st St, Phoenix, AZ 85032 ",85032,0.0001678111788564754,225000,https://www.zillow.com/homedetails/18241-N-31st-St-Phoenix-AZ-85032/7999264_zpid/,33.6531,-112.016,2017-11-17,2017-11-17
8976427,23852994,"3836 W Vernon Ave, Phoenix, AZ 85009 ",85009,0.00016751402601575312,169900,https://www.zillow.com/homedetails/3836-W-Vernon-Ave-Phoenix-AZ-85009/7510560_zpid/,33.4744,-112.14200000000001,2017-11-20,2017-11-20
1166,23837694,"8039 N 29th Ave, Phoenix, AZ 85051 ",85051,0.00016732359794214535,180000,https://www.zillow.com/homedetails/8039-N-29th-Ave-Phoenix-AZ-85051/7751052_zpid/,33.5545,-112.12100000000001,2017-11-20,2017-11-20
959579,23853795,"3734 W Ivanhoe St, Chandler, AZ 85226 ",85226,0.00016703147233413485,226500,https://www.zillow.com/homedetails/3734-W-Ivanhoe-St-Chandler-AZ-85226/8155210_zpid/,33.3161,-111.90700000000001,2017-12-12,2017-12-12
9022649,23849873,"7133 W Mountain View Rd, Peoria, AZ 85345 ",85345,0.00016667793621259598,209800,https://www.zillow.com/homedetails/7133-W-Mountain-View-Rd-Peoria-AZ-85345/7702397_zpid/,33.5743,-112.213,2017-12-04,2017-12-04
226936,23833915,"15039 N 30th Dr, Phoenix, AZ 85053 ",85053,0.0001666750761836281,187999,https://www.zillow.com/homedetails/15039-N-30th-Dr-Phoenix-AZ-85053/7952779_zpid/,33.6227,-112.124,2017-11-09,2017-11-09
227559,23843808,"15221 N 28th Dr, Phoenix, AZ 85053 ",85053,0.00016663402547138686,209900,https://www.zillow.com/homedetails/15221-N-28th-Dr-Phoenix-AZ-85053/7942595_zpid/,33.6243,-112.119,2017-11-29,2017-11-29
236870,23834077,"2935 W Port Royale Ln, Phoenix, AZ 85053 ",85053,0.0001663144444137614,224999,https://www.zillow.com/homedetails/2935-W-Port-Royale-Ln-Phoenix-AZ-85053/7952708_zpid/,33.6219,-112.12200000000001,2017-11-14,2017-11-14
8456513,23825748,"7372 W Mescal St, Peoria, AZ 85345 ",85345,0.0001660834998702767,199880,https://www.zillow.com/homedetails/7372-W-Mescal-St-Peoria-AZ-85345/7700861_zpid/,33.5857,-112.21799999999999,2017-11-11,2017-11-11
7381600,22218425,"4317 N 72nd Dr, Phoenix, AZ 85033 ",85033,0.00016563533014887064,190000,https://www.zillow.com/homedetails/4317-N-72nd-Dr-Phoenix-AZ-85033/7711467_zpid/,33.4989,-112.214,2017-06-17,2017-06-17
9020195,23820290,"8638 W Laurel Ln, Peoria, AZ 85345 ",85345,0.00016559979132126668,247700,https://www.zillow.com/homedetails/8638-W-Laurel-Ln-Peoria-AZ-85345/7685468_zpid/,33.5934,-112.245,2017-11-03,2017-11-03
1870092,23845845,"7450 W Sahuaro Dr, Peoria, AZ 85345 ",85345,0.0001652507908278115,179000,https://www.zillow.com/homedetails/7450-W-Sahuaro-Dr-Peoria-AZ-85345/7705671_zpid/,33.5838,-112.22,2017-11-28,2017-11-28
7450963,23779216,"13854 N 91st Dr, Peoria, AZ 85381 ",85381,0.0001645977675424001,225000,https://www.zillow.com/homedetails/13854-N-91st-Dr-Peoria-AZ-85381/7908457_zpid/,33.6103,-112.256,2017-03-16,2017-03-16
8969477,23756066,"9324 W Mountain View Rd, Peoria, AZ 85345 ",85345,0.000164397306627282,214000,https://www.zillow.com/homedetails/9324-W-Mountain-View-Rd-Peoria-AZ-85345/7697441_zpid/,33.5733,-112.26100000000001,2017-10-18,2017-10-18
326637,23840748,"1821 W Heatherbrae Dr, Phoenix, AZ 85015 ",85015,0.0001634999725180206,243900,https://www.zillow.com/homedetails/1821-W-Heatherbrae-Dr-Phoenix-AZ-85015/7772229_zpid/,33.498000000000005,-112.09899999999999,2017-11-23,2017-11-23
9023267,23849910,"8546 W Caribbean Ln, Peoria, AZ 85381 ",85381,0.00016336264398312153,228000,https://www.zillow.com/homedetails/8546-W-Caribbean-Ln-Peoria-AZ-85381/8103097_zpid/,33.624,-112.245,2017-12-04,2017-12-04
8950822,21960213,"7406 W Eva St, Peoria, AZ 85345 ",85345,0.00016326734180987373,185000,https://www.zillow.com/homedetails/7406-W-Eva-St-Peoria-AZ-85345/7702481_zpid/,33.5683,-112.21799999999999,2017-05-17,2017-05-17
409836,23788987,"4544 W Cholla St, Glendale, AZ 85304 ",85304,0.00016311501384903655,230000,https://www.zillow.com/homedetails/4544-W-Cholla-St-Glendale-AZ-85304/7727053_zpid/,33.5891,-112.15700000000001,2017-04-20,2017-04-20
217475,23849198,"520 E Orchid Ln, Phoenix, AZ 85020 ",85020,0.00016281608029535262,219900,https://www.zillow.com/homedetails/520-E-Orchid-Ln-Phoenix-AZ-85020/7793796_zpid/,33.562,-112.06700000000001,2017-12-02,2017-12-02
9022513,23817741,"14402 N Lakeforest Dr, Sun City, AZ 85351 ",85351,0.00016251485141440764,167900,https://www.zillow.com/homedetails/14402-N-Lakeforest-Dr-Sun-City-AZ-85351/7922321_zpid/,33.6143,-112.26700000000001,2017-11-01,2017-11-01
9022514,23840681,"9202 W Arrowhead Dr, Sun City, AZ 85351 ",85351,0.0001624162496006463,147250,https://www.zillow.com/homedetails/9202-W-Arrowhead-Dr-Sun-City-AZ-85351/7908176_zpid/,33.6104,-112.258,2017-11-21,2017-11-21
