property_id,transaction_id,address,zipcode,ypred,list,url,lat,long,date_listed,transaction_date
8987246,23839497,"5830 E Calle Mexico, Guadalupe, AZ 85283 ",85283,0.2504984631271509,210000,https://www.zillow.com/homedetails/5830-E-Calle-Mexico-Guadalupe-AZ-85283/8138359_zpid/,33.366,-111.959,2017-11-09,2017-11-09
8980482,23829796,"24 N 29th St, Phoenix, AZ 85034 ",85034,0.03167738826009249,174900,https://www.zillow.com/homedetails/24-N-29th-St-Phoenix-AZ-85034/7544799_zpid/,33.4489,-112.01899999999999,2017-11-13,2017-11-13
9021461,23758479,"2442 E Adams St, Phoenix, AZ 85034 ",85034,0.030085347045089965,175000,https://www.zillow.com/homedetails/2442-E-Adams-St-Phoenix-AZ-85034/7544716_zpid/,33.4495,-112.02799999999999,2017-10-20,2017-10-20
8967033,23805180,"9409 S Calle Maravilla, Guadalupe, AZ 85283 ",85283,0.016530242016332602,119997,https://www.zillow.com/homedetails/9409-S-Calle-Maravilla-Guadalupe-AZ-85283/8143091_zpid/,33.3614,-111.96600000000001,2017-10-20,2017-10-20
9024040,23836165,"2215 S 99th Ln, Tolleson, AZ 85353 ",85353,0.013114709572477143,227000,https://www.zillow.com/homedetails/2215-S-99th-Ln-Tolleson-AZ-85353/95076703_zpid/,33.4261,-112.273,2017-11-18,2017-11-18
350177,22541766,"6408 W Cordes Rd, Phoenix, AZ 85043 ",85043,0.0008637455412791135,169900,https://www.zillow.com/homedetails/6408-W-Cordes-Rd-Phoenix-AZ-85043/49641248_zpid/,33.4216,-112.197,2017-08-21,2017-08-21
307196,23783098,"215 E Mckinley St STE 202, Phoenix, AZ 85004 ",85004,6.1066257180184835e-06,225900,https://www.zillow.com/homedetails/215-E-Mckinley-St-STE-202-Phoenix-AZ-85004/81957074_zpid/,33.4563,-112.07,2017-03-16,2017-03-16
10732,23838876,"215 E Mckinley St STE 407, Phoenix, AZ 85004 ",85004,4.009326063178471e-06,245000,https://www.zillow.com/homedetails/215-E-Mckinley-St-STE-407-Phoenix-AZ-85004/81957084_zpid/,33.4563,-112.07,2017-11-09,2017-11-09
306980,23827179,"15 E Tonto St, Phoenix, AZ 85004 ",85004,3.7346734007838257e-06,130000,https://www.zillow.com/homedetails/15-E-Tonto-St-Phoenix-AZ-85004/7522944_zpid/,33.4379,-112.073,2017-11-11,2017-11-11
344279,23649625,"2322 W Papago St, Phoenix, AZ 85009 ",85009,5.573764369820899e-07,125000,https://www.zillow.com/homedetails/2322-W-Papago-St-Phoenix-AZ-85009/81972695_zpid/,33.4343,-112.11,2017-10-14,2017-10-14
8982670,23753363,"1934 N Iowa St, Chandler, AZ 85225 ",85225,2.3730624719519566e-07,215500,https://www.zillow.com/homedetails/1934-N-Iowa-St-Chandler-AZ-85225/8182675_zpid/,33.3331,-111.85,2017-10-13,2017-10-13
9003553,22620794,"1140 S 10th St, Phoenix, AZ 85034 ",85034,1.2099931190201513e-07,90000,https://www.zillow.com/homedetails/1140-S-10th-St-Phoenix-AZ-85034/7528177_zpid/,33.4354,-112.061,2017-09-04,2017-09-04
1672149,23819978,"9414 W Manzanita Dr, Sun City, AZ 85373 ",85373,3.13956444966461e-08,235000,https://www.zillow.com/homedetails/9414-W-Manzanita-Dr-Sun-City-AZ-85373/7897740_zpid/,33.6506,-112.26299999999999,2017-11-03,2017-11-03
344420,17868383,"2408 W Mohave St, Phoenix, AZ 85009 ",85009,3.0161790943615345e-08,120000,https://www.zillow.com/homedetails/2408-W-Mohave-St-Phoenix-AZ-85009/94639214_zpid/,33.4316,-112.111,2017-02-16,2017-02-16
7515382,22616806,"3843 W Grant St, Phoenix, AZ 85009 ",85009,2.1367508734760052e-08,114900,https://www.zillow.com/homedetails/3843-W-Grant-St-Phoenix-AZ-85009/7506219_zpid/,33.4411,-112.14299999999999,2017-07-13,2017-07-13
214991,23831428,"1339 E Mercer Ln, Phoenix, AZ 85020 ",85020,1.6062955806351224e-08,205000,https://www.zillow.com/homedetails/1339-E-Mercer-Ln-Phoenix-AZ-85020/7785505_zpid/,33.585,-112.053,2017-11-14,2017-11-14
534678,23816250,"1122 N 26th St, Phoenix, AZ 85008 ",85008,1.3173581499923097e-08,119000,https://www.zillow.com/homedetails/1122-N-26th-St-Phoenix-AZ-85008/7545659_zpid/,33.4613,-112.02600000000001,2017-10-31,2017-10-31
24879,23824447,"418 N 32nd Pl, Phoenix, AZ 85008 ",85008,9.40392316970156e-09,165000,https://www.zillow.com/homedetails/418-N-32nd-Pl-Phoenix-AZ-85008/7544574_zpid/,33.4537,-112.01299999999999,2017-11-09,2017-11-09
553645,23781775,"1901 N 44th St, Phoenix, AZ 85008 ",85008,8.62095242975413e-09,189000,https://www.zillow.com/homedetails/1901-N-44th-St-Phoenix-AZ-85008/7561032_zpid/,33.4681,-111.98700000000001,2017-04-18,2017-04-18
139696,23836139,"9423 W Willowbrook Dr, Sun City, AZ 85373 ",85373,8.558310960139221e-09,209900,https://www.zillow.com/homedetails/9423-W-Willowbrook-Dr-Sun-City-AZ-85373/7897827_zpid/,33.6478,-112.262,2017-11-16,2017-11-16
553660,23816828,"1901 N 46th St, Phoenix, AZ 85008 ",85008,8.524207953608013e-09,232900,https://www.zillow.com/homedetails/1901-N-46th-St-Phoenix-AZ-85008/7561140_zpid/,33.4684,-111.98200000000001,2017-11-01,2017-11-01
8986493,22488468,"1714 E Madison St, Phoenix, AZ 85034 ",85034,8.469830104803077e-09,190000,https://www.zillow.com/homedetails/1714-E-Madison-St-Phoenix-AZ-85034/7527760_zpid/,33.4464,-112.045,2017-08-07,2017-08-07
1672536,23836141,"9559 W Spanish Moss Ln, Sun City, AZ 85373 ",85373,8.342592322858545e-09,235000,https://www.zillow.com/homedetails/9559-W-Spanish-Moss-Ln-Sun-City-AZ-85373/7897685_zpid/,33.6505,-112.266,2017-11-17,2017-11-17
1090459,23810641,"631 W Caroline Ln, Chandler, AZ 85225 ",85225,8.267259845480899e-09,230000,https://www.zillow.com/homedetails/631-W-Caroline-Ln-Chandler-AZ-85225/8183658_zpid/,33.3304,-111.851,2017-10-27,2017-10-27
214915,23825402,"1336 E Becker Ln, Phoenix, AZ 85020 ",85020,8.05467265710214e-09,229000,https://www.zillow.com/homedetails/1336-E-Becker-Ln-Phoenix-AZ-85020/7785603_zpid/,33.5832,-112.053,2017-11-13,2017-11-13
9012359,23832092,"1994 N Iowa St, Chandler, AZ 85225 ",85225,6.9896869810687735e-09,224000,https://www.zillow.com/homedetails/1994-N-Iowa-St-Chandler-AZ-85225/8182689_zpid/,33.3344,-111.85,2017-11-10,2017-11-10
1665023,22711430,"17403 N Hitching Post Dr, Sun City, AZ 85373 ",85373,6.696301060954464e-09,243000,https://www.zillow.com/homedetails/17403-N-Hitching-Post-Dr-Sun-City-AZ-85373/7898070_zpid/,33.6412,-112.266,2017-09-22,2017-09-22
1095696,23832151,"856 W Monterey St, Chandler, AZ 85225 ",85225,6.475875368389469e-09,245900,https://www.zillow.com/homedetails/856-W-Monterey-St-Chandler-AZ-85225/8186284_zpid/,33.315,-111.85700000000001,2017-11-13,2017-11-13
8958175,23815287,"2427 N 20th Dr, Phoenix, AZ 85009 ",85009,5.8271355715783554e-09,214900,https://www.zillow.com/homedetails/2427-N-20th-Dr-Phoenix-AZ-85009/7519514_zpid/,33.476,-112.103,2017-10-30,2017-10-30
557587,23819897,"2638 W Madison St, Phoenix, AZ 85009 ",85009,5.656046603608206e-09,163500,https://www.zillow.com/homedetails/2638-W-Madison-St-Phoenix-AZ-85009/7515114_zpid/,33.4463,-112.117,2017-11-03,2017-11-03
8962037,22706185,"3731 E Taylor St, Phoenix, AZ 85008 ",85008,5.486700598261797e-09,109900,https://www.zillow.com/homedetails/3731-E-Taylor-St-Phoenix-AZ-85008/7544415_zpid/,33.4531,-112.001,2017-09-22,2017-09-22
1866845,23763851,"1825 W Ray Rd, Chandler, AZ 85224 ",85224,5.3769342527563135e-09,179000,http://www.zillow.com/homedetails/1825-W-Ray-Rd-Chandler-AZ-85224/2109892120_zpid/,33.318000000000005,-111.87299999999999,2017-01-27,2017-01-27
1093584,23758033,"781 W Del Rio St, Chandler, AZ 85225 ",85225,4.699577922450697e-09,249900,https://www.zillow.com/homedetails/781-W-Del-Rio-St-Chandler-AZ-85225/8186554_zpid/,33.3158,-111.854,2017-10-20,2017-10-20
534105,22687097,"1902 W Palm Ln, Phoenix, AZ 85009 ",85009,4.555021487772928e-09,205000,https://www.zillow.com/homedetails/1902-W-Palm-Ln-Phoenix-AZ-85009/7519867_zpid/,33.4693,-112.1,2017-09-17,2017-09-17
217475,23512287,"520 E Orchid Ln, Phoenix, AZ 85020 ",85020,4.376942723765862e-09,229900,https://www.zillow.com/homedetails/520-E-Orchid-Ln-Phoenix-AZ-85020/7793796_zpid/,33.562,-112.06700000000001,2017-10-10,2017-10-10
215717,23823649,"1509 E Mountain View Rd, Phoenix, AZ 85020 ",85020,4.247296267563956e-09,205000,https://www.zillow.com/homedetails/1509-E-Mountain-View-Rd-Phoenix-AZ-85020/7786813_zpid/,33.5746,-112.05,2017-11-08,2017-11-08
220511,22736827,"8820 N 6th St, Phoenix, AZ 85020 ",85020,4.176177117828633e-09,162500,https://www.zillow.com/homedetails/8820-N-6th-St-Phoenix-AZ-85020/7793853_zpid/,33.5648,-112.06700000000001,2017-07-28,2017-07-28
23522,23512121,"1903 W 2nd St, Mesa, AZ 85201 ",85201,4.142696877426963e-09,174900,https://www.zillow.com/homedetails/1903-W-2nd-St-Mesa-AZ-85201/7612268_zpid/,33.4195,-111.87299999999999,2017-10-08,2017-10-08
221019,23830912,"9232 N 14th St, Phoenix, AZ 85020 ",85020,4.137986790525512e-09,149900,https://www.zillow.com/homedetails/9232-N-14th-St-Phoenix-AZ-85020/7787085_zpid/,33.5706,-112.053,2017-11-09,2017-11-09
1935131,16185935,"4950 N Miller Rd, Scottsdale, AZ 85251 ",85251,3.988425021493908e-09,171000,https://www.zillow.com/homedetails/4950-N-Miller-Rd-Scottsdale-AZ-85251/2116188615_zpid/,33.5086,-111.919,2017-02-10,2017-02-10
1075269,23840385,"1803 N Cheri Lynn Dr, Chandler, AZ 85225 ",85225,3.7221050445840926e-09,234000,https://www.zillow.com/homedetails/1803-N-Cheri-Lynn-Dr-Chandler-AZ-85225/8183501_zpid/,33.3321,-111.853,2017-11-22,2017-11-22
9019709,23816778,"2325 W Adams St, Phoenix, AZ 85009 ",85009,3.6727854100890755e-09,150000,https://www.zillow.com/homedetails/2325-W-Adams-St-Phoenix-AZ-85009/7515215_zpid/,33.4489,-112.11,2017-11-01,2017-11-01
221510,23818673,"9825 N 2nd St, Phoenix, AZ 85020 ",85020,3.5805750614816058e-09,225000,https://www.zillow.com/homedetails/9825-N-2nd-St-Phoenix-AZ-85020/7788442_zpid/,33.5762,-112.072,2017-11-02,2017-11-02
342845,23806367,"1927 W Palm Ln, Phoenix, AZ 85009 ",85009,3.4540004830145203e-09,210000,https://www.zillow.com/homedetails/1927-W-Palm-Ln-Phoenix-AZ-85009/7519865_zpid/,33.4691,-112.102,2017-10-25,2017-10-25
7387290,23818465,"1542 W Mckinley St, Phoenix, AZ 85007 ",85007,3.4315650885296486e-09,169900,https://www.zillow.com/homedetails/1542-W-Mckinley-St-Phoenix-AZ-85007/7521496_zpid/,33.4571,-112.09299999999999,2017-11-02,2017-11-02
1880517,23820223,"844 W Harrison St, Chandler, AZ 85225 ",85225,3.2927865782029036e-09,229000,https://www.zillow.com/homedetails/844-W-Harrison-St-Chandler-AZ-85225/8186376_zpid/,33.3168,-111.85600000000001,2017-11-03,2017-11-03
342822,22678663,"1925 W Holly St, Phoenix, AZ 85009 ",85009,3.28676713188378e-09,160000,https://www.zillow.com/homedetails/1925-W-Holly-St-Phoenix-AZ-85009/7519786_zpid/,33.4699,-112.102,2017-09-15,2017-09-15
1665598,23827301,"17430 N Lime Rock Dr, Sun City, AZ 85373 ",85373,3.280532331830514e-09,225000,https://www.zillow.com/homedetails/17430-N-Lime-Rock-Dr-Sun-City-AZ-85373/7898027_zpid/,33.6431,-112.265,2017-11-08,2017-11-08
534651,23837198,"1931 W Ashland Ave, Phoenix, AZ 85009 ",85009,3.2611322725224615e-09,239900,https://www.zillow.com/homedetails/1931-W-Ashland-Ave-Phoenix-AZ-85009/7519553_zpid/,33.4752,-112.101,2017-11-17,2017-11-17
2048718,23757601,"9730 W Wrangler Dr, Sun City, AZ 85373 ",85373,3.236890499092684e-09,249900,https://www.zillow.com/homedetails/9730-W-Wrangler-Dr-Sun-City-AZ-85373/7898155_zpid/,33.6403,-112.27,2017-10-17,2017-10-17
705486,23834611,"3112 S El Dorado, Mesa, AZ 85202 ",85202,3.1531443566176454e-09,179000,https://www.zillow.com/homedetails/3112-S-El-Dorado-Mesa-AZ-85202/8170974_zpid/,33.3582,-111.885,2017-11-18,2017-11-18
534258,22520633,"1910 W Palm Ln, Phoenix, AZ 85009 ",85009,3.098844011599794e-09,174995,https://www.zillow.com/homedetails/1910-W-Palm-Ln-Phoenix-AZ-85009/7519871_zpid/,33.4695,-112.101,2017-08-18,2017-08-18
221514,23819824,"9826 N 1st St, Phoenix, AZ 85020 ",85020,3.0657682457178528e-09,229890,https://www.zillow.com/homedetails/9826-N-1st-St-Phoenix-AZ-85020/7788481_zpid/,33.5762,-112.073,2017-11-03,2017-11-03
555448,23821996,"2310 W Washington St, Phoenix, AZ 85009 ",85009,2.914521075068172e-09,169900,https://www.zillow.com/homedetails/2310-W-Washington-St-Phoenix-AZ-85009/7515224_zpid/,33.4483,-112.109,2017-11-06,2017-11-06
343418,23811515,"2029 W Wilshire Dr, Phoenix, AZ 85009 ",85009,2.6558373458663367e-09,215000,https://www.zillow.com/homedetails/2029-W-Wilshire-Dr-Phoenix-AZ-85009/7519525_zpid/,33.476,-112.104,2017-10-28,2017-10-28
9017497,23834085,"3044 E Roosevelt St, Phoenix, AZ 85008 ",85008,2.4711848369294057e-09,249500,https://www.zillow.com/homedetails/3044-E-Roosevelt-St-Phoenix-AZ-85008/2098123425_zpid/,33.4588,-112.015,2017-11-15,2017-11-15
21687,23821796,"8810 N 6th Pl, Phoenix, AZ 85020 ",85020,2.336356761381422e-09,200000,https://www.zillow.com/homedetails/8810-N-6th-Pl-Phoenix-AZ-85020/7793867_zpid/,33.5646,-112.066,2017-11-03,2017-11-03
349796,23814409,"3702 W Tonto St, Phoenix, AZ 85009 ",85009,2.268975827889896e-09,148800,https://www.zillow.com/homedetails/3702-W-Tonto-St-Phoenix-AZ-85009/7506279_zpid/,33.4394,-112.139,2017-10-29,2017-10-29
9016683,23754755,"2816 N 32nd Pl, Phoenix, AZ 85008 ",85008,2.2432065329718794e-09,185000,https://www.zillow.com/homedetails/2816-N-32nd-Pl-Phoenix-AZ-85008/7540834_zpid/,33.4793,-112.012,2017-10-17,2017-10-17
9022296,23814683,"3133 E Mckinley St, Phoenix, AZ 85008 ",85008,2.2093480157244857e-09,156000,https://www.zillow.com/homedetails/3133-E-Mckinley-St-Phoenix-AZ-85008/7545017_zpid/,33.4566,-112.014,2017-10-30,2017-10-30
9021253,23756561,"2832 N 28th Dr, Phoenix, AZ 85008 ",85008,2.1424218526610875e-09,139900,https://www.zillow.com/homedetails/2832-N-28th-Dr-Phoenix-AZ-85008/7513343_zpid/,33.4797,-112.021,2017-10-13,2017-10-13
9022117,23811077,"15145 N 86th Dr, Peoria, AZ 85381 ",85381,1.999256673165403e-09,209900,https://www.zillow.com/homedetails/15145-N-86th-Dr-Peoria-AZ-85381/7908510_zpid/,33.6217,-112.245,2017-10-27,2017-10-27
9002420,23799270,"4040 E Whitney Ln, Phoenix, AZ 85032 ",85032,1.9884314074383807e-09,240000,https://www.zillow.com/homedetails/4040-E-Whitney-Ln-Phoenix-AZ-85032/8029522_zpid/,33.6217,-111.995,2017-10-18,2017-10-18
552484,23825389,"1244 N 28th Pl, Phoenix, AZ 85008 ",85008,1.9114823681481073e-09,155000,https://www.zillow.com/homedetails/1244-N-28th-Pl-Phoenix-AZ-85008/7545284_zpid/,33.4636,-112.021,2017-11-13,2017-11-13
368450,23829035,"3431 E Renee Dr, Phoenix, AZ 85050 ",85050,1.7566485534960738e-09,219000,https://www.zillow.com/homedetails/3431-E-Renee-Dr-Phoenix-AZ-85050/7993445_zpid/,33.6559,-112.008,2017-11-12,2017-11-12
5331344,13114273,"7300 N Dreamy Draw Dr, Phoenix, AZ 85020 ",85020,1.7559315245638471e-09,155000,http://www.zillow.com/homedetails/7300-N-Dreamy-Draw-Dr-Phoenix-AZ-85020/2109590629_zpid/,33.5443,-112.044,2016-12-05,2016-12-05
9023942,23834986,"3552 E Le Marche Ave, Phoenix, AZ 85032 ",85032,1.6945772592370338e-09,205000,https://www.zillow.com/homedetails/3552-E-Le-Marche-Ave-Phoenix-AZ-85032/8007139_zpid/,33.6329,-112.005,2017-11-17,2017-11-17
9019396,23816373,"14625 N 37th Pl, Phoenix, AZ 85032 ",85032,1.5776244375557581e-09,212000,https://www.zillow.com/homedetails/14625-N-37th-Pl-Phoenix-AZ-85032/8013042_zpid/,33.6201,-112.00200000000001,2017-10-31,2017-10-31
221325,23840148,"9625 N 2nd St, Phoenix, AZ 85020 ",85020,1.487140460686442e-09,168000,https://www.zillow.com/homedetails/9625-N-2nd-St-Phoenix-AZ-85020/7788559_zpid/,33.5743,-112.072,2017-11-21,2017-11-21
312550,23818466,"1517 W Taylor St, Phoenix, AZ 85007 ",85007,1.3091121307582473e-09,185000,https://www.zillow.com/homedetails/1517-W-Taylor-St-Phoenix-AZ-85007/7521670_zpid/,33.4538,-112.09200000000001,2017-11-02,2017-11-02
9021612,23824736,"1713 W Bentley St, Mesa, AZ 85201 ",85201,1.3024556644523555e-09,172900,https://www.zillow.com/homedetails/1713-W-Bentley-St-Mesa-AZ-85201/7612481_zpid/,33.4198,-111.868,2017-11-09,2017-11-09
25059,21638916,"777 W Roosevelt St, Phoenix, AZ 85007 ",85007,1.2658717425798967e-09,207000,https://www.zillow.com/homedetails/777-W-Roosevelt-St-Phoenix-AZ-85007/2107063726_zpid/,33.4582,-112.083,2017-02-09,2017-02-09
41734,23815416,"637 N 69th Ave, Phoenix, AZ 85043 ",85043,1.1328732374311869e-09,169900,https://www.zillow.com/homedetails/637-N-69th-Ave-Phoenix-AZ-85043/7476326_zpid/,33.4562,-112.208,2017-10-31,2017-10-31
8989092,22502911,"2617 E Waltann Ln, Phoenix, AZ 85032 ",85032,1.1215805355999884e-09,150000,https://www.zillow.com/homedetails/2617-E-Waltann-Ln-Phoenix-AZ-85032/8007629_zpid/,33.6283,-112.02600000000001,2017-08-12,2017-08-12
9020939,23810980,"3752 E Blanche Dr, Phoenix, AZ 85032 ",85032,1.1192971546851723e-09,199000,https://www.zillow.com/homedetails/3752-E-Blanche-Dr-Phoenix-AZ-85032/8013187_zpid/,33.6236,-112.001,2017-10-26,2017-10-26
9020650,23832106,"324 W Rosal Pl, Chandler, AZ 85225 ",85225,1.0660134010655012e-09,215000,https://www.zillow.com/homedetails/324-W-Rosal-Pl-Chandler-AZ-85225/8177217_zpid/,33.3433,-111.848,2017-11-09,2017-11-09
9020041,23831664,"2528 E Blanche Dr, Phoenix, AZ 85032 ",85032,1.063799497457383e-09,249900,https://www.zillow.com/homedetails/2528-E-Blanche-Dr-Phoenix-AZ-85032/8013905_zpid/,33.6237,-112.027,2017-11-11,2017-11-11
9023662,23829114,"3222 E Roveen Ave, Phoenix, AZ 85032 ",85032,1.0606623397563682e-09,220000,https://www.zillow.com/homedetails/3222-E-Roveen-Ave-Phoenix-AZ-85032/7819469_zpid/,33.6059,-112.012,2017-11-14,2017-11-14
8958993,23823589,"3607 E Crocus Dr, Phoenix, AZ 85032 ",85032,1.0562636991347393e-09,247900,https://www.zillow.com/homedetails/3607-E-Crocus-Dr-Phoenix-AZ-85032/8012824_zpid/,33.6159,-112.00399999999999,2017-11-08,2017-11-08
219954,23838025,"825 E Ruth Ave, Phoenix, AZ 85020 ",85020,1.046771133018647e-09,229900,https://www.zillow.com/homedetails/825-E-Ruth-Ave-Phoenix-AZ-85020/7789613_zpid/,33.5632,-112.06299999999999,2017-11-16,2017-11-16
9023879,23833716,"3779 E Sweetwater Ave, Phoenix, AZ 85032 ",85032,1.036814836018953e-09,239900,https://www.zillow.com/homedetails/3779-E-Sweetwater-Ave-Phoenix-AZ-85032/7821120_zpid/,33.6042,-111.999,2017-11-15,2017-11-15
9023655,23829023,"14631 N 36th St, Phoenix, AZ 85032 ",85032,1.0315026639277165e-09,214000,https://www.zillow.com/homedetails/14631-N-36th-St-Phoenix-AZ-85032/8013016_zpid/,33.6203,-112.00399999999999,2017-11-12,2017-11-12
9021304,23756946,"2800 E Danbury Rd, Phoenix, AZ 85032 ",85032,1.0238670381634222e-09,185000,https://www.zillow.com/homedetails/2800-E-Danbury-Rd-Phoenix-AZ-85032/7999387_zpid/,33.6418,-112.022,2017-10-19,2017-10-19
8950845,23834947,"3251 E Hillery Dr, Phoenix, AZ 85032 ",85032,1.0229174632333598e-09,210000,https://www.zillow.com/homedetails/3251-E-Hillery-Dr-Phoenix-AZ-85032/8014152_zpid/,33.6218,-112.01100000000001,2017-11-16,2017-11-16
8977430,22376634,"1505 W Hadley St, Phoenix, AZ 85007 ",85007,1.0112500441616174e-09,180000,https://www.zillow.com/homedetails/1505-W-Hadley-St-Phoenix-AZ-85007/2112748542_zpid/,33.4392,-112.09200000000001,2017-07-24,2017-07-24
8968871,23512069,"15611 N 33rd Pl, Phoenix, AZ 85032 ",85032,9.948769554091816e-10,210000,https://www.zillow.com/homedetails/15611-N-33rd-Pl-Phoenix-AZ-85032/55267923_zpid/,33.6291,-112.01,2017-10-10,2017-10-10
8987564,23814063,"14067 N 35th St, Phoenix, AZ 85032 ",85032,9.921449321511124e-10,215000,https://www.zillow.com/homedetails/14067-N-35th-St-Phoenix-AZ-85032/8011904_zpid/,33.6149,-112.007,2017-10-29,2017-10-29
316133,23824449,"435 N 17th Ave, Phoenix, AZ 85007 ",85007,9.785676260404066e-10,189000,https://www.zillow.com/homedetails/435-N-17th-Ave-Phoenix-AZ-85007/7521605_zpid/,33.4546,-112.095,2017-11-08,2017-11-08
9023943,23835011,"3643 E Winchcomb Dr, Phoenix, AZ 85032 ",85032,9.660204813296759e-10,248000,https://www.zillow.com/homedetails/3643-E-Winchcomb-Dr-Phoenix-AZ-85032/8012851_zpid/,33.6168,-112.00299999999999,2017-11-17,2017-11-17
9023875,23833720,"14623 N 38th St, Phoenix, AZ 85032 ",85032,9.527652581813388e-10,244900,https://www.zillow.com/homedetails/14623-N-38th-St-Phoenix-AZ-85032/8013505_zpid/,33.6199,-112.0,2017-11-15,2017-11-15
9021302,23820828,"2444 E John Cabot Rd, Phoenix, AZ 85032 ",85032,9.517396104442303e-10,219000,https://www.zillow.com/homedetails/2444-E-John-Cabot-Rd-Phoenix-AZ-85032/7999725_zpid/,33.65,-112.029,2017-11-04,2017-11-04
7380359,22747336,"3611 W Maricopa St, Phoenix, AZ 85009 ",85009,9.348058702011774e-10,146600,https://www.zillow.com/homedetails/3611-W-Maricopa-St-Phoenix-AZ-85009/7506371_zpid/,33.4383,-112.137,2017-10-10,2017-10-10
9022870,23821240,"3127 E Michigan Ave, Phoenix, AZ 85032 ",85032,9.184691202925174e-10,179900,https://www.zillow.com/homedetails/3127-E-Michigan-Ave-Phoenix-AZ-85032/7999177_zpid/,33.6516,-112.015,2017-11-04,2017-11-04
9022227,23813828,"2926 E Michigan Ave, Phoenix, AZ 85032 ",85032,8.851459639284441e-10,199500,https://www.zillow.com/homedetails/2926-E-Michigan-Ave-Phoenix-AZ-85032/7999122_zpid/,33.6525,-112.01899999999999,2017-10-28,2017-10-28
9022382,23816381,"17606 N 36th St, Phoenix, AZ 85032 ",85032,8.705979902987241e-10,195000,https://www.zillow.com/homedetails/17606-N-36th-St-Phoenix-AZ-85032/2092220385_zpid/,33.6453,-112.00299999999999,2017-10-31,2017-10-31
9019849,23840305,"13022 N 41st Pl, Phoenix, AZ 85032 ",85032,8.55494888431259e-10,235000,https://www.zillow.com/homedetails/13022-N-41st-Pl-Phoenix-AZ-85032/7823096_zpid/,33.6053,-111.993,2017-11-19,2017-11-19
9021889,23808090,"2926 E Charleston Ave, Phoenix, AZ 85032 ",85032,8.524128563279931e-10,175000,https://www.zillow.com/homedetails/2926-E-Charleston-Ave-Phoenix-AZ-85032/7998861_zpid/,33.6495,-112.01899999999999,2017-10-25,2017-10-25
1959564,23823575,"18402 N 30th Pl, Phoenix, AZ 85032 ",85032,7.860324700318371e-10,210000,https://www.zillow.com/homedetails/18402-N-30th-Pl-Phoenix-AZ-85032/7999245_zpid/,33.6532,-112.01799999999999,2017-11-08,2017-11-08
559942,16039077,"1331 W Baseline Rd, Mesa, AZ 85202 ",85202,7.772527290697189e-10,135000,http://www.zillow.com/homedetails/1331-W-Baseline-Rd-Mesa-AZ-85202/2103729629_zpid/,33.3778,-111.86200000000001,2017-02-02,2017-02-02
8850973,23814108,"2525 E Michigan Ave, Phoenix, AZ 85032 ",85032,7.740321928886687e-10,225000,https://www.zillow.com/homedetails/2525-E-Michigan-Ave-Phoenix-AZ-85032/7999906_zpid/,33.6507,-112.027,2017-10-29,2017-10-29
9023880,23833725,"3454 E Libby St, Phoenix, AZ 85032 ",85032,7.680530269414429e-10,233000,https://www.zillow.com/homedetails/3454-E-Libby-St-Phoenix-AZ-85032/92349104_zpid/,33.6476,-112.005,2017-11-15,2017-11-15
8976262,22541368,"2918 E Nisbet Ct, Phoenix, AZ 85032 ",85032,7.624921368243819e-10,219500,https://www.zillow.com/homedetails/2918-E-Nisbet-Ct-Phoenix-AZ-85032/8011642_zpid/,33.6234,-112.01899999999999,2017-08-19,2017-08-19
8977242,23802183,"16434 N 32nd Pl, Phoenix, AZ 85032 ",85032,7.576243971130812e-10,84000,https://www.zillow.com/homedetails/16434-N-32nd-Pl-Phoenix-AZ-85032/8006065_zpid/,33.6366,-112.01299999999999,2017-10-13,2017-10-13
9020909,23752409,"3770 E Pershing Ave, Phoenix, AZ 85032 ",85032,7.432025164842676e-10,215000,https://www.zillow.com/homedetails/3770-E-Pershing-Ave-Phoenix-AZ-85032/7814096_zpid/,33.6066,-112.0,2017-10-13,2017-10-13
8276841,23818281,"17056 N 36th Ct, Phoenix, AZ 85032 ",85032,7.323020377792862e-10,239900,https://www.zillow.com/homedetails/17056-N-36th-Ct-Phoenix-AZ-85032/7998086_zpid/,33.6421,-112.006,2017-11-02,2017-11-02
556266,23783983,"2325 N 28th Pl, Phoenix, AZ 85008 ",85008,7.311585477745812e-10,144000,https://www.zillow.com/homedetails/2325-N-28th-Pl-Phoenix-AZ-85008/7542977_zpid/,33.4742,-112.02,2017-04-06,2017-04-06
310982,23836079,"1133 W Cocopah St, Phoenix, AZ 85007 ",85007,7.281124475620838e-10,179900,https://www.zillow.com/homedetails/1133-W-Cocopah-St-Phoenix-AZ-85007/7501414_zpid/,33.4319,-112.088,2017-11-17,2017-11-17
310725,23757967,"1109 W Sherman St, Phoenix, AZ 85007 ",85007,7.230810717481646e-10,99000,https://www.zillow.com/homedetails/1109-W-Sherman-St-Phoenix-AZ-85007/7522651_zpid/,33.4395,-112.088,2017-10-20,2017-10-20
9006564,23814082,"16612 N 28th Way, Phoenix, AZ 85032 ",85032,6.953632145031725e-10,194900,https://www.zillow.com/homedetails/16612-N-28th-Way-Phoenix-AZ-85032/8005824_zpid/,33.6376,-112.021,2017-10-29,2017-10-29
646338,23837332,"2249 W Portobello Ave, Mesa, AZ 85202 ",85202,6.912198306094395e-10,225000,https://www.zillow.com/homedetails/2249-W-Portobello-Ave-Mesa-AZ-85202/8170991_zpid/,33.3591,-111.882,2017-11-20,2017-11-20
9019232,22732700,"3428 E Sheridan St, Phoenix, AZ 85008 ",85008,6.874386117722582e-10,245000,https://www.zillow.com/homedetails/3428-E-Sheridan-St-Phoenix-AZ-85008/7541233_zpid/,33.4752,-112.007,2017-09-30,2017-09-30
40212,23823118,"2916 S 72nd Ln, Phoenix, AZ 85043 ",85043,6.815547651232777e-10,175000,https://www.zillow.com/homedetails/2916-S-72nd-Ln-Phoenix-AZ-85043/67788654_zpid/,33.4218,-112.21700000000001,2017-11-09,2017-11-09
556723,23834031,"2416 N Foote Dr, Phoenix, AZ 85008 ",85008,6.80598058408889e-10,245000,https://www.zillow.com/homedetails/2416-N-Foote-Dr-Phoenix-AZ-85008/7543672_zpid/,33.4743,-112.02600000000001,2017-11-10,2017-11-10
9022735,23819777,"13216 N 31st Way, Phoenix, AZ 85032 ",85032,6.783323144358078e-10,145000,https://www.zillow.com/homedetails/13216-N-31st-Way-Phoenix-AZ-85032/50188555_zpid/,33.6068,-112.014,2017-11-03,2017-11-03
9012867,23821644,"13235 N 31st Way, Phoenix, AZ 85032 ",85032,6.764791447050632e-10,239900,https://www.zillow.com/homedetails/13235-N-31st-Way-Phoenix-AZ-85032/50188569_zpid/,33.6073,-112.014,2017-11-01,2017-11-01
312249,23814876,"1433 S 14th Ave, Phoenix, AZ 85007 ",85007,6.753977692279273e-10,174900,https://www.zillow.com/homedetails/1433-S-14th-Ave-Phoenix-AZ-85007/7500688_zpid/,33.4338,-112.09,2017-10-29,2017-10-29
553013,23837564,"1645 N 27th Pl, Phoenix, AZ 85008 ",85008,6.68016034205186e-10,238500,https://www.zillow.com/homedetails/1645-N-27th-Pl-Phoenix-AZ-85008/7543235_zpid/,33.4675,-112.023,2017-11-20,2017-11-20
8995968,22560409,"13818 N 43rd St, Phoenix, AZ 85032 ",85032,6.67418979103233e-10,160000,https://www.zillow.com/homedetails/13818-N-43rd-St-Phoenix-AZ-85032/8030572_zpid/,33.6125,-111.99,2017-08-20,2017-08-20
553527,23781588,"1840 N 27th Pl, Phoenix, AZ 85008 ",85008,6.655063673797667e-10,225000,https://www.zillow.com/homedetails/1840-N-27th-Pl-Phoenix-AZ-85008/7543221_zpid/,33.4689,-112.023,2016-12-16,2016-12-16
209657,23839158,"3502 E Harvard St, Phoenix, AZ 85008 ",85008,6.629019596007699e-10,199000,https://www.zillow.com/homedetails/3502-E-Harvard-St-Phoenix-AZ-85008/7541117_zpid/,33.4742,-112.006,2017-11-09,2017-11-09
9022191,23824622,"3728 E Yale St, Phoenix, AZ 85008 ",85008,6.571558201963287e-10,239999,https://www.zillow.com/homedetails/3728-E-Yale-St-Phoenix-AZ-85008/7541377_zpid/,33.4759,-112.00399999999999,2017-11-09,2017-11-09
9022591,23824443,"3101 E Garfield St, Phoenix, AZ 85008 ",85008,6.551456440494923e-10,212000,https://www.zillow.com/homedetails/3101-E-Garfield-St-Phoenix-AZ-85008/7545005_zpid/,33.4573,-112.015,2017-11-09,2017-11-09
43503,23828145,"7939 W Lumbee St, Phoenix, AZ 85043 ",85043,6.464538598586278e-10,178900,https://www.zillow.com/homedetails/7939-W-Lumbee-St-Phoenix-AZ-85043/59271818_zpid/,33.434,-112.23100000000001,2017-11-13,2017-11-13
701826,23809249,"2733 W Jacinto Cir, Mesa, AZ 85202 ",85202,6.377933455030184e-10,205000,https://www.zillow.com/homedetails/2733-W-Jacinto-Cir-Mesa-AZ-85202/8250117_zpid/,33.3796,-111.891,2017-10-26,2017-10-26
344412,23649622,"2406 W Tonto St, Phoenix, AZ 85009 ",85009,6.315096881468824e-10,195000,https://www.zillow.com/homedetails/2406-W-Tonto-St-Phoenix-AZ-85009/7515658_zpid/,33.4388,-112.111,2017-10-12,2017-10-12
645527,23807613,"708 W Emelita Ave, Mesa, AZ 85210 ",85210,6.297641755561547e-10,195000,https://www.zillow.com/homedetails/708-W-Emelita-Ave-Mesa-AZ-85210/7598409_zpid/,33.3985,-111.84700000000001,2017-10-25,2017-10-25
351746,23822654,"6619 W Whyman Ave, Phoenix, AZ 85043 ",85043,6.223286353516466e-10,174900,https://www.zillow.com/homedetails/6619-W-Whyman-Ave-Phoenix-AZ-85043/62727350_zpid/,33.4269,-112.20200000000001,2017-11-08,2017-11-08
342843,23828091,"1701 S 65th Dr, Phoenix, AZ 85043 ",85043,6.028716409614402e-10,179900,https://www.zillow.com/homedetails/1701-S-65th-Dr-Phoenix-AZ-85043/52621334_zpid/,33.4331,-112.2,2017-11-14,2017-11-14
42499,23811581,"6906 W Garfield St, Phoenix, AZ 85043 ",85043,5.999310338885419e-10,169000,https://www.zillow.com/homedetails/6906-W-Garfield-St-Phoenix-AZ-85043/7476239_zpid/,33.4575,-112.208,2017-10-28,2017-10-28
702422,23836601,"3144 S Rogers, Mesa, AZ 85202 ",85202,5.938478952097905e-10,244000,https://www.zillow.com/homedetails/3144-S-Rogers-Mesa-AZ-85202/8171993_zpid/,33.3577,-111.86399999999999,2017-11-16,2017-11-16
647631,23833607,"2312 W Plata Ave, Mesa, AZ 85202 ",85202,5.875412068408397e-10,219900,https://www.zillow.com/homedetails/2312-W-Plata-Ave-Mesa-AZ-85202/8170881_zpid/,33.3605,-111.883,2017-11-11,2017-11-11
8988163,23818314,"2650 E Hartford Ave, Phoenix, AZ 85032 ",85032,5.86123817576327e-10,249500,https://www.zillow.com/homedetails/2650-E-Hartford-Ave-Phoenix-AZ-85032/59266670_zpid/,33.6425,-112.025,2017-11-02,2017-11-02
43392,23823135,"7910 W Chickasaw St, Phoenix, AZ 85043 ",85043,5.83336922757656e-10,179000,https://www.zillow.com/homedetails/7910-W-Chickasaw-St-Phoenix-AZ-85043/59271721_zpid/,33.4308,-112.23,2017-11-09,2017-11-09
8975652,23829621,"18232 N 26th Pl, Phoenix, AZ 85032 ",85032,5.744225342086231e-10,190000,https://www.zillow.com/homedetails/18232-N-26th-Pl-Phoenix-AZ-85032/8000048_zpid/,33.6526,-112.025,2017-11-11,2017-11-11
640835,22743106,"622 W Portobello Ave, Mesa, AZ 85210 ",85210,5.607672971943341e-10,240000,https://www.zillow.com/homedetails/622-W-Portobello-Ave-Mesa-AZ-85210/8190949_zpid/,33.3608,-111.84700000000001,2017-10-06,2017-10-06
9023935,23834938,"18241 N 31st St, Phoenix, AZ 85032 ",85032,5.561625126010854e-10,225000,https://www.zillow.com/homedetails/18241-N-31st-St-Phoenix-AZ-85032/7999264_zpid/,33.6531,-112.016,2017-11-17,2017-11-17
8959401,23821735,"3907 W Palm Ln, Phoenix, AZ 85009 ",85009,5.504227697356568e-10,144900,https://www.zillow.com/homedetails/3907-W-Palm-Ln-Phoenix-AZ-85009/7511764_zpid/,33.4696,-112.14399999999999,2017-11-03,2017-11-03
342960,23832499,"1722 S 64th Ave, Phoenix, AZ 85043 ",85043,5.386119604416316e-10,176000,https://www.zillow.com/homedetails/1722-S-64th-Ave-Phoenix-AZ-85043/55257220_zpid/,33.4323,-112.198,2017-11-15,2017-11-15
219462,23818678,"811 E Diana Ave, Phoenix, AZ 85020 ",85020,5.232854524388024e-10,219000,https://www.zillow.com/homedetails/811-E-Diana-Ave-Phoenix-AZ-85020/7789582_zpid/,33.5625,-112.06299999999999,2017-11-02,2017-11-02
204931,23840233,"1002 E Diana Ave, Phoenix, AZ 85020 ",85020,5.224915779731319e-10,229999,https://www.zillow.com/homedetails/1002-E-Diana-Ave-Phoenix-AZ-85020/7789729_zpid/,33.5629,-112.061,2017-11-15,2017-11-15
389970,22302502,"2910 W Altadena Ave, Phoenix, AZ 85029 ",85029,5.167503830026058e-10,220000,https://www.zillow.com/homedetails/2910-W-Altadena-Ave-Phoenix-AZ-85029/7739875_zpid/,33.5927,-112.12200000000001,2017-07-11,2017-07-11
218427,23813727,"7308 N 16th Pl, Phoenix, AZ 85020 ",85020,5.144078524555391e-10,238000,https://www.zillow.com/homedetails/7308-N-16th-Pl-Phoenix-AZ-85020/7806951_zpid/,33.5439,-112.046,2017-10-28,2017-10-28
350131,22705127,"6405 W Preston Ln, Phoenix, AZ 85043 ",85043,5.143683731474436e-10,187000,https://www.zillow.com/homedetails/6405-W-Preston-Ln-Phoenix-AZ-85043/55257428_zpid/,33.4235,-112.198,2017-09-22,2017-09-22
41623,23837378,"6327 W Hilton Ave, Phoenix, AZ 85043 ",85043,5.09520336273827e-10,189900,https://www.zillow.com/homedetails/6327-W-Hilton-Ave-Phoenix-AZ-85043/53206202_zpid/,33.4279,-112.197,2017-11-20,2017-11-20
1111309,23840294,"1319 W Stottler Dr, Chandler, AZ 85224 ",85224,5.058925214223223e-10,234900,https://www.zillow.com/homedetails/1319-W-Stottler-Dr-Chandler-AZ-85224/8193575_zpid/,33.3329,-111.865,2017-11-22,2017-11-22
352271,23806193,"6938 W Villa St, Phoenix, AZ 85043 ",85043,4.99997570595087e-10,189000,https://www.zillow.com/homedetails/6938-W-Villa-St-Phoenix-AZ-85043/7476296_zpid/,33.455999999999996,-112.209,2017-10-25,2017-10-25
1665351,23819526,"17415 N Country Club Dr, Sun City, AZ 85373 ",85373,4.970512745318586e-10,235000,https://www.zillow.com/homedetails/17415-N-Country-Club-Dr-Sun-City-AZ-85373/7897399_zpid/,33.6428,-112.26,2017-11-02,2017-11-02
9023845,23833062,"1333 N 32nd Ave, Phoenix, AZ 85009 ",85009,4.818426523561803e-10,125000,https://www.zillow.com/homedetails/1333-N-32nd-Ave-Phoenix-AZ-85009/7513099_zpid/,33.464,-112.12700000000001,2017-11-15,2017-11-15
9015447,23821745,"4138 E Bluefield Ave, Phoenix, AZ 85032 ",85032,4.772306583484371e-10,229000,https://www.zillow.com/homedetails/4138-E-Bluefield-Ave-Phoenix-AZ-85032/8018053_zpid/,33.6534,-111.992,2017-11-03,2017-11-03
345079,22412828,"2742 W Pierce St, Phoenix, AZ 85009 ",85009,4.669527945080065e-10,119900,https://www.zillow.com/homedetails/2742-W-Pierce-St-Phoenix-AZ-85009/7513479_zpid/,33.455999999999996,-112.119,2017-07-17,2017-07-17
647317,23821015,"2310 W Onza Ave, Mesa, AZ 85202 ",85202,4.664185933362058e-10,240000,https://www.zillow.com/homedetails/2310-W-Onza-Ave-Mesa-AZ-85202/8171724_zpid/,33.3621,-111.883,2017-11-04,2017-11-04
8990250,23821754,"507 S Rogers, Mesa, AZ 85202 ",85202,4.633616176207346e-10,224990,https://www.zillow.com/homedetails/507-S-Rogers-Mesa-AZ-85202/7604897_zpid/,33.4056,-111.863,2017-11-03,2017-11-03
8988800,23830205,"4343 E Bluefield Ave, Phoenix, AZ 85032 ",85032,4.547069301776645e-10,214950,https://www.zillow.com/homedetails/4343-E-Bluefield-Ave-Phoenix-AZ-85032/8017922_zpid/,33.6531,-111.988,2017-11-09,2017-11-09
640201,23837467,"613 W Peralta Ave, Mesa, AZ 85210 ",85210,4.5194630507518917e-10,229000,https://www.zillow.com/homedetails/613-W-Peralta-Ave-Mesa-AZ-85210/8190639_zpid/,33.3572,-111.84700000000001,2017-11-20,2017-11-20
220078,23817452,"8352 N 3rd St, Phoenix, AZ 85020 ",85020,4.405702785978703e-10,200000,https://www.zillow.com/homedetails/8352-N-3rd-St-Phoenix-AZ-85020/7794017_zpid/,33.5605,-112.07,2017-11-01,2017-11-01
556883,23809047,"2529 N 40th Ave, Phoenix, AZ 85009 ",85009,4.2728576091752307e-10,149899,https://www.zillow.com/homedetails/2529-N-40th-Ave-Phoenix-AZ-85009/88889007_zpid/,33.4758,-112.146,2017-10-26,2017-10-26
314996,23833971,"1841 W Pima St, Phoenix, AZ 85007 ",85007,4.248066917088828e-10,154999,https://www.zillow.com/homedetails/1841-W-Pima-St-Phoenix-AZ-85007/7501195_zpid/,33.4329,-112.09899999999999,2017-11-16,2017-11-16
9007274,23825244,"8426 W Bluefield Ave, Peoria, AZ 85382 ",85382,4.1398812004614084e-10,199000,https://www.zillow.com/homedetails/8426-W-Bluefield-Ave-Peoria-AZ-85382/8129054_zpid/,33.6509,-112.241,2017-11-09,2017-11-09
308089,23836076,"742 S 1st St, Phoenix, AZ 85004 ",85004,3.9648383597180103e-10,135000,https://www.zillow.com/homedetails/742-S-1st-St-Phoenix-AZ-85004/7522903_zpid/,33.4396,-112.073,2017-11-17,2017-11-17
40221,23817839,"2920 S 72nd Ln, Phoenix, AZ 85043 ",85043,3.8922586305890183e-10,224900,https://www.zillow.com/homedetails/2920-S-72nd-Ln-Phoenix-AZ-85043/67788653_zpid/,33.4217,-112.21700000000001,2017-11-01,2017-11-01
696852,23836394,"2930 W Mckinley St, Phoenix, AZ 85009 ",85009,3.8630788832109937e-10,139900,https://www.zillow.com/homedetails/2930-W-Mckinley-St-Phoenix-AZ-85009/7513671_zpid/,33.4574,-112.12299999999999,2017-11-17,2017-11-17
206817,23817079,"1027 E Ruth Ave, Phoenix, AZ 85020 ",85020,3.7636523808583986e-10,225000,https://www.zillow.com/homedetails/1027-E-Ruth-Ave-Phoenix-AZ-85020/7789699_zpid/,33.5634,-112.06,2017-11-01,2017-11-01
1666627,23827293,"17817 N Country Club Dr, Sun City, AZ 85373 ",85373,3.7347245777553737e-10,234500,https://www.zillow.com/homedetails/17817-N-Country-Club-Dr-Sun-City-AZ-85373/7897836_zpid/,33.6465,-112.262,2017-11-11,2017-11-11
700481,23821699,"2550 W Knowles Ave, Mesa, AZ 85202 ",85202,3.572900106919503e-10,248900,https://www.zillow.com/homedetails/2550-W-Knowles-Ave-Mesa-AZ-85202/8253095_zpid/,33.3781,-111.889,2017-11-02,2017-11-02
345243,23837603,"2814 N 34th Dr, Phoenix, AZ 85009 ",85009,3.560389534168976e-10,140000,https://www.zillow.com/homedetails/2814-N-34th-Dr-Phoenix-AZ-85009/7510436_zpid/,33.4795,-112.133,2017-11-19,2017-11-19
341240,23836388,"1101 N 33rd Ave, Phoenix, AZ 85009 ",85009,3.539714000734651e-10,129800,https://www.zillow.com/homedetails/1101-N-33rd-Ave-Phoenix-AZ-85009/7513294_zpid/,33.4596,-112.12799999999999,2017-11-17,2017-11-17
9022987,23822867,"503 W Harrison St, Chandler, AZ 85225 ",85225,3.45050726829996e-10,249000,https://www.zillow.com/homedetails/503-W-Harrison-St-Chandler-AZ-85225/8187045_zpid/,33.3166,-111.84899999999999,2017-11-06,2017-11-06
390304,23830829,"3005 W Sierra St, Phoenix, AZ 85029 ",85029,3.29938942681136e-10,198750,https://www.zillow.com/homedetails/3005-W-Sierra-St-Phoenix-AZ-85029/7739931_zpid/,33.5915,-112.124,2017-11-09,2017-11-09
501018,22711998,"7420 W Alvarado Rd, Phoenix, AZ 85035 ",85035,3.279037261975668e-10,119900,https://www.zillow.com/homedetails/7420-W-Alvarado-Rd-Phoenix-AZ-85035/7474905_zpid/,33.4717,-112.22,2017-09-23,2017-09-23
9023847,23833069,"2801 N 49th Dr, Phoenix, AZ 85035 ",85035,3.215374427261584e-10,128000,https://www.zillow.com/homedetails/2801-N-49th-Dr-Phoenix-AZ-85035/113982371_zpid/,33.4788,-112.163,2017-11-15,2017-11-15
349445,23786888,"3622 W Berkeley Rd, Phoenix, AZ 85009 ",85009,3.1540053141309156e-10,144900,https://www.zillow.com/homedetails/3622-W-Berkeley-Rd-Phoenix-AZ-85009/7512043_zpid/,33.4684,-112.137,2017-04-17,2017-04-17
557194,23828210,"2601 N 41st Ave, Phoenix, AZ 85009 ",85009,3.1261086104734453e-10,150000,https://www.zillow.com/homedetails/2601-N-41st-Ave-Phoenix-AZ-85009/7512888_zpid/,33.477,-112.147,2017-11-12,2017-11-12
220908,23839965,"915 E Ruth Ave, Phoenix, AZ 85020 ",85020,3.077032002894531e-10,239900,https://www.zillow.com/homedetails/915-E-Ruth-Ave-Phoenix-AZ-85020/7789621_zpid/,33.5632,-112.061,2017-11-17,2017-11-17
642352,23818179,"2143 W Plata Ave, Mesa, AZ 85202 ",85202,2.981696039409367e-10,248900,https://www.zillow.com/homedetails/2143-W-Plata-Ave-Mesa-AZ-85202/8171521_zpid/,33.3607,-111.88,2017-11-02,2017-11-02
9021905,23837963,"5153 E Monte Vista Rd, Phoenix, AZ 85008 ",85008,2.9790722083637496e-10,175000,https://www.zillow.com/homedetails/5153-E-Monte-Vista-Rd-Phoenix-AZ-85008/7562083_zpid/,33.4711,-111.971,2017-11-20,2017-11-20
212907,23818112,"5306 E Windsor Ave, Phoenix, AZ 85008 ",85008,2.95054182522794e-10,229000,https://www.zillow.com/homedetails/5306-E-Windsor-Ave-Phoenix-AZ-85008/7562724_zpid/,33.4785,-111.96700000000001,2017-11-02,2017-11-02
8958691,23834068,"2841 S Standage, Mesa, AZ 85202 ",85202,2.937378135425641e-10,239500,https://www.zillow.com/homedetails/2841-S-Standage-Mesa-AZ-85202/8171738_zpid/,33.363,-111.863,2017-11-10,2017-11-10
386525,23810920,"2019 W Willow Ave, Phoenix, AZ 85029 ",85029,2.895474096323146e-10,189000,https://www.zillow.com/homedetails/2019-W-Willow-Ave-Phoenix-AZ-85029/7749707_zpid/,33.6066,-112.102,2017-10-27,2017-10-27
831005,23835037,"3920 W Krall St, Phoenix, AZ 85019 ",85019,2.8917544336441056e-10,159900,https://www.zillow.com/homedetails/3920-W-Krall-St-Phoenix-AZ-85019/7762416_zpid/,33.5343,-112.14399999999999,2017-11-16,2017-11-16
702036,23836611,"2848 S El Dorado, Mesa, AZ 85202 ",85202,2.614642343934907e-10,219000,https://www.zillow.com/homedetails/2848-S-El-Dorado-Mesa-AZ-85202/8171658_zpid/,33.3627,-111.885,2017-11-17,2017-11-17
261913,23649326,"5308 N 78th Pl, Scottsdale, AZ 85250 ",85250,2.5531411751945333e-10,229000,https://www.zillow.com/homedetails/5308-N-78th-Pl-Scottsdale-AZ-85250/7842267_zpid/,33.5142,-111.913,2017-10-13,2017-10-13
221575,23834429,"9841 N 11th St, Phoenix, AZ 85020 ",85020,2.5476255447553235e-10,174900,https://www.zillow.com/homedetails/9841-N-11th-St-Phoenix-AZ-85020/7787496_zpid/,33.5764,-112.059,2017-11-14,2017-11-14
350252,22116796,"3827 W Taylor St, Phoenix, AZ 85009 ",85009,2.5075809680012447e-10,112500,https://www.zillow.com/homedetails/3827-W-Taylor-St-Phoenix-AZ-85009/7505668_zpid/,33.454,-112.14299999999999,2017-06-04,2017-06-04
342222,23780659,"1648 N 38th Dr, Phoenix, AZ 85009 ",85009,2.4573445892738673e-10,129900,https://www.zillow.com/homedetails/1648-N-38th-Dr-Phoenix-AZ-85009/7511922_zpid/,33.4675,-112.14200000000001,2017-04-22,2017-04-22
9022157,23837205,"3601 N 12th St, Phoenix, AZ 85014 ",85014,2.409676948998849e-10,149000,https://www.zillow.com/homedetails/3601-N-12th-St-Phoenix-AZ-85014/7534641_zpid/,33.4895,-112.056,2017-11-18,2017-11-18
8988517,23821636,"1108 E Orchid Ln, Phoenix, AZ 85020 ",85020,2.3820318561131484e-10,228995,https://www.zillow.com/homedetails/1108-E-Orchid-Ln-Phoenix-AZ-85020/7789754_zpid/,33.5622,-112.059,2017-11-02,2017-11-02
696959,23816281,"2938 W Almeria Rd, Phoenix, AZ 85009 ",85009,2.338524542383242e-10,132900,https://www.zillow.com/homedetails/2938-W-Almeria-Rd-Phoenix-AZ-85009/7512219_zpid/,33.4672,-112.12299999999999,2017-10-30,2017-10-30
646296,17862449,"2248 W Del Oro Cir, Mesa, AZ 85202 ",85202,2.318024956894339e-10,230000,https://www.zillow.com/homedetails/2248-W-Del-Oro-Cir-Mesa-AZ-85202/7602090_zpid/,33.4019,-111.88,2017-03-23,2017-03-23
9019399,23759454,"15032 N 26th St, Phoenix, AZ 85032 ",85032,2.3048046496211951e-10,240000,https://www.zillow.com/homedetails/15032-N-26th-St-Phoenix-AZ-85032/8013907_zpid/,33.6237,-112.027,2017-10-20,2017-10-20
8965018,22598974,"3850 E Friess Dr, Phoenix, AZ 85032 ",85032,2.265671225830738e-10,239900,https://www.zillow.com/homedetails/3850-E-Friess-Dr-Phoenix-AZ-85032/8012529_zpid/,33.6141,-111.99600000000001,2017-08-28,2017-08-28
9020903,23833912,"14832 N 35th Pl, Phoenix, AZ 85032 ",85032,2.2240253593424094e-10,230000,https://www.zillow.com/homedetails/14832-N-35th-Pl-Phoenix-AZ-85032/8014288_zpid/,33.6219,-112.006,2017-11-12,2017-11-12
351584,22747358,"4213 W Culver St, Phoenix, AZ 85009 ",85009,2.1981623195807489e-10,149900,https://www.zillow.com/homedetails/4213-W-Culver-St-Phoenix-AZ-85009/7506504_zpid/,33.463,-112.149,2017-10-10,2017-10-10
8958977,23756263,"2545 E Piute Ave, Phoenix, AZ 85050 ",85050,2.1912819422484827e-10,159000,https://www.zillow.com/homedetails/2545-E-Piute-Ave-Phoenix-AZ-85050/7994601_zpid/,33.6629,-112.027,2017-10-13,2017-10-13
345521,23753202,"2846 W Melvin St, Phoenix, AZ 85009 ",85009,2.1191371453402716e-10,80000,https://www.zillow.com/homedetails/2846-W-Melvin-St-Phoenix-AZ-85009/7514191_zpid/,33.4524,-112.12200000000001,2017-10-15,2017-10-15
9012975,23834070,"2909 W Altadena Ave, Phoenix, AZ 85029 ",85029,2.104802837163498e-10,195000,https://www.zillow.com/homedetails/2909-W-Altadena-Ave-Phoenix-AZ-85029/7740100_zpid/,33.5923,-112.12200000000001,2017-11-14,2017-11-14
368437,23829034,"3430 E Renee Dr, Phoenix, AZ 85050 ",85050,2.0815148927314147e-10,249000,https://www.zillow.com/homedetails/3430-E-Renee-Dr-Phoenix-AZ-85050/7993430_zpid/,33.6562,-112.008,2017-11-09,2017-11-09
9023664,23829104,"3719 E Eugie Ave, Phoenix, AZ 85032 ",85032,2.0717145926076408e-10,249000,https://www.zillow.com/homedetails/3719-E-Eugie-Ave-Phoenix-AZ-85032/7813758_zpid/,33.6096,-112.00200000000001,2017-11-12,2017-11-12
362517,23822656,"8838 W Hilton Ave, Tolleson, AZ 85353 ",85353,2.0274756961588132e-10,184900,https://www.zillow.com/homedetails/8838-W-Hilton-Ave-Tolleson-AZ-85353/62726881_zpid/,33.4279,-112.251,2017-11-06,2017-11-06
1121709,23834442,"2370 W Orchid Ln, Chandler, AZ 85224 ",85224,2.0127551238596151e-10,227000,https://www.zillow.com/homedetails/2370-W-Orchid-Ln-Chandler-AZ-85224/8201830_zpid/,33.324,-111.883,2017-11-16,2017-11-16
644400,23822686,"2217 W Emerald Cir, Mesa, AZ 85202 ",85202,1.9607142027893763e-10,225000,https://www.zillow.com/homedetails/2217-W-Emerald-Cir-Mesa-AZ-85202/7603458_zpid/,33.3966,-111.87899999999999,2017-11-07,2017-11-07
360201,22563730,"8302 W Mohave St, Tolleson, AZ 85353 ",85353,1.9312074405874245e-10,205000,https://www.zillow.com/homedetails/8302-W-Mohave-St-Tolleson-AZ-85353/59271589_zpid/,33.4322,-112.23899999999999,2017-08-22,2017-08-22
7445518,23781525,"18009 N 89th Dr, Peoria, AZ 85382 ",85382,1.9279367974130086e-10,240000,https://www.zillow.com/homedetails/18009-N-89th-Dr-Peoria-AZ-85382/8105128_zpid/,33.6473,-112.251,2017-03-12,2017-03-12
9023637,23828226,"2201 N 36th Dr, Phoenix, AZ 85009 ",85009,1.9055721120796702e-10,125000,https://www.zillow.com/homedetails/2201-N-36th-Dr-Phoenix-AZ-85009/7511207_zpid/,33.4719,-112.13799999999999,2017-11-10,2017-11-10
629569,23810381,"1645 W Peralta Ave, Mesa, AZ 85202 ",85202,1.8936640248673654e-10,229900,https://www.zillow.com/homedetails/1645-W-Peralta-Ave-Mesa-AZ-85202/8191627_zpid/,33.3572,-111.87,2017-10-27,2017-10-27
8954944,23798695,"2414 E Dahlia Dr, Phoenix, AZ 85032 ",85032,1.8772259166256069e-10,232000,https://www.zillow.com/homedetails/2414-E-Dahlia-Dr-Phoenix-AZ-85032/7820475_zpid/,33.6034,-112.03,2017-10-19,2017-10-19
9022216,23813716,"8333 W Watkins St, Tolleson, AZ 85353 ",85353,1.8739079216667824e-10,194900,https://www.zillow.com/homedetails/8333-W-Watkins-St-Tolleson-AZ-85353/54886336_zpid/,33.4265,-112.24,2017-10-28,2017-10-28
5346018,8388603,"2001 E Ludlow Dr, Scottsdale, AZ 85259 ",85259,1.8684928895907338e-10,215000,http://www.zillow.com/homedetails/2001-E-Ludlow-Dr-Scottsdale-AZ-85259/2096119451_zpid/,33.6126,-111.87200000000001,2016-12-06,2016-12-06
388893,23756003,"2420 W Willow Ave, Phoenix, AZ 85029 ",85029,1.8364299286566857e-10,179900,https://www.zillow.com/homedetails/2420-W-Willow-Ave-Phoenix-AZ-85029/7738239_zpid/,33.6079,-112.111,2017-10-18,2017-10-18
359603,23837384,"2538 S 88th Ln, Tolleson, AZ 85353 ",85353,1.8302163057390034e-10,209900,https://www.zillow.com/homedetails/2538-S-88th-Ln-Tolleson-AZ-85353/67772866_zpid/,33.4242,-112.251,2017-11-20,2017-11-20
670,23837213,"1307 N 42nd Ave, Phoenix, AZ 85009 ",85009,1.8173269817865167e-10,145000,https://www.zillow.com/homedetails/1307-N-42nd-Ave-Phoenix-AZ-85009/7506479_zpid/,33.4626,-112.149,2017-11-16,2017-11-16
207156,23830785,"1038 E Diana Ave, Phoenix, AZ 85020 ",85020,1.8165030065405665e-10,200000,https://www.zillow.com/homedetails/1038-E-Diana-Ave-Phoenix-AZ-85020/7789722_zpid/,33.5629,-112.059,2017-11-11,2017-11-11
629600,23810385,"1646 W Pecos Ave, Mesa, AZ 85202 ",85202,1.762361526314775e-10,214900,https://www.zillow.com/homedetails/1646-W-Pecos-Ave-Mesa-AZ-85202/8191480_zpid/,33.3602,-111.87,2017-10-27,2017-10-27
7413432,13306387,"7110 E Continental Dr, Scottsdale, AZ 85257 ",85257,1.712458357976544e-10,150000,https://www.zillow.com/homedetails/7110-E-Continental-Dr-Scottsdale-AZ-85257/2111146291_zpid/,33.4595,-111.928,2017-02-08,2017-02-08
149903,23800141,"8309 E Indian School Rd, Scottsdale, AZ 85251 ",85251,1.6684502152199348e-10,239850,https://www.zillow.com/homedetails/8309-E-Indian-School-Rd-Scottsdale-AZ-85251/7577019_zpid/,33.4948,-111.902,2017-10-15,2017-10-15
389548,23813548,"2610 W Corrine Dr, Phoenix, AZ 85029 ",85029,1.5845849967562053e-10,189900,https://www.zillow.com/homedetails/2610-W-Corrine-Dr-Phoenix-AZ-85029/7748242_zpid/,33.601,-112.115,2017-10-26,2017-10-26
359220,23838114,"1816 S 84th Dr, Tolleson, AZ 85353 ",85353,1.5537655357160647e-10,229999,https://www.zillow.com/homedetails/1816-S-84th-Dr-Tolleson-AZ-85353/59249294_zpid/,33.4304,-112.241,2017-11-21,2017-11-21
9020793,23836414,"8425 W Cocopah St, Tolleson, AZ 85353 ",85353,1.5387961564173888e-10,218000,https://www.zillow.com/homedetails/8425-W-Cocopah-St-Tolleson-AZ-85353/58626898_zpid/,33.431999999999995,-112.241,2017-11-16,2017-11-16
9023660,23829074,"3140 E Michigan Ave, Phoenix, AZ 85032 ",85032,1.522933539003101e-10,205000,https://www.zillow.com/homedetails/3140-E-Michigan-Ave-Phoenix-AZ-85032/7999282_zpid/,33.652,-112.014,2017-11-10,2017-11-10
9012337,23837926,"3324 E Thunderbird Rd, Phoenix, AZ 85032 ",85032,1.5114685047394202e-10,210000,https://www.zillow.com/homedetails/3324-E-Thunderbird-Rd-Phoenix-AZ-85032/8011849_zpid/,33.6116,-112.01100000000001,2017-11-16,2017-11-16
9022220,23813743,"3934 W Sheridan St, Phoenix, AZ 85009 ",85009,1.492084565618985e-10,175000,https://www.zillow.com/homedetails/3934-W-Sheridan-St-Phoenix-AZ-85009/7512512_zpid/,33.4754,-112.145,2017-10-28,2017-10-28
5350446,8400473,"85O21ORANGEWOOD Ave, Phoenix, AZ 85021 ",85021,1.4715761704918496e-10,207000,http://www.zillow.com/homedetails/85O21ORANGEWOOD-Ave-Phoenix-AZ-85021/2096087831_zpid/,33.5453,-112.075,2016-12-08,2016-12-08
1466647,23827283,"17474 N 92nd Gln, Peoria, AZ 85382 ",85382,1.4655417789497735e-10,239900,https://www.zillow.com/homedetails/17474-N-92nd-Gln-Peoria-AZ-85382/95181812_zpid/,33.6427,-112.259,2017-11-07,2017-11-07
562411,23829399,"1416 W 6th Dr, Mesa, AZ 85202 ",85202,1.416198942598778e-10,208900,https://www.zillow.com/homedetails/1416-W-6th-Dr-Mesa-AZ-85202/7604520_zpid/,33.4028,-111.86200000000001,2017-11-09,2017-11-09
9022729,23819770,"12221 N 38th Pl, Phoenix, AZ 85032 ",85032,1.389992458669211e-10,219900,https://www.zillow.com/homedetails/12221-N-38th-Pl-Phoenix-AZ-85032/7820907_zpid/,33.598,-111.999,2017-11-03,2017-11-03
352598,23759699,"7130 W Whyman Ave, Phoenix, AZ 85043 ",85043,1.3872233574986667e-10,184900,https://www.zillow.com/homedetails/7130-W-Whyman-Ave-Phoenix-AZ-85043/50186003_zpid/,33.428000000000004,-112.214,2017-10-21,2017-10-21
359488,23526402,"2409 S 90th Gln, Tolleson, AZ 85353 ",85353,1.38711230147594e-10,204900,https://www.zillow.com/homedetails/2409-S-90th-Gln-Tolleson-AZ-85353/67772730_zpid/,33.425,-112.25399999999999,2017-10-11,2017-10-11
17178,22720130,"14813 N 35th St, Phoenix, AZ 85032 ",85032,1.3811589840354467e-10,204900,https://www.zillow.com/homedetails/14813-N-35th-St-Phoenix-AZ-85032/8014278_zpid/,33.6214,-112.006,2017-09-25,2017-09-25
9023876,23833717,"12239 N 38th Pl, Phoenix, AZ 85032 ",85032,1.326523280223959e-10,249900,https://www.zillow.com/homedetails/12239-N-38th-Pl-Phoenix-AZ-85032/7820910_zpid/,33.5986,-111.999,2017-11-14,2017-11-14
8995966,23839211,"3707 E Joan De Arc Ave, Phoenix, AZ 85032 ",85032,1.3257147672385636e-10,249900,https://www.zillow.com/homedetails/3707-E-Joan-De-Arc-Ave-Phoenix-AZ-85032/7813697_zpid/,33.6089,-112.00200000000001,2017-11-13,2017-11-13
8976427,23837602,"3836 W Vernon Ave, Phoenix, AZ 85009 ",85009,1.3177557499869351e-10,169900,https://www.zillow.com/homedetails/3836-W-Vernon-Ave-Phoenix-AZ-85009/7510560_zpid/,33.4744,-112.14200000000001,2017-11-20,2017-11-20
43841,22301783,"8133 W Pima St, Phoenix, AZ 85043 ",85043,1.3064104763071262e-10,180000,https://www.zillow.com/homedetails/8133-W-Pima-St-Phoenix-AZ-85043/60047272_zpid/,33.4329,-112.236,2017-07-11,2017-07-11
387572,22707783,"2210 W Cactus Rd, Phoenix, AZ 85029 ",85029,1.301247908111421e-10,155000,https://www.zillow.com/homedetails/2210-W-Cactus-Rd-Phoenix-AZ-85029/7738653_zpid/,33.5968,-112.10600000000001,2017-09-22,2017-09-22
43818,23819082,"8128 W Papago St, Phoenix, AZ 85043 ",85043,1.2972444463424404e-10,199900,https://www.zillow.com/homedetails/8128-W-Papago-St-Phoenix-AZ-85043/60047290_zpid/,33.4345,-112.235,2017-11-02,2017-11-02
359302,23814410,"2021 S 83rd Dr, Tolleson, AZ 85353 ",85353,1.2804624142201075e-10,197900,https://www.zillow.com/homedetails/2021-S-83rd-Dr-Tolleson-AZ-85353/59271300_zpid/,33.4288,-112.23899999999999,2017-10-29,2017-10-29
361380,23818137,"8601 W Flavia Hvn, Tolleson, AZ 85353 ",85353,1.2536714658986676e-10,245000,https://www.zillow.com/homedetails/8601-W-Flavia-Hvn-Tolleson-AZ-85353/59271170_zpid/,33.4241,-112.245,2017-11-02,2017-11-02
625494,23833917,"1522 W Plana Ave, Mesa, AZ 85202 ",85202,1.252699808406608e-10,240000,https://www.zillow.com/homedetails/1522-W-Plana-Ave-Mesa-AZ-85202/8172015_zpid/,33.3588,-111.866,2017-11-16,2017-11-16
9022423,23821993,"8509 W Watkins St, Tolleson, AZ 85353 ",85353,1.2172554137583562e-10,200000,https://www.zillow.com/homedetails/8509-W-Watkins-St-Tolleson-AZ-85353/59271432_zpid/,33.4257,-112.244,2017-11-06,2017-11-06
9021649,23828974,"13219 N 27th Pl, Phoenix, AZ 85032 ",85032,1.1067141458471808e-10,240000,https://www.zillow.com/homedetails/13219-N-27th-Pl-Phoenix-AZ-85032/7815370_zpid/,33.6068,-112.023,2017-11-09,2017-11-09
9016917,22713964,"16415 N 29th Pl, Phoenix, AZ 85032 ",85032,1.0773145289360595e-10,239000,https://www.zillow.com/homedetails/16415-N-29th-Pl-Phoenix-AZ-85032/8005881_zpid/,33.6358,-112.01899999999999,2017-09-24,2017-09-24
687768,22691896,"3239 E Yale St, Phoenix, AZ 85008 ",85008,1.0478804003758296e-10,249500,https://www.zillow.com/homedetails/3239-E-Yale-St-Phoenix-AZ-85008/7541022_zpid/,33.4757,-112.01100000000001,2017-09-18,2017-09-18
7414060,13288806,"2040 N 72nd Ln, Phoenix, AZ 85035 ",85035,1.041518614861045e-10,200000,https://www.zillow.com/homedetails/2040-N-72nd-Ln-Phoenix-AZ-85035/2095313780_zpid/,33.4705,-112.215,2017-02-13,2017-02-13
39711,23836391,"1514 S 80th Ln, Phoenix, AZ 85043 ",85043,1.0357288358188283e-10,220000,https://www.zillow.com/homedetails/1514-S-80th-Ln-Phoenix-AZ-85043/59271788_zpid/,33.4339,-112.23299999999999,2017-11-16,2017-11-16
639679,23822703,"606 W Laguna Azul Ave, Mesa, AZ 85210 ",85210,1.01500250852655e-10,234900,https://www.zillow.com/homedetails/606-W-Laguna-Azul-Ave-Mesa-AZ-85210/8170728_zpid/,33.3729,-111.84700000000001,2017-11-08,2017-11-08
8986114,23821731,"3634 E Yale St, Phoenix, AZ 85008 ",85008,1.0132158528697007e-10,240000,https://www.zillow.com/homedetails/3634-E-Yale-St-Phoenix-AZ-85008/7541369_zpid/,33.4761,-112.00299999999999,2017-11-04,2017-11-04
9022041,23810319,"3120 W Pierce St, Phoenix, AZ 85009 ",85009,1.007344852626114e-10,124900,https://www.zillow.com/homedetails/3120-W-Pierce-St-Phoenix-AZ-85009/7513849_zpid/,33.4559,-112.12700000000001,2017-10-27,2017-10-27
8978672,23828152,"8517 W Watkins St, Tolleson, AZ 85353 ",85353,9.767305528377103e-11,199900,https://www.zillow.com/homedetails/8517-W-Watkins-St-Tolleson-AZ-85353/59271434_zpid/,33.4257,-112.244,2017-11-14,2017-11-14
349412,23828117,"6302 W Gross Ave, Phoenix, AZ 85043 ",85043,9.639708825652219e-11,215000,https://www.zillow.com/homedetails/6302-W-Gross-Ave-Phoenix-AZ-85043/53206291_zpid/,33.4294,-112.196,2017-11-13,2017-11-13
9001923,23834129,"3520 E Monica Ave, Phoenix, AZ 85032 ",85032,9.571752079415183e-11,249000,https://www.zillow.com/homedetails/3520-E-Monica-Ave-Phoenix-AZ-85032/7998164_zpid/,33.644,-112.006,2017-11-09,2017-11-09
559806,23840296,"1320 W Pecos Ave, Mesa, AZ 85202 ",85202,9.563871296108591e-11,235900,https://www.zillow.com/homedetails/1320-W-Pecos-Ave-Mesa-AZ-85202/8171833_zpid/,33.36,-111.861,2017-11-17,2017-11-17
351306,23828236,"4119 W Monte Vista Rd, Phoenix, AZ 85009 ",85009,9.359754257650812e-11,164900,https://www.zillow.com/homedetails/4119-W-Monte-Vista-Rd-Phoenix-AZ-85009/7511620_zpid/,33.4715,-112.148,2017-11-14,2017-11-14
9019087,22731125,"3117 E Charleston Ave, Phoenix, AZ 85032 ",85032,9.282492296646653e-11,239999,https://www.zillow.com/homedetails/3117-E-Charleston-Ave-Phoenix-AZ-85032/7999065_zpid/,33.6498,-112.015,2017-09-30,2017-09-30
359548,23837385,"2450 S 88th Ln, Tolleson, AZ 85353 ",85353,9.194420285042857e-11,184000,https://www.zillow.com/homedetails/2450-S-88th-Ln-Tolleson-AZ-85353/67772853_zpid/,33.4246,-112.251,2017-11-20,2017-11-20
209311,23681046,"3420 E Cambridge Ave, Phoenix, AZ 85008 ",85008,8.655402748028516e-11,200000,http://www.zillow.com/homedetails/3420-E-Cambridge-Ave-Phoenix-AZ-85008/81975682_zpid,33.478,-112.008,2017-10-06,2017-10-06
9023068,23823620,"15224 N 30th St, Phoenix, AZ 85032 ",85032,8.605981114098376e-11,229000,https://www.zillow.com/homedetails/15224-N-30th-St-Phoenix-AZ-85032/8011594_zpid/,33.6253,-112.01799999999999,2017-11-07,2017-11-07
1114416,23820184,"1617 W Stottler Dr, Chandler, AZ 85224 ",85224,8.586538649622545e-11,229900,https://www.zillow.com/homedetails/1617-W-Stottler-Dr-Chandler-AZ-85224/8193816_zpid/,33.3325,-111.87,2017-11-03,2017-11-03
1096718,23832148,"884 W Dublin St, Chandler, AZ 85225 ",85225,8.377803626398302e-11,235000,https://www.zillow.com/homedetails/884-W-Dublin-St-Chandler-AZ-85225/8186411_zpid/,33.3188,-111.85799999999999,2017-11-13,2017-11-13
1115786,23756148,"1723 N Longmore St, Chandler, AZ 85224 ",85224,8.351591861556122e-11,229900,https://www.zillow.com/homedetails/1723-N-Longmore-St-Chandler-AZ-85224/8193731_zpid/,33.3324,-111.868,2017-10-18,2017-10-18
9024089,23838034,"8622 W Apache St, Tolleson, AZ 85353 ",85353,8.208359277968298e-11,214000,https://www.zillow.com/homedetails/8622-W-Apache-St-Tolleson-AZ-85353/58759226_zpid/,33.4309,-112.245,2017-11-20,2017-11-20
7405341,13303918,"3626 N 37th St, Phoenix, AZ 85018 ",85018,8.181272943673405e-11,119000,https://www.zillow.com/homedetails/3626-N-37th-St-Phoenix-AZ-85018/2104158165_zpid/,33.4905,-112.00200000000001,2017-01-31,2017-01-31
556437,23823003,"2345 N 29th St, Phoenix, AZ 85008 ",85008,8.122109981001502e-11,199900,https://www.zillow.com/homedetails/2345-N-29th-St-Phoenix-AZ-85008/59269809_zpid/,33.4748,-112.01899999999999,2017-11-07,2017-11-07
2044933,22443059,"1446 W Bentley St, Mesa, AZ 85201 ",85201,8.101802802028184e-11,220000,https://www.zillow.com/homedetails/1446-W-Bentley-St-Mesa-AZ-85201/7610672_zpid/,33.4202,-111.86200000000001,2017-05-09,2017-05-09
476853,23831514,"1614 N 65th Ave, Phoenix, AZ 85035 ",85035,7.781155083858264e-11,167000,https://www.zillow.com/homedetails/1614-N-65th-Ave-Phoenix-AZ-85035/7490471_zpid/,33.466,-112.199,2017-11-02,2017-11-02
8977160,23825434,"16231 N 91st Dr, Peoria, AZ 85382 ",85382,7.77105827183553e-11,233000,https://www.zillow.com/homedetails/16231-N-91st-Dr-Peoria-AZ-85382/2123153916_zpid/,33.6316,-112.25200000000001,2017-11-13,2017-11-13
495328,23837255,"6239 W Encanto Blvd, Phoenix, AZ 85035 ",85035,7.551814317668848e-11,155000,https://www.zillow.com/homedetails/6239-W-Encanto-Blvd-Phoenix-AZ-85035/7491160_zpid/,33.473,-112.195,2017-11-17,2017-11-17
9021756,23800765,"8749 W Fullam St, Peoria, AZ 85382 ",85382,7.534058030535621e-11,199500,https://www.zillow.com/homedetails/8749-W-Fullam-St-Peoria-AZ-85382/7898649_zpid/,33.6501,-112.24799999999999,2017-10-24,2017-10-24
17802,23821964,"8338 W Bluefield Ave, Peoria, AZ 85382 ",85382,7.443495945927284e-11,225000,https://www.zillow.com/homedetails/8338-W-Bluefield-Ave-Peoria-AZ-85382/8129243_zpid/,33.6507,-112.23899999999999,2017-11-04,2017-11-04
482075,23837218,"2525 N 61st Dr, Phoenix, AZ 85035 ",85035,7.431594166495334e-11,179000,https://www.zillow.com/homedetails/2525-N-61st-Dr-Phoenix-AZ-85035/7491502_zpid/,33.4755,-112.19200000000001,2017-11-18,2017-11-18
639551,23834269,"604 W Kiva Ave, Mesa, AZ 85210 ",85210,7.377613054821953e-11,240000,https://www.zillow.com/homedetails/604-W-Kiva-Ave-Mesa-AZ-85210/8170162_zpid/,33.3769,-111.84700000000001,2017-11-09,2017-11-09
483037,23837219,"2614 N 46th Ave, Phoenix, AZ 85035 ",85035,7.364373856954511e-11,170000,https://www.zillow.com/homedetails/2614-N-46th-Ave-Phoenix-AZ-85035/7499348_zpid/,33.4774,-112.15799999999999,2017-11-16,2017-11-16
644243,23819377,"2213 W Del Campo Cir, Mesa, AZ 85202 ",85202,7.308440810900711e-11,215000,https://www.zillow.com/homedetails/2213-W-Del-Campo-Cir-Mesa-AZ-85202/7602126_zpid/,33.4009,-111.87899999999999,2017-11-03,2017-11-03
496823,23831910,"6622 W Virginia Ave, Phoenix, AZ 85035 ",85035,7.247326192660647e-11,163900,https://www.zillow.com/homedetails/6622-W-Virginia-Ave-Phoenix-AZ-85035/7490202_zpid/,33.4769,-112.20200000000001,2017-11-10,2017-11-10
337383,22731597,"2228 W Orangewood Ave, Phoenix, AZ 85021 ",85021,7.231034158382585e-11,249900,https://www.zillow.com/homedetails/2228-W-Orangewood-Ave-Phoenix-AZ-85021/7778758_zpid/,33.5462,-112.10700000000001,2017-09-28,2017-09-28
9021735,23800650,"4211 N 10th St, Phoenix, AZ 85014 ",85014,7.187883253278323e-11,175000,https://www.zillow.com/homedetails/4211-N-10th-St-Phoenix-AZ-85014/7769742_zpid/,33.4967,-112.06,2017-10-24,2017-10-24
8981328,22485420,"1411 E Whitton Ave, Phoenix, AZ 85014 ",85014,6.868805004405799e-11,160000,https://www.zillow.com/homedetails/1411-E-Whitton-Ave-Phoenix-AZ-85014/7534776_zpid/,33.4887,-112.051,2017-07-31,2017-07-31
1129854,23830354,"549 N Arrowhead Dr, Chandler, AZ 85224 ",85224,6.689228603544366e-11,209000,https://www.zillow.com/homedetails/549-N-Arrowhead-Dr-Chandler-AZ-85224/8185610_zpid/,33.3129,-111.867,2017-11-09,2017-11-09
487692,22687109,"5040 W Edgemont Ave, Phoenix, AZ 85035 ",85035,6.599913578974433e-11,158900,https://www.zillow.com/homedetails/5040-W-Edgemont-Ave-Phoenix-AZ-85035/7493951_zpid/,33.4802,-112.167,2017-09-13,2017-09-13
8969496,23512165,"2433 E Karen Dr, Phoenix, AZ 85032 ",85032,6.515860466630474e-11,247900,https://www.zillow.com/homedetails/2433-E-Karen-Dr-Phoenix-AZ-85032/8013849_zpid/,33.6257,-112.029,2017-10-02,2017-10-02
348914,23822646,"3525 W Melvin St, Phoenix, AZ 85009 ",85009,6.359715454928228e-11,159900,https://www.zillow.com/homedetails/3525-W-Melvin-St-Phoenix-AZ-85009/7505973_zpid/,33.4521,-112.13600000000001,2017-11-07,2017-11-07
1121,23819882,"2035 N 64th Ln, Phoenix, AZ 85035 ",85035,6.35272591184875e-11,160000,https://www.zillow.com/homedetails/2035-N-64th-Ln-Phoenix-AZ-85035/7490712_zpid/,33.4708,-112.198,2017-11-03,2017-11-03
496469,22536294,"6526 W Holly St, Phoenix, AZ 85035 ",85035,6.335231670269801e-11,169499,https://www.zillow.com/homedetails/6526-W-Holly-St-Phoenix-AZ-85035/7490333_zpid/,33.471,-112.20100000000001,2017-07-18,2017-07-18
349028,23836396,"3535 W Moreland St, Phoenix, AZ 85009 ",85009,5.7906212641014544e-11,99900,https://www.zillow.com/homedetails/3535-W-Moreland-St-Phoenix-AZ-85009/7505403_zpid/,33.4612,-112.13600000000001,2017-11-16,2017-11-16
39932,22540779,"2016 S 66th Ln, Phoenix, AZ 85043 ",85043,5.651886791069732e-11,213500,https://www.zillow.com/homedetails/2016-S-66th-Ln-Phoenix-AZ-85043/67773152_zpid/,33.429,-112.20299999999999,2017-08-17,2017-08-17
347659,23821801,"9425 N 11th Ave, Phoenix, AZ 85021 ",85021,5.573975319092042e-11,127000,https://www.zillow.com/homedetails/9425-N-11th-Ave-Phoenix-AZ-85021/7782046_zpid/,33.5723,-112.086,2017-11-02,2017-11-02
9021565,23760091,"6974 W Juniper Ave, Peoria, AZ 85382 ",85382,5.42868326139396e-11,219900,https://www.zillow.com/homedetails/6974-W-Juniper-Ave-Peoria-AZ-85382/7903019_zpid/,33.6365,-112.21,2017-10-21,2017-10-21
481066,22742303,"2332 N 72nd Dr, Phoenix, AZ 85035 ",85035,5.42276761844553e-11,165000,https://www.zillow.com/homedetails/2332-N-72nd-Dr-Phoenix-AZ-85035/7474687_zpid/,33.4742,-112.21600000000001,2017-10-06,2017-10-06
9023277,23826824,"2149 W 1st Pl, Mesa, AZ 85201 ",85201,5.095542896395942e-11,200000,https://www.zillow.com/homedetails/2149-W-1st-Pl-Mesa-AZ-85201/7610570_zpid/,33.4178,-111.87799999999999,2017-11-10,2017-11-10
489939,23818555,"5411 W Palm Ln, Phoenix, AZ 85035 ",85035,5.0508580259998114e-11,159900,https://www.zillow.com/homedetails/5411-W-Palm-Ln-Phoenix-AZ-85035/7493928_zpid/,33.4695,-112.176,2017-11-02,2017-11-02
9000590,22678276,"2725 N 40th Ave, Phoenix, AZ 85009 ",85009,5.047427632946831e-11,162900,https://www.zillow.com/homedetails/2725-N-40th-Ave-Phoenix-AZ-85009/7512795_zpid/,33.4798,-112.145,2017-09-15,2017-09-15
497391,17864024,"6741 W Virginia Ave, Phoenix, AZ 85035 ",85035,4.860430280281731e-11,145800,https://www.zillow.com/homedetails/6741-W-Virginia-Ave-Phoenix-AZ-85035/7475866_zpid/,33.4765,-112.205,2017-03-10,2017-03-10
501356,23828460,"7762 W Pipestone Pl, Phoenix, AZ 85035 ",85035,4.8502496798389816e-11,185000,https://www.zillow.com/homedetails/7762-W-Pipestone-Pl-Phoenix-AZ-85035/95118267_zpid/,33.4726,-112.226,2017-10-25,2017-10-25
9021611,23794811,"1134 W 2nd Pl, Mesa, AZ 85201 ",85201,4.7489592758479294e-11,234900,https://www.zillow.com/homedetails/1134-W-2nd-Pl-Mesa-AZ-85201/7611239_zpid/,33.4186,-111.85600000000001,2017-10-22,2017-10-22
9021585,23824122,"12612 N 79th Ave, Peoria, AZ 85381 ",85381,4.6555231615774146e-11,225000,https://www.zillow.com/homedetails/12612-N-79th-Ave-Peoria-AZ-85381/8101178_zpid/,33.5997,-112.229,2017-11-09,2017-11-09
215329,22594254,"1402 E Mescal St, Phoenix, AZ 85020 ",85020,4.535841979282961e-11,249900,https://www.zillow.com/homedetails/1402-E-Mescal-St-Phoenix-AZ-85020/63200956_zpid/,33.5873,-112.052,2017-08-27,2017-08-27
9012379,22682953,"928 N Central Dr, Chandler, AZ 85224 ",85224,4.4185225641561084e-11,249000,https://www.zillow.com/homedetails/928-N-Central-Dr-Chandler-AZ-85224/8186076_zpid/,33.3193,-111.863,2017-09-15,2017-09-15
9016805,23811096,"8432 W Wethersfield Rd, Peoria, AZ 85381 ",85381,4.2624477130914e-11,237900,https://www.zillow.com/homedetails/8432-W-Wethersfield-Rd-Peoria-AZ-85381/7914507_zpid/,33.5961,-112.241,2017-10-27,2017-10-27
8944881,17734724,"3302 W Edgemont Ave, Phoenix, AZ 85009 ",85009,4.2469351757409256e-11,138000,https://www.zillow.com/homedetails/3302-W-Edgemont-Ave-Phoenix-AZ-85009/7510406_zpid/,33.4799,-112.13,2017-05-05,2017-05-05
493312,23837604,"5922 W Holly St, Phoenix, AZ 85035 ",85035,4.1634953072418324e-11,194000,https://www.zillow.com/homedetails/5922-W-Holly-St-Phoenix-AZ-85035/7491437_zpid/,33.4712,-112.18700000000001,2017-11-20,2017-11-20
331776,22565895,"10418 N 18th Ave, Phoenix, AZ 85021 ",85021,4.0038537665344574e-11,199000,https://www.zillow.com/homedetails/10418-N-18th-Ave-Phoenix-AZ-85021/7781375_zpid/,33.5813,-112.098,2017-08-23,2017-08-23
1935608,23825006,"3358 W Portland St, Phoenix, AZ 85009 ",85009,3.9193264007904395e-11,120000,https://www.zillow.com/homedetails/3358-W-Portland-St-Phoenix-AZ-85009/7513257_zpid/,33.4599,-112.131,2017-11-09,2017-11-09
495290,23828465,"6237 W Monte Vista Rd, Phoenix, AZ 85035 ",85035,3.7463248964177135e-11,183000,https://www.zillow.com/homedetails/6237-W-Monte-Vista-Rd-Phoenix-AZ-85035/7491037_zpid/,33.4705,-112.194,2017-11-13,2017-11-13
484960,23758546,"2837 N 72nd Dr, Phoenix, AZ 85035 ",85035,3.6697660281830554e-11,169900,https://www.zillow.com/homedetails/2837-N-72nd-Dr-Phoenix-AZ-85035/7474537_zpid/,33.4793,-112.21600000000001,2017-10-20,2017-10-20
483392,23840438,"2628 N 65th Dr, Phoenix, AZ 85035 ",85035,3.554903435839582e-11,157500,https://www.zillow.com/homedetails/2628-N-65th-Dr-Phoenix-AZ-85035/7490214_zpid/,33.4776,-112.2,2017-11-22,2017-11-22
1109968,23827087,"1231 W Tulsa St, Chandler, AZ 85224 ",85224,3.553458906649741e-11,245000,https://www.zillow.com/homedetails/1231-W-Tulsa-St-Chandler-AZ-85224/8185626_zpid/,33.3123,-111.865,2017-11-11,2017-11-11
477931,23837214,"1802 N 66th Ave, Phoenix, AZ 85035 ",85035,3.547190975556872e-11,150000,https://www.zillow.com/homedetails/1802-N-66th-Ave-Phoenix-AZ-85035/7490498_zpid/,33.4678,-112.20200000000001,2017-11-18,2017-11-18
9024018,23835783,"1725 W Auburn St, Mesa, AZ 85201 ",85201,3.4798793580467087e-11,189900,https://www.zillow.com/homedetails/1725-W-Auburn-St-Mesa-AZ-85201/7612538_zpid/,33.4176,-111.869,2017-11-16,2017-11-16
9006877,23829688,"2050 W 2nd St, Mesa, AZ 85201 ",85201,3.475475401399262e-11,190000,https://www.zillow.com/homedetails/2050-W-2nd-St-Mesa-AZ-85201/7610365_zpid/,33.4189,-111.876,2017-11-09,2017-11-09
483950,23828214,"2680 N 73rd Gln, Phoenix, AZ 85035 ",85035,3.406924078584162e-11,183900,https://www.zillow.com/homedetails/2680-N-73rd-Gln-Phoenix-AZ-85035/95158912_zpid/,33.4777,-112.21799999999999,2017-11-13,2017-11-13
496190,23821105,"6445 W Almeria Rd, Phoenix, AZ 85035 ",85035,3.394247020399129e-11,149000,https://www.zillow.com/homedetails/6445-W-Almeria-Rd-Phoenix-AZ-85035/7490542_zpid/,33.4665,-112.199,2017-11-04,2017-11-04
43395,23752723,"7911 W Hilton Ave, Phoenix, AZ 85043 ",85043,3.3825804910126177e-11,232000,https://www.zillow.com/homedetails/7911-W-Hilton-Ave-Phoenix-AZ-85043/50893343_zpid/,33.4289,-112.23,2017-10-15,2017-10-15
9023674,23835103,"1831 W Sunnyslope Ln, Phoenix, AZ 85021 ",85021,3.228024118964153e-11,239000,https://www.zillow.com/homedetails/1831-W-Sunnyslope-Ln-Phoenix-AZ-85021/7781056_zpid/,33.5697,-112.09899999999999,2017-11-17,2017-11-17
503618,23782296,"2007 N 78th Ave, Phoenix, AZ 85035 ",85035,3.186985179555354e-11,170000,https://www.zillow.com/homedetails/2007-N-78th-Ave-Phoenix-AZ-85035/82823153_zpid/,33.4698,-112.227,2017-02-16,2017-02-16
9021398,23835196,"15243 N 67th Dr, Peoria, AZ 85381 ",85381,3.1376593162086116e-11,225000,https://www.zillow.com/homedetails/15243-N-67th-Dr-Peoria-AZ-85381/60048597_zpid/,33.6235,-112.20299999999999,2017-11-17,2017-11-17
1115381,23840745,"1710 N Comanche Dr, Chandler, AZ 85224 ",85224,3.1200175911864155e-11,243000,https://www.zillow.com/homedetails/1710-N-Comanche-Dr-Chandler-AZ-85224/8194464_zpid/,33.330999999999996,-111.863,2017-11-23,2017-11-23
9023680,23830959,"2112 W Cactus Wren Dr, Phoenix, AZ 85021 ",85021,3.110406527534055e-11,180000,https://www.zillow.com/homedetails/2112-W-Cactus-Wren-Dr-Phoenix-AZ-85021/7778988_zpid/,33.5396,-112.105,2017-11-14,2017-11-14
1107574,23832074,"1050 W Estrella Dr, Chandler, AZ 85224 ",85224,3.1024541209577315e-11,248000,https://www.zillow.com/homedetails/1050-W-Estrella-Dr-Chandler-AZ-85224/8194446_zpid/,33.3311,-111.861,2017-11-13,2017-11-13
8989020,22594955,"2518 N 73rd Dr, Phoenix, AZ 85035 ",85035,3.06313751184256e-11,180500,https://www.zillow.com/homedetails/2518-N-73rd-Dr-Phoenix-AZ-85035/95083161_zpid/,33.4754,-112.21700000000001,2017-08-28,2017-08-28
483706,22742318,"2639 N 63rd Ave, Phoenix, AZ 85035 ",85035,3.035551539641338e-11,197000,https://www.zillow.com/homedetails/2639-N-63rd-Ave-Phoenix-AZ-85035/7491672_zpid/,33.4781,-112.195,2017-10-06,2017-10-06
484854,23817893,"2833 N 73rd Dr, Phoenix, AZ 85035 ",85035,2.945285657796466e-11,190000,https://www.zillow.com/homedetails/2833-N-73rd-Dr-Phoenix-AZ-85035/92692586_zpid/,33.4796,-112.21600000000001,2017-11-01,2017-11-01
43124,23755414,"7301 W Payson Rd, Phoenix, AZ 85043 ",85043,2.919839021424456e-11,195000,https://www.zillow.com/homedetails/7301-W-Payson-Rd-Phoenix-AZ-85043/60975135_zpid/,33.4225,-112.21700000000001,2017-10-18,2017-10-18
9022465,23833054,"3308 W Cambridge Ave, Phoenix, AZ 85009 ",85009,2.8498725496024854e-11,178000,https://www.zillow.com/homedetails/3308-W-Cambridge-Ave-Phoenix-AZ-85009/7510476_zpid/,33.4775,-112.13,2017-11-15,2017-11-15
1466624,23831203,"17462 N 92nd Gln, Peoria, AZ 85382 ",85382,2.7261232801276804e-11,228000,https://www.zillow.com/homedetails/17462-N-92nd-Gln-Peoria-AZ-85382/95103614_zpid/,33.6425,-112.259,2017-11-14,2017-11-14
9004346,22704088,"2412 N 73rd Ln, Phoenix, AZ 85035 ",85035,2.6703789016299e-11,219000,https://www.zillow.com/homedetails/2412-N-73rd-Ln-Phoenix-AZ-85035/95085660_zpid/,33.4744,-112.21799999999999,2017-09-21,2017-09-21
336902,23813533,"2125 W State Ave, Phoenix, AZ 85021 ",85021,2.6601131381866535e-11,215000,https://www.zillow.com/homedetails/2125-W-State-Ave-Phoenix-AZ-85021/7778867_zpid/,33.5442,-112.105,2017-10-28,2017-10-28
9018879,23808777,"4021 W Roosevelt St, Phoenix, AZ 85009 ",85009,2.6359366240072454e-11,179990,https://www.zillow.com/homedetails/4021-W-Roosevelt-St-Phoenix-AZ-85009/2092569655_zpid/,33.4585,-112.147,2017-10-26,2017-10-26
9021757,23840669,"9008 W Charleston Ave, Peoria, AZ 85382 ",85382,2.631747207431382e-11,244900,https://www.zillow.com/homedetails/9008-W-Charleston-Ave-Peoria-AZ-85382/8105059_zpid/,33.6467,-112.25299999999999,2017-11-17,2017-11-17
9023949,23835092,"1227 E Eva St, Phoenix, AZ 85020 ",85020,2.6204979227496478e-11,175000,https://www.zillow.com/homedetails/1227-E-Eva-St-Phoenix-AZ-85020/7787121_zpid/,33.5684,-112.055,2017-11-16,2017-11-16
1091335,23835959,"680 W Shawnee Dr, Chandler, AZ 85225 ",85225,2.615787735641497e-11,234999,https://www.zillow.com/homedetails/680-W-Shawnee-Dr-Chandler-AZ-85225/8200512_zpid/,33.3447,-111.853,2017-11-17,2017-11-17
484005,23821708,"2696 N 73rd Gln, Phoenix, AZ 85035 ",85035,2.576002939205341e-11,210000,https://www.zillow.com/homedetails/2696-N-73rd-Gln-Phoenix-AZ-85035/95155175_zpid/,33.4779,-112.21799999999999,2017-10-31,2017-10-31
9013905,22694429,"2418 E Dahlia Dr, Phoenix, AZ 85032 ",85032,2.570328263332535e-11,225000,https://www.zillow.com/homedetails/2418-E-Dahlia-Dr-Phoenix-AZ-85032/7820474_zpid/,33.6034,-112.03,2017-09-18,2017-09-18
490976,23837976,"5531 W Edgemont Ave, Phoenix, AZ 85035 ",85035,2.5513246798917642e-11,156999,https://www.zillow.com/homedetails/5531-W-Edgemont-Ave-Phoenix-AZ-85035/7491827_zpid/,33.4795,-112.179,2017-11-16,2017-11-16
9018054,23821680,"18560 N 85th Ave, Peoria, AZ 85382 ",85382,2.5211685761607737e-11,249900,https://www.zillow.com/homedetails/18560-N-85th-Ave-Peoria-AZ-85382/8129059_zpid/,33.6518,-112.243,2017-11-05,2017-11-05
8989019,22747254,"2049 N 77th Gln, Phoenix, AZ 85035 ",85035,2.4910335924830577e-11,168250,https://www.zillow.com/homedetails/2049-N-77th-Gln-Phoenix-AZ-85035/95149994_zpid/,33.4706,-112.226,2017-10-05,2017-10-05
9021795,23822865,"747 W Rosal Pl, Chandler, AZ 85225 ",85225,2.4449810180553207e-11,249800,https://www.zillow.com/homedetails/747-W-Rosal-Pl-Chandler-AZ-85225/8177685_zpid/,33.3412,-111.855,2017-11-07,2017-11-07
483296,23753434,"2625 N 73rd Dr, Phoenix, AZ 85035 ",85035,2.3626757313179872e-11,225000,https://www.zillow.com/homedetails/2625-N-73rd-Dr-Phoenix-AZ-85035/95093273_zpid/,33.4771,-112.21600000000001,2017-09-07,2017-09-07
1878732,23824216,"8133 W Larkspur Dr, Peoria, AZ 85381 ",85381,2.3439307580472236e-11,249900,https://www.zillow.com/homedetails/8133-W-Larkspur-Dr-Peoria-AZ-85381/8100861_zpid/,33.5992,-112.235,2017-11-07,2017-11-07
347034,23817446,"9213 N 18th Ave, Phoenix, AZ 85021 ",85021,2.342901256202932e-11,200000,https://www.zillow.com/homedetails/9213-N-18th-Ave-Phoenix-AZ-85021/7781043_zpid/,33.5697,-112.09700000000001,2017-11-01,2017-11-01
24092,23834421,"9607 N 1st Ave, Phoenix, AZ 85021 ",85021,2.228339886233874e-11,223000,https://www.zillow.com/homedetails/9607-N-1st-Ave-Phoenix-AZ-85021/7788860_zpid/,33.5732,-112.075,2017-11-15,2017-11-15
1466691,23821671,"17797 N 89th Dr, Peoria, AZ 85382 ",85382,2.2088787839437335e-11,242000,https://www.zillow.com/homedetails/17797-N-89th-Dr-Peoria-AZ-85382/71616751_zpid/,33.6449,-112.251,2017-11-05,2017-11-05
477121,23838363,"1623 N 77th Dr, Phoenix, AZ 85035 ",85035,2.190546689348962e-11,179000,https://www.zillow.com/homedetails/1623-N-77th-Dr-Phoenix-AZ-85035/81991207_zpid/,33.4664,-112.225,2017-11-20,2017-11-20
9006569,23813547,"2520 E Hillery Dr, Phoenix, AZ 85032 ",85032,2.1670798099525227e-11,240000,https://www.zillow.com/homedetails/2520-E-Hillery-Dr-Phoenix-AZ-85032/8013787_zpid/,33.6223,-112.027,2017-10-26,2017-10-26
221405,23805257,"9801 N 2nd Pl, Phoenix, AZ 85020 ",85020,2.1649368008066728e-11,225000,https://www.zillow.com/homedetails/9801-N-2nd-Pl-Phoenix-AZ-85020/55261037_zpid/,33.5752,-112.071,2017-10-22,2017-10-22
8971373,22715586,"1738 W North Ln, Phoenix, AZ 85021 ",85021,2.1609260177222593e-11,199900,https://www.zillow.com/homedetails/1738-W-North-Ln-Phoenix-AZ-85021/7781377_zpid/,33.5815,-112.09700000000001,2017-09-15,2017-09-15
9024203,23837609,"3326 W Roanoke Ave, Phoenix, AZ 85009 ",85009,2.1129905387135874e-11,179900,https://www.zillow.com/homedetails/3326-W-Roanoke-Ave-Phoenix-AZ-85009/7510426_zpid/,33.4791,-112.131,2017-11-20,2017-11-20
9017511,23821775,"7346 W Coolidge St, Phoenix, AZ 85033 ",85033,2.1125887551177322e-11,210000,https://www.zillow.com/homedetails/7346-W-Coolidge-St-Phoenix-AZ-85033/7710836_zpid/,33.5042,-112.21799999999999,2017-11-02,2017-11-02
7450963,23779216,"13854 N 91st Dr, Peoria, AZ 85381 ",85381,2.0903920544458833e-11,225000,https://www.zillow.com/homedetails/13854-N-91st-Dr-Peoria-AZ-85381/7908457_zpid/,33.6103,-112.256,2017-03-16,2017-03-16
8959592,22744660,"8143 W Windrose Dr, Peoria, AZ 85381 ",85381,2.081528726083069e-11,237500,https://www.zillow.com/homedetails/8143-W-Windrose-Dr-Peoria-AZ-85381/8101003_zpid/,33.6006,-112.235,2017-10-07,2017-10-07
386006,22677819,"1749 W Surrey Ave, Phoenix, AZ 85029 ",85029,2.0694524760129106e-11,225000,https://www.zillow.com/homedetails/1749-W-Surrey-Ave-Phoenix-AZ-85029/7784365_zpid/,33.6053,-112.098,2017-09-14,2017-09-14
1092802,23820224,"731 W Palomino Dr, Chandler, AZ 85225 ",85225,2.023800850873633e-11,245900,https://www.zillow.com/homedetails/731-W-Palomino-Dr-Chandler-AZ-85225/8177603_zpid/,33.3404,-111.855,2017-11-03,2017-11-03
8958968,23840319,"14401 N 36th St, Phoenix, AZ 85032 ",85032,2.00403877718041e-11,234900,https://www.zillow.com/homedetails/14401-N-36th-St-Phoenix-AZ-85032/8012925_zpid/,33.6169,-112.005,2017-11-21,2017-11-21
343249,23831593,"2019 N 37th Ave, Phoenix, AZ 85009 ",85009,2.0023808539725036e-11,145000,https://www.zillow.com/homedetails/2019-N-37th-Ave-Phoenix-AZ-85009/7511305_zpid/,33.4704,-112.139,2017-11-10,2017-11-10
448390,23828570,"8403 W Lewis Ave, Phoenix, AZ 85037 ",85037,1.9782641462233927e-11,160000,https://www.zillow.com/homedetails/8403-W-Lewis-Ave-Phoenix-AZ-85037/81985441_zpid/,33.4738,-112.24,2017-10-19,2017-10-19
412977,23831072,"5721 W Altadena Ave, Glendale, AZ 85304 ",85304,1.969610204451485e-11,180000,https://www.zillow.com/homedetails/5721-W-Altadena-Ave-Glendale-AZ-85304/7737677_zpid/,33.5919,-112.18299999999999,2017-11-09,2017-11-09
247335,23797270,"2232 W Sequoia Dr, Phoenix, AZ 85027 ",85027,1.8778133904372025e-11,229995,https://www.zillow.com/homedetails/2232-W-Sequoia-Dr-Phoenix-AZ-85027/7970402_zpid/,33.663000000000004,-112.10799999999999,2017-10-24,2017-10-24
9020113,23816784,"1108 N 29th Ave, Phoenix, AZ 85009 ",85009,1.8653756174147402e-11,178000,https://www.zillow.com/homedetails/1108-N-29th-Ave-Phoenix-AZ-85009/7513421_zpid/,33.4604,-112.12200000000001,2017-11-01,2017-11-01
9020422,23817340,"4227 N 11th Pl, Phoenix, AZ 85014 ",85014,1.8637053909514456e-11,244900,https://www.zillow.com/homedetails/4227-N-11th-Pl-Phoenix-AZ-85014/7769603_zpid/,33.4974,-112.057,2017-11-01,2017-11-01
385698,23838736,"1711 W Wood Dr, Phoenix, AZ 85029 ",85029,1.8102369087918324e-11,235000,https://www.zillow.com/homedetails/1711-W-Wood-Dr-Phoenix-AZ-85029/7784422_zpid/,33.6044,-112.096,2017-11-17,2017-11-17
9012842,23818998,"8008 W Corrine Dr, Peoria, AZ 85381 ",85381,1.7950159271228676e-11,224900,https://www.zillow.com/homedetails/8008-W-Corrine-Dr-Peoria-AZ-85381/8101079_zpid/,33.6,-112.23200000000001,2017-11-01,2017-11-01
9022123,23838022,"8026 W Windrose Dr, Peoria, AZ 85381 ",85381,1.7908269039567346e-11,239000,https://www.zillow.com/homedetails/8026-W-Windrose-Dr-Peoria-AZ-85381/8101102_zpid/,33.6007,-112.23200000000001,2017-11-16,2017-11-16
8964310,23840351,"16334 N 73rd Ln, Peoria, AZ 85382 ",85382,1.7445996860852748e-11,230000,https://www.zillow.com/homedetails/16334-N-73rd-Ln-Peoria-AZ-85382/82827741_zpid/,33.6333,-112.21799999999999,2017-11-21,2017-11-21
384323,23822183,"1344 W Joan De Arc Ave, Phoenix, AZ 85029 ",85029,1.7058364140567134e-11,222500,https://www.zillow.com/homedetails/1344-W-Joan-De-Arc-Ave-Phoenix-AZ-85029/7784468_zpid/,33.6078,-112.089,2017-11-06,2017-11-06
8985061,23798423,"1918 E Willetta St, Phoenix, AZ 85006 ",85006,1.6287714638731164e-11,220000,https://www.zillow.com/homedetails/1918-E-Willetta-St-Phoenix-AZ-85006/7528826_zpid/,33.464,-112.04,2017-10-12,2017-10-12
9019405,22734801,"12802 N 21st Ave, Phoenix, AZ 85029 ",85029,1.627906890397291e-11,219900,https://www.zillow.com/homedetails/12802-N-21st-Ave-Phoenix-AZ-85029/7739025_zpid/,33.6019,-112.104,2017-10-03,2017-10-03
524793,23837280,"9129 W Vernon Ave, Phoenix, AZ 85037 ",85037,1.6253990777576102e-11,220000,https://www.zillow.com/homedetails/9129-W-Vernon-Ave-Phoenix-AZ-85037/67764435_zpid/,33.4726,-112.257,2017-11-18,2017-11-18
9023267,23825769,"8546 W Caribbean Ln, Peoria, AZ 85381 ",85381,1.610880404391184e-11,230000,https://www.zillow.com/homedetails/8546-W-Caribbean-Ln-Peoria-AZ-85381/8103097_zpid/,33.624,-112.245,2017-11-11,2017-11-11
394541,22734836,"3622 W Charter Oak Rd, Phoenix, AZ 85029 ",85029,1.605030529492955e-11,223000,https://www.zillow.com/homedetails/3622-W-Charter-Oak-Rd-Phoenix-AZ-85029/7742894_zpid/,33.5978,-112.137,2017-10-03,2017-10-03
9020884,23818544,"4018 W Culver St, Phoenix, AZ 85009 ",85009,1.588386445952075e-11,173900,https://www.zillow.com/homedetails/4018-W-Culver-St-Phoenix-AZ-85009/7506628_zpid/,33.463,-112.147,2017-11-02,2017-11-02
225253,23833898,"1408 E Utopia Rd, Phoenix, AZ 85024 ",85024,1.574637878784582e-11,218900,https://www.zillow.com/homedetails/1408-E-Utopia-Rd-Phoenix-AZ-85024/7995420_zpid/,33.6624,-112.052,2017-11-16,2017-11-16
412438,23834244,"5445 W Altadena Ave, Glendale, AZ 85304 ",85304,1.4978043102849538e-11,219900,https://www.zillow.com/homedetails/5445-W-Altadena-Ave-Glendale-AZ-85304/7737356_zpid/,33.5919,-112.177,2017-11-15,2017-11-15
527842,23828736,"9515 W Monte Vista Rd, Phoenix, AZ 85037 ",85037,1.4932482613260263e-11,228000,https://www.zillow.com/homedetails/9515-W-Monte-Vista-Rd-Phoenix-AZ-85037/60974977_zpid/,33.4699,-112.265,2017-10-26,2017-10-26
8945113,23759637,"7920 W Sweetwater Ave, Peoria, AZ 85381 ",85381,1.48048634491401e-11,229900,https://www.zillow.com/homedetails/7920-W-Sweetwater-Ave-Peoria-AZ-85381/8100881_zpid/,33.6029,-112.23,2017-10-19,2017-10-19
220035,23816401,"833 E Seldon Ln, Phoenix, AZ 85020 ",85020,1.4801334580836537e-11,220000,https://www.zillow.com/homedetails/833-E-Seldon-Ln-Phoenix-AZ-85020/7789529_zpid/,33.561,-112.06200000000001,2017-10-31,2017-10-31
398347,23819805,"4148 W Bloomfield Rd, Phoenix, AZ 85029 ",85029,1.474048182972963e-11,228900,https://www.zillow.com/homedetails/4148-W-Bloomfield-Rd-Phoenix-AZ-85029/7742599_zpid/,33.5988,-112.149,2017-11-03,2017-11-03
9019753,23840133,"517 N Center St, Mesa, AZ 85201 ",85201,1.472855143173873e-11,135000,https://www.zillow.com/homedetails/517-N-Center-St-Mesa-AZ-85201/7622095_zpid/,33.4245,-111.831,2017-11-20,2017-11-20
397538,23810931,"4046 W Cactus Rd, Phoenix, AZ 85029 ",85029,1.457582786644122e-11,225000,https://www.zillow.com/homedetails/4046-W-Cactus-Rd-Phoenix-AZ-85029/7742480_zpid/,33.5968,-112.146,2017-10-27,2017-10-27
395310,23807125,"3734 W Sierra St, Phoenix, AZ 85029 ",85029,1.4386170348477357e-11,219000,https://www.zillow.com/homedetails/3734-W-Sierra-St-Phoenix-AZ-85029/7743992_zpid/,33.5908,-112.14,2017-10-24,2017-10-24
9021086,23815044,"8137 W Aster Dr, Peoria, AZ 85381 ",85381,1.3696906854274044e-11,239000,https://www.zillow.com/homedetails/8137-W-Aster-Dr-Peoria-AZ-85381/8100990_zpid/,33.6013,-112.235,2017-10-30,2017-10-30
9001633,23837695,"4038 W Laurel Ln, Phoenix, AZ 85029 ",85029,1.3695982717977148e-11,214900,https://www.zillow.com/homedetails/4038-W-Laurel-Ln-Phoenix-AZ-85029/7744075_zpid/,33.5946,-112.147,2017-11-20,2017-11-20
8970849,23830064,"3715 E Delcoa Dr, Phoenix, AZ 85032 ",85032,1.3602536891734963e-11,220000,https://www.zillow.com/homedetails/3715-E-Delcoa-Dr-Phoenix-AZ-85032/7813615_zpid/,33.6109,-112.00200000000001,2017-10-25,2017-10-25
483971,22688771,"2734 N 73rd Gln, Phoenix, AZ 85035 ",85035,1.335555839456712e-11,209900,https://www.zillow.com/homedetails/2734-N-73rd-Gln-Phoenix-AZ-85035/95167972_zpid/,33.4783,-112.21799999999999,2017-09-18,2017-09-18
383046,23830799,"13002 N 26th Ave, Phoenix, AZ 85029 ",85029,1.3325411332021984e-11,210000,https://www.zillow.com/homedetails/13002-N-26th-Ave-Phoenix-AZ-85029/7738395_zpid/,33.6038,-112.11399999999999,2017-11-10,2017-11-10
449105,23819968,"8515 W College Dr, Phoenix, AZ 85037 ",85037,1.3110087513084555e-11,162750,https://www.zillow.com/homedetails/8515-W-College-Dr-Phoenix-AZ-85037/7483595_zpid/,33.5081,-112.243,2017-11-03,2017-11-03
7381629,23774042,"7551 W Wolf St, Phoenix, AZ 85033 ",85033,1.3088683916637432e-11,145900,http://www.zillow.com/homedetails/7551-W-Wolf-St-Phoenix-AZ-85033/7468259_zpid/,33.506,-112.223,2016-12-20,2016-12-20
321465,23512213,"358 N 15th St, Phoenix, AZ 85006 ",85006,1.2928103248070459e-11,180000,https://www.zillow.com/homedetails/358-N-15th-St-Phoenix-AZ-85006/7529011_zpid/,33.4535,-112.04899999999999,2017-10-09,2017-10-09
830006,22432017,"3735 W Catalina Dr, Phoenix, AZ 85019 ",85019,1.2584721937024582e-11,144000,https://www.zillow.com/homedetails/3735-W-Catalina-Dr-Phoenix-AZ-85019/7507455_zpid/,33.4817,-112.14,2017-05-05,2017-05-05
9023846,23833074,"3711 W Catalina Dr, Phoenix, AZ 85019 ",85019,1.2419115307848082e-11,169900,https://www.zillow.com/homedetails/3711-W-Catalina-Dr-Phoenix-AZ-85019/7507461_zpid/,33.4821,-112.139,2017-11-15,2017-11-15
7399050,13303764,"6901 W Villa Rd, Phoenix, AZ 85033 ",85033,1.217864042000946e-11,69900,https://www.zillow.com/homedetails/6901-W-Villa-Rd-Phoenix-AZ-85033/2120298628_zpid/,33.4952,-112.208,2017-01-30,2017-01-30
9019108,23831803,"4229 W Aster Dr, Phoenix, AZ 85029 ",85029,1.2050456320937885e-11,189700,https://www.zillow.com/homedetails/4229-W-Aster-Dr-Phoenix-AZ-85029/7742210_zpid/,33.6019,-112.15100000000001,2017-11-10,2017-11-10
395991,23839228,"3842 W Cholla St, Phoenix, AZ 85029 ",85029,1.2049535988445051e-11,229999,https://www.zillow.com/homedetails/3842-W-Cholla-St-Phoenix-AZ-85029/7743903_zpid/,33.589,-112.14200000000001,2017-11-13,2017-11-13
1466622,23825709,"17462 N 92nd Ave, Peoria, AZ 85382 ",85382,1.1978444774292801e-11,245000,https://www.zillow.com/homedetails/17462-N-92nd-Ave-Peoria-AZ-85382/95087683_zpid/,33.6427,-112.258,2017-11-13,2017-11-13
391373,23814123,"3128 W Eugie Ave, Phoenix, AZ 85029 ",85029,1.1875416388902966e-11,202000,https://www.zillow.com/homedetails/3128-W-Eugie-Ave-Phoenix-AZ-85029/7747973_zpid/,33.6085,-112.12700000000001,2017-10-29,2017-10-29
8973719,22726972,"9226 W Coolbrook Ave, Peoria, AZ 85382 ",85382,1.1494512040602494e-11,239900,https://www.zillow.com/homedetails/9226-W-Coolbrook-Ave-Peoria-AZ-85382/95165053_zpid/,33.6421,-112.258,2017-09-27,2017-09-27
478899,23821673,"1835 N 46th Ave, Phoenix, AZ 85035 ",85035,1.1305775612994179e-11,155000,https://www.zillow.com/homedetails/1835-N-46th-Ave-Phoenix-AZ-85035/7495019_zpid/,33.4693,-112.15799999999999,2017-11-01,2017-11-01
436097,23840423,"2311 N 91st Gln, Phoenix, AZ 85037 ",85037,1.1152279836796565e-11,225650,https://www.zillow.com/homedetails/2311-N-91st-Gln-Phoenix-AZ-85037/60974969_zpid/,33.4747,-112.257,2017-11-22,2017-11-22
8990467,22512781,"1711 E Harvard Street Phoenix Az, Phoenix, AZ 85006 ",85006,1.1012113035640813e-11,100000,https://www.zillow.com/homedetails/1711-E-Harvard-Street-Phoenix-Az-Phoenix-AZ-85006/2093095994_zpid/,33.4742,-112.04700000000001,2017-08-16,2017-08-16
9021915,23829038,"3922 E Willow Ave, Phoenix, AZ 85032 ",85032,1.0652357699002117e-11,235000,https://www.zillow.com/homedetails/3922-E-Willow-Ave-Phoenix-AZ-85032/7813935_zpid/,33.6083,-111.99700000000001,2017-11-14,2017-11-14
1990166,23830826,"3227 W Corrine Dr, Phoenix, AZ 85029 ",85029,1.065129568504451e-11,190000,https://www.zillow.com/homedetails/3227-W-Corrine-Dr-Phoenix-AZ-85029/7747533_zpid/,33.6005,-112.12799999999999,2017-11-13,2017-11-13
1466628,23756048,"17464 N 92nd Gln, Peoria, AZ 85382 ",85382,1.0536514989900518e-11,249900,https://www.zillow.com/homedetails/17464-N-92nd-Gln-Peoria-AZ-85382/95078061_zpid/,33.6427,-112.258,2017-10-18,2017-10-18
8946285,22054871,"1612 W Andorra Dr, Phoenix, AZ 85029 ",85029,1.0479323934905973e-11,219900,https://www.zillow.com/homedetails/1612-W-Andorra-Dr-Phoenix-AZ-85029/7784242_zpid/,33.6066,-112.094,2017-06-20,2017-06-20
386183,23838817,"1925 W Voltaire Ave, Phoenix, AZ 85029 ",85029,1.0442966289337096e-11,214900,https://www.zillow.com/homedetails/1925-W-Voltaire-Ave-Phoenix-AZ-85029/7749620_zpid/,33.6088,-112.101,2017-11-18,2017-11-18
386131,23834497,"1914 W Voltaire Ave, Phoenix, AZ 85029 ",85029,1.0419427113304992e-11,199000,https://www.zillow.com/homedetails/1914-W-Voltaire-Ave-Phoenix-AZ-85029/7749583_zpid/,33.609,-112.1,2017-11-16,2017-11-16
395893,23834146,"3831 W Columbine Dr, Phoenix, AZ 85029 ",85029,1.035515382022848e-11,234900,https://www.zillow.com/homedetails/3831-W-Columbine-Dr-Phoenix-AZ-85029/7743215_zpid/,33.5988,-112.14200000000001,2017-11-15,2017-11-15
395766,23830864,"3820 W Becker Ln, Phoenix, AZ 85029 ",85029,1.0337166774562271e-11,215000,https://www.zillow.com/homedetails/3820-W-Becker-Ln-Phoenix-AZ-85029/7743633_zpid/,33.5831,-112.141,2017-11-10,2017-11-10
395883,23835126,"3830 W Sharon Ave, Phoenix, AZ 85029 ",85029,1.0177128364778962e-11,179900,https://www.zillow.com/homedetails/3830-W-Sharon-Ave-Phoenix-AZ-85029/7741516_zpid/,33.6095,-112.14200000000001,2017-11-17,2017-11-17
390740,23814265,"3037 W Charter Oak Rd, Phoenix, AZ 85029 ",85029,1.0125017294231671e-11,229000,https://www.zillow.com/homedetails/3037-W-Charter-Oak-Rd-Phoenix-AZ-85029/7747216_zpid/,33.5977,-112.124,2017-10-28,2017-10-28
384269,23819801,"13430 N 37th Ave, Phoenix, AZ 85029 ",85029,1.0028149721866413e-11,209900,https://www.zillow.com/homedetails/13430-N-37th-Ave-Phoenix-AZ-85029/7741466_zpid/,33.6083,-112.139,2017-11-03,2017-11-03
397462,23833776,"4040 W Desert Cove Ave, Phoenix, AZ 85029 ",85029,1.0004528310816459e-11,227000,https://www.zillow.com/homedetails/4040-W-Desert-Cove-Ave-Phoenix-AZ-85029/7744743_zpid/,33.5857,-112.146,2017-11-15,2017-11-15
384204,22440192,"13414 N 33rd Ave, Phoenix, AZ 85029 ",85029,9.941787711084708e-12,221000,https://www.zillow.com/homedetails/13414-N-33rd-Ave-Phoenix-AZ-85029/7747875_zpid/,33.6077,-112.12899999999999,2017-07-27,2017-07-27
377620,23833759,"10632 N 39th Ave, Phoenix, AZ 85029 ",85029,9.912327890472431e-12,249900,https://www.zillow.com/homedetails/10632-N-39th-Ave-Phoenix-AZ-85029/7744895_zpid/,33.5831,-112.14299999999999,2017-11-15,2017-11-15
830198,23815075,"3747 W Oregon Ave, Phoenix, AZ 85019 ",85019,9.797258924577541e-12,169900,https://www.zillow.com/homedetails/3747-W-Oregon-Ave-Phoenix-AZ-85019/50188145_zpid/,33.5141,-112.14,2017-10-30,2017-10-30
392492,23818671,"3250 W Shangri La Rd, Phoenix, AZ 85029 ",85029,9.77715573126576e-12,224900,https://www.zillow.com/homedetails/3250-W-Shangri-La-Rd-Phoenix-AZ-85029/7740618_zpid/,33.5877,-112.13,2017-11-02,2017-11-02
497164,23820780,"6725 W Holly St, Phoenix, AZ 85035 ",85035,9.729169823687571e-12,160000,https://www.zillow.com/homedetails/6725-W-Holly-St-Phoenix-AZ-85035/7481511_zpid/,33.4707,-112.204,2017-11-03,2017-11-03
391006,23835108,"3102 W Charter Oak Rd, Phoenix, AZ 85029 ",85029,9.711280250989943e-12,199900,https://www.zillow.com/homedetails/3102-W-Charter-Oak-Rd-Phoenix-AZ-85029/7747375_zpid/,33.5981,-112.126,2017-11-16,2017-11-16
391401,23840465,"3129 W Desert Cove Ave, Phoenix, AZ 85029 ",85029,9.655110259932402e-12,195000,https://www.zillow.com/homedetails/3129-W-Desert-Cove-Ave-Phoenix-AZ-85029/7740500_zpid/,33.5858,-112.12700000000001,2017-11-21,2017-11-21
389082,22692197,"2502 W Dahlia Dr, Phoenix, AZ 85029 ",85029,9.634930567853273e-12,179900,https://www.zillow.com/homedetails/2502-W-Dahlia-Dr-Phoenix-AZ-85029/7748311_zpid/,33.6031,-112.113,2017-09-19,2017-09-19
7430400,23824184,"7334 W North Ln, Peoria, AZ 85345 ",85345,9.568642179801e-12,150000,https://www.zillow.com/homedetails/7334-W-North-Ln-Peoria-AZ-85345/7705943_zpid/,33.5808,-112.21700000000001,2017-11-09,2017-11-09
377735,23817464,"10720 N 36th Ave, Phoenix, AZ 85029 ",85029,9.4881445343724e-12,230000,https://www.zillow.com/homedetails/10720-N-36th-Ave-Phoenix-AZ-85029/7743347_zpid/,33.5838,-112.137,2017-11-01,2017-11-01
384597,23810903,"13633 N 20th Ln, Phoenix, AZ 85029 ",85029,9.424504348310979e-12,209000,https://www.zillow.com/homedetails/13633-N-20th-Ln-Phoenix-AZ-85029/7749596_zpid/,33.61,-112.103,2017-10-27,2017-10-27
381842,23829311,"12409 N 36th Dr, Phoenix, AZ 85029 ",85029,9.142101365464037e-12,174900,https://www.zillow.com/homedetails/12409-N-36th-Dr-Phoenix-AZ-85029/7743051_zpid/,33.5986,-112.13600000000001,2017-08-03,2017-08-03
379541,23831369,"11439 N 33rd Ave, Phoenix, AZ 85029 ",85029,9.116395604225237e-12,214900,https://www.zillow.com/homedetails/11439-N-33rd-Ave-Phoenix-AZ-85029/7749169_zpid/,33.5913,-112.13,2017-11-10,2017-11-10
386503,23819803,"2017 W Sunnyside Dr, Phoenix, AZ 85029 ",85029,9.081742537574521e-12,169900,https://www.zillow.com/homedetails/2017-W-Sunnyside-Dr-Phoenix-AZ-85029/7747060_zpid/,33.5932,-112.12200000000001,2017-11-03,2017-11-03
480272,21729249,"2233 N 61st Dr, Phoenix, AZ 85035 ",85035,9.07763325003914e-12,168000,http://www.zillow.com/homedetails/2233-N-61st-Dr-Phoenix-AZ-85035/7491088_zpid/,33.4724,-112.191,2017-01-11,2017-01-11
830401,23753647,"3811 W Flower St, Phoenix, AZ 85019 ",85019,9.062942074999848e-12,150000,https://www.zillow.com/homedetails/3811-W-Flower-St-Phoenix-AZ-85019/7507570_zpid/,33.4861,-112.14200000000001,2017-10-16,2017-10-16
321430,23803362,"334 N 15th St, Phoenix, AZ 85006 ",85006,8.92593670178608e-12,187000,https://www.zillow.com/homedetails/334-N-15th-St-Phoenix-AZ-85006/7529005_zpid/,33.4527,-112.04899999999999,2017-10-24,2017-10-24
253775,23822103,"950 E Piute Ave, Phoenix, AZ 85024 ",85024,8.6418342121988e-12,205000,https://www.zillow.com/homedetails/950-E-Piute-Ave-Phoenix-AZ-85024/7996577_zpid/,33.6645,-112.06,2017-11-06,2017-11-06
831935,23837709,"4107 W Stella Ln, Phoenix, AZ 85019 ",85019,8.63742448596745e-12,169000,https://www.zillow.com/homedetails/4107-W-Stella-Ln-Phoenix-AZ-85019/67083762_zpid/,33.5304,-112.148,2017-11-19,2017-11-19
312944,23779408,"1426 E Hubbell St, Phoenix, AZ 85006 ",85006,8.604039599931268e-12,249900,https://www.zillow.com/homedetails/1426-E-Hubbell-St-Phoenix-AZ-85006/7532374_zpid/,33.4705,-112.051,2017-04-12,2017-04-12
454353,23828267,"4611 N 49th Ave, Phoenix, AZ 85031 ",85031,8.512833160564354e-12,155000,https://www.zillow.com/homedetails/4611-N-49th-Ave-Phoenix-AZ-85031/7720499_zpid/,33.5047,-112.164,2017-11-09,2017-11-09
411581,22708161,"5226 W Eugie Ave, Glendale, AZ 85304 ",85304,8.433212771622372e-12,220000,https://www.zillow.com/homedetails/5226-W-Eugie-Ave-Glendale-AZ-85304/7911821_zpid/,33.608000000000004,-112.17200000000001,2017-09-21,2017-09-21
481614,23813543,"2502 N 47th Ln, Phoenix, AZ 85035 ",85035,8.425545981329548e-12,131900,https://www.zillow.com/homedetails/2502-N-47th-Ln-Phoenix-AZ-85035/7499147_zpid/,33.4751,-112.162,2017-10-28,2017-10-28
831502,23840504,"4020 W Bethany Home Rd, Phoenix, AZ 85019 ",85019,8.40450402043572e-12,178700,https://www.zillow.com/homedetails/4020-W-Bethany-Home-Rd-Phoenix-AZ-85019/7760362_zpid/,33.5242,-112.146,2017-11-21,2017-11-21
379768,23837679,"11457 N 25th Ave, Phoenix, AZ 85029 ",85029,8.278396949918668e-12,219900,https://www.zillow.com/homedetails/11457-N-25th-Ave-Phoenix-AZ-85029/7749343_zpid/,33.5913,-112.11200000000001,2017-11-20,2017-11-20
394344,23808915,"3601 W Voltaire Ave, Phoenix, AZ 85029 ",85029,8.26910010719939e-12,210000,https://www.zillow.com/homedetails/3601-W-Voltaire-Ave-Phoenix-AZ-85029/7741380_zpid/,33.6085,-112.13600000000001,2017-10-26,2017-10-26
9004987,23813468,"11048 N 16th Ave, Phoenix, AZ 85029 ",85029,8.228569559406798e-12,209900,https://www.zillow.com/homedetails/11048-N-16th-Ave-Phoenix-AZ-85029/7784826_zpid/,33.5871,-112.09299999999999,2017-10-26,2017-10-26
396990,23512234,"4008 W Windrose Dr, Phoenix, AZ 85029 ",85029,8.206885181336487e-12,194999,https://www.zillow.com/homedetails/4008-W-Windrose-Dr-Phoenix-AZ-85029/7742420_zpid/,33.6012,-112.146,2017-10-10,2017-10-10
385174,22594266,"1557 W Sahuaro Dr, Phoenix, AZ 85029 ",85029,8.206603385843717e-12,190000,https://www.zillow.com/homedetails/1557-W-Sahuaro-Dr-Phoenix-AZ-85029/62728913_zpid/,33.5837,-112.09299999999999,2017-08-28,2017-08-28
388897,23830818,"2421 W Willow Ave, Phoenix, AZ 85029 ",85029,8.184326969284315e-12,234900,https://www.zillow.com/homedetails/2421-W-Willow-Ave-Phoenix-AZ-85029/7738217_zpid/,33.6074,-112.111,2017-11-13,2017-11-13
9022158,23837208,"4319 N 11th Pl, Phoenix, AZ 85014 ",85014,8.175602535931702e-12,219000,https://www.zillow.com/homedetails/4319-N-11th-Pl-Phoenix-AZ-85014/7769612_zpid/,33.499,-112.05799999999999,2017-11-18,2017-11-18
483705,23784850,"2639 N 49th Ave, Phoenix, AZ 85035 ",85035,8.114554821355596e-12,162499,https://www.zillow.com/homedetails/2639-N-49th-Ave-Phoenix-AZ-85035/7499042_zpid/,33.4778,-112.163,2017-03-02,2017-03-02
404051,23755789,"13002 N 55th Dr, Glendale, AZ 85304 ",85304,8.06930386863669e-12,249900,https://www.zillow.com/homedetails/13002-N-55th-Dr-Glendale-AZ-85304/7896792_zpid/,33.6019,-112.175,2017-10-18,2017-10-18
388525,23754065,"2330 W Columbine Dr, Phoenix, AZ 85029 ",85029,8.040937665818883e-12,219900,https://www.zillow.com/homedetails/2330-W-Columbine-Dr-Phoenix-AZ-85029/7738746_zpid/,33.5996,-112.109,2017-10-16,2017-10-16
836722,23830966,"5221 N 41st Dr, Phoenix, AZ 85019 ",85019,7.864027841311424e-12,179000,https://www.zillow.com/homedetails/5221-N-41st-Dr-Phoenix-AZ-85019/67083438_zpid/,33.5124,-112.148,2017-11-13,2017-11-13
394310,23786762,"3560 W Wood Dr, Phoenix, AZ 85029 ",85029,7.861310321124053e-12,230000,https://www.zillow.com/homedetails/3560-W-Wood-Dr-Phoenix-AZ-85029/7741612_zpid/,33.6044,-112.137,2017-04-09,2017-04-09
9021586,23838024,"8142 W Sweetwater Ave, Peoria, AZ 85381 ",85381,7.57243188222411e-12,240000,https://www.zillow.com/homedetails/8142-W-Sweetwater-Ave-Peoria-AZ-85381/7913307_zpid/,33.6028,-112.235,2017-11-16,2017-11-16
389751,23821705,"2641 W Wethersfield Rd, Phoenix, AZ 85029 ",85029,7.515092626701635e-12,149000,https://www.zillow.com/homedetails/2641-W-Wethersfield-Rd-Phoenix-AZ-85029/7748488_zpid/,33.5968,-112.115,2017-11-03,2017-11-03
393978,23835122,"3508 W Lupine Ave, Phoenix, AZ 85029 ",85029,7.486250159054285e-12,195000,https://www.zillow.com/homedetails/3508-W-Lupine-Ave-Phoenix-AZ-85029/7743821_zpid/,33.5904,-112.135,2017-11-17,2017-11-17
320123,23827479,"2325 N Mitchell St, Phoenix, AZ 85006 ",85006,7.481632904436503e-12,235000,https://www.zillow.com/homedetails/2325-N-Mitchell-St-Phoenix-AZ-85006/7533644_zpid/,33.4739,-112.057,2017-11-13,2017-11-13
493050,23828325,"5901 W Cypress St, Phoenix, AZ 85035 ",85035,7.456028405978408e-12,189900,https://www.zillow.com/homedetails/5901-W-Cypress-St-Phoenix-AZ-85035/7491471_zpid/,33.4723,-112.18700000000001,2017-11-04,2017-11-04
394868,23527465,"3656 W Windrose Dr, Phoenix, AZ 85029 ",85029,7.451593741509854e-12,229900,https://www.zillow.com/homedetails/3656-W-Windrose-Dr-Phoenix-AZ-85029/7742970_zpid/,33.6016,-112.137,2017-10-12,2017-10-12
395412,23839216,"3742 W Altadena Ave, Phoenix, AZ 85029 ",85029,7.32148483207342e-12,214900,https://www.zillow.com/homedetails/3742-W-Altadena-Ave-Phoenix-AZ-85029/7743955_zpid/,33.5917,-112.14,2017-11-13,2017-11-13
391229,23512195,"3120 W Clinton St, Phoenix, AZ 85029 ",85029,7.20310965840647e-12,182000,https://www.zillow.com/homedetails/3120-W-Clinton-St-Phoenix-AZ-85029/7740856_zpid/,33.5834,-112.126,2017-10-07,2017-10-07
9022810,23833485,"18636 N 22nd Ln, Phoenix, AZ 85027 ",85027,7.195366276706885e-12,199000,https://www.zillow.com/homedetails/18636-N-22nd-Ln-Phoenix-AZ-85027/7969783_zpid/,33.6561,-112.10799999999999,2017-11-15,2017-11-15
833447,23561389,"5713 N 42nd Ave, Phoenix, AZ 85019 ",85019,7.08598761579271e-12,165000,https://www.zillow.com/homedetails/5713-N-42nd-Ave-Phoenix-AZ-85019/7718429_zpid/,33.5207,-112.148,2017-10-13,2017-10-13
502874,23757862,"4315 N 51st Ave, Phoenix, AZ 85031 ",85031,7.060150771179477e-12,149900,https://www.zillow.com/homedetails/4315-N-51st-Ave-Phoenix-AZ-85031/7720846_zpid/,33.4993,-112.169,2017-10-20,2017-10-20
9021839,23831789,"4150 N 13th Pl, Phoenix, AZ 85014 ",85014,7.025451253216239e-12,159000,https://www.zillow.com/homedetails/4150-N-13th-Pl-Phoenix-AZ-85014/7769055_zpid/,33.4965,-112.054,2017-11-14,2017-11-14
388057,23835105,"2245 W Altadena Ave, Phoenix, AZ 85029 ",85029,6.91589945830113e-12,189500,https://www.zillow.com/homedetails/2245-W-Altadena-Ave-Phoenix-AZ-85029/7748189_zpid/,33.5919,-112.10700000000001,2017-11-17,2017-11-17
451525,21618159,"4229 N 51st Ave, Phoenix, AZ 85031 ",85031,6.866600114542351e-12,165000,https://www.zillow.com/homedetails/4229-N-51st-Ave-Phoenix-AZ-85031/7721281_zpid/,33.4982,-112.169,2017-05-26,2017-05-26
502560,23814739,"4117 N 48th Ave, Phoenix, AZ 85031 ",85031,6.778735922638213e-12,149900,https://www.zillow.com/homedetails/4117-N-48th-Ave-Phoenix-AZ-85031/7721115_zpid/,33.4956,-112.163,2017-10-30,2017-10-30
390477,23837922,"3018 W Lupine Ave, Phoenix, AZ 85029 ",85029,6.7670135160628526e-12,240000,https://www.zillow.com/homedetails/3018-W-Lupine-Ave-Phoenix-AZ-85029/7739937_zpid/,33.5913,-112.124,2017-11-19,2017-11-19
453411,23837614,"4450 N 50th Ave, Phoenix, AZ 85031 ",85031,6.747526502084037e-12,149800,https://www.zillow.com/homedetails/4450-N-50th-Ave-Phoenix-AZ-85031/7720779_zpid/,33.501999999999995,-112.167,2017-11-20,2017-11-20
