property_id,transaction_id,address,zipcode,ypred,list,url,lat,long,date_listed,transaction_date
930303,20703245,"24813 W Durango St, Buckeye, AZ 85326 ",85326,0.9886033535003662,52000,http://www.zillow.com/homedetails/24813-W-Durango-St-Buckeye-AZ-85326/8314520_zpid,33.4276,-112.585,2010-07-15,2010-07-15
679392,22695008,"8503 E Keats Ave, Mesa, AZ 85209 ",85209,0.872262716293335,245000,https://www.zillow.com/homedetails/8503-E-Keats-Ave-Mesa-AZ-85209/60050816_zpid/,33.3774,-111.65100000000001,2017-09-20,2017-09-20
1235249,22741613,"4690 E Olney Ave, Gilbert, AZ 85234 ",85234,0.8714689016342163,239900,https://www.zillow.com/homedetails/4690-E-Olney-Ave-Gilbert-AZ-85234/67794179_zpid/,33.3584,-111.69,2017-10-05,2017-10-05
89596,22735932,"20896 E Desert Hills Blvd, Queen Creek, AZ 85142 ",85142,0.8682428598403931,229900,https://www.zillow.com/homedetails/20896-E-Desert-Hills-Blvd-Queen-Creek-AZ-85142/59260585_zpid/,33.2436,-111.631,2017-09-21,2017-09-21
308996,22734530,"41252 N Ericson Ln, Anthem, AZ 85086 ",85086,0.8669081330299377,249900,https://www.zillow.com/homedetails/41252-N-Ericson-Ln-Anthem-AZ-85086/60980245_zpid/,33.8591,-112.14,2017-10-03,2017-10-03
91342,22656906,"21251 E Avenida Del Valle, Queen Creek, AZ 85142 ",85142,0.8665375709533691,235000,https://www.zillow.com/homedetails/21251-E-Avenida-Del-Valle-Queen-Creek-AZ-85142/60050853_zpid/,33.2442,-111.62299999999999,2017-09-10,2017-09-10
84629,22737912,"19083 E Pelican Dr, Queen Creek, AZ 85142 ",85142,0.8640395402908325,242900,https://www.zillow.com/homedetails/19083-E-Pelican-Dr-Queen-Creek-AZ-85142/82242640_zpid/,33.2776,-111.67200000000001,2017-09-29,2017-09-29
1190875,22681257,"564 W Orchard Way, Gilbert, AZ 85233 ",85233,0.8638779520988464,222900,https://www.zillow.com/homedetails/564-W-Orchard-Way-Gilbert-AZ-85233/8174530_zpid/,33.3525,-111.802,2017-09-13,2017-09-13
1273751,22693412,"4533 E Harrison St, Gilbert, AZ 85295 ",85295,0.8628966808319092,225000,https://www.zillow.com/homedetails/4533-E-Harrison-St-Gilbert-AZ-85295/60987720_zpid/,33.3169,-111.693,2017-09-19,2017-09-19
1264136,22731232,"2870 E Megan St, Gilbert, AZ 85295 ",85295,0.8574299812316895,245000,https://www.zillow.com/homedetails/2870-E-Megan-St-Gilbert-AZ-85295/71618739_zpid/,33.3209,-111.728,2017-09-29,2017-09-29
309099,22732851,"41361 N Miles Ct, Anthem, AZ 85086 ",85086,0.8569135665893555,219000,https://www.zillow.com/homedetails/41361-N-Miles-Ct-Anthem-AZ-85086/71620232_zpid/,33.8609,-112.14,2017-10-01,2017-10-01
90845,22738117,"21155 E Aspen Valley Dr, Queen Creek, AZ 85142 ",85142,0.855792224407196,235000,https://www.zillow.com/homedetails/21155-E-Aspen-Valley-Dr-Queen-Creek-AZ-85142/59260845_zpid/,33.2426,-111.625,2017-10-03,2017-10-03
1230889,22732877,"4043 E Princeton Ave, Gilbert, AZ 85234 ",85234,0.8555969595909119,249000,https://www.zillow.com/homedetails/4043-E-Princeton-Ave-Gilbert-AZ-85234/8272541_zpid/,33.3655,-111.70299999999999,2017-10-01,2017-10-01
659521,22684348,"2309 S Ananea, Mesa, AZ 85209 ",85209,0.8515040874481201,225000,https://www.zillow.com/homedetails/2309-S-Ananea-Mesa-AZ-85209/8273238_zpid/,33.3732,-111.67200000000001,2017-09-15,2017-09-15
1196579,22726918,"827 W Leah Ln, Gilbert, AZ 85233 ",85233,0.8486815094947815,249900,https://www.zillow.com/homedetails/827-W-Leah-Ln-Gilbert-AZ-85233/8173210_zpid/,33.3719,-111.809,2017-09-27,2017-09-27
63228,22689830,"40707 N Courage Trl, Anthem, AZ 85086 ",85086,0.8486306667327881,249900,https://www.zillow.com/homedetails/40707-N-Courage-Trl-Anthem-AZ-85086/55264648_zpid/,33.8541,-112.137,2017-09-18,2017-09-18
671330,22730281,"7439 E Naranja Ave, Mesa, AZ 85209 ",85209,0.847636878490448,210000,https://www.zillow.com/homedetails/7439-E-Naranja-Ave-Mesa-AZ-85209/8274274_zpid/,33.3654,-111.67399999999999,2017-09-29,2017-09-29
685218,23796909,"9730 E Knowles Ave, Mesa, AZ 85209 ",85209,0.8460282683372498,225000,https://www.zillow.com/homedetails/9730-E-Knowles-Ave-Mesa-AZ-85209/52355197_zpid/,33.3723,-111.62899999999999,2017-10-06,2017-10-06
307175,22727935,"39629 N Bent Creek Ct, Anthem, AZ 85086 ",85086,0.8447638154029846,229900,https://www.zillow.com/homedetails/39629-N-Bent-Creek-Ct-Anthem-AZ-85086/62730938_zpid/,33.8454,-112.09899999999999,2017-09-29,2017-09-29
1209912,22725332,"1043 N Sailors Way, Gilbert, AZ 85234 ",85234,0.8433695435523987,245000,https://www.zillow.com/homedetails/1043-N-Sailors-Way-Gilbert-AZ-85234/8248468_zpid/,33.3698,-111.765,2017-09-27,2017-09-27
1269476,22738195,"3626 E Larson Ln, Gilbert, AZ 85295 ",85295,0.8426509499549866,245000,https://www.zillow.com/homedetails/3626-E-Larson-Ln-Gilbert-AZ-85295/95160517_zpid/,33.298,-111.712,2017-10-04,2017-10-04
917461,22719030,"22026 W Loma Linda Blvd, Buckeye, AZ 85326 ",85326,0.8424327373504639,235000,https://www.zillow.com/homedetails/22026-W-Loma-Linda-Blvd-Buckeye-AZ-85326/62739176_zpid/,33.4434,-112.524,2017-09-25,2017-09-25
658688,22705407,"2223 S Gordon, Mesa, AZ 85209 ",85209,0.8420010209083557,205000,https://www.zillow.com/homedetails/2223-S-Gordon-Mesa-AZ-85209/55279970_zpid/,33.3751,-111.645,2017-09-22,2017-09-22
1239748,22713934,"990 E Princeton Ave, Gilbert, AZ 85234 ",85234,0.8418598175048828,240000,https://www.zillow.com/homedetails/990-E-Princeton-Ave-Gilbert-AZ-85234/8271512_zpid/,33.3658,-111.76700000000001,2017-09-24,2017-09-24
8928193,22707057,"721 S 223rd Dr, Buckeye, AZ 85326 ",85326,0.8411622047424316,165000,https://www.zillow.com/homedetails/721-S-223rd-Dr-Buckeye-AZ-85326/67787068_zpid/,33.4404,-112.531,2017-09-22,2017-09-22
63131,22734526,"40549 N Territory Trl, Anthem, AZ 85086 ",85086,0.8411056995391846,229000,https://www.zillow.com/homedetails/40549-N-Territory-Trl-Anthem-AZ-85086/50184030_zpid/,33.8524,-112.13,2017-10-03,2017-10-03
768868,22705444,"6325 E Ivy St, Mesa, AZ 85205 ",85205,0.8389582633972168,224995,https://www.zillow.com/homedetails/6325-E-Ivy-St-Mesa-AZ-85205/7676720_zpid/,33.4461,-111.694,2017-09-21,2017-09-21
1273849,22731224,"4557 E Loma Vista St, Gilbert, AZ 85295 ",85295,0.8382992148399353,239900,https://www.zillow.com/homedetails/4557-E-Loma-Vista-St-Gilbert-AZ-85295/60987796_zpid/,33.3156,-111.69200000000001,2017-09-28,2017-09-28
927077,22730184,"23791 W Hadley St, Buckeye, AZ 85326 ",85326,0.8369040489196777,185500,https://www.zillow.com/homedetails/23791-W-Hadley-St-Buckeye-AZ-85326/61631057_zpid/,33.4377,-112.56299999999999,2017-09-30,2017-09-30
918921,22675350,"22264 W Cantilever St, Buckeye, AZ 85326 ",85326,0.8362250924110413,229995,https://www.zillow.com/homedetails/22264-W-Cantilever-St-Buckeye-AZ-85326/60997121_zpid/,33.4473,-112.53,2017-09-14,2017-09-14
62818,22680698,"40045 N Cross Timbers Ct, Anthem, AZ 85086 ",85086,0.8348603844642639,215000,https://www.zillow.com/homedetails/40045-N-Cross-Timbers-Ct-Anthem-AZ-85086/60543016_zpid/,33.8485,-112.118,2017-09-13,2017-09-13
921680,22707000,"22775 W Cocopah St, Buckeye, AZ 85326 ",85326,0.8343777656555176,187900,https://www.zillow.com/homedetails/22775-W-Cocopah-St-Buckeye-AZ-85326/60997359_zpid/,33.4324,-112.541,2017-09-21,2017-09-21
63209,22579733,"40701 N Courage Trl, Anthem, AZ 85086 ",85086,0.8328665494918823,239990,https://www.zillow.com/homedetails/40701-N-Courage-Trl-Anthem-AZ-85086/53611232_zpid/,33.854,-112.137,2017-08-25,2017-08-25
910573,22706964,"136 S 230th Dr, Buckeye, AZ 85326 ",85326,0.8318867683410645,239900,https://www.zillow.com/homedetails/136-S-230th-Dr-Buckeye-AZ-85326/67801665_zpid/,33.446,-112.54700000000001,2017-09-21,2017-09-21
924280,22740744,"23224 W Yavapai St, Buckeye, AZ 85326 ",85326,0.831680953502655,199300,https://www.zillow.com/homedetails/23224-W-Yavapai-St-Buckeye-AZ-85326/81991062_zpid/,33.435,-112.551,2017-10-05,2017-10-05
928549,22730204,"23982 W Lasso Ln, Buckeye, AZ 85326 ",85326,0.8303275108337402,245000,https://www.zillow.com/homedetails/23982-W-Lasso-Ln-Buckeye-AZ-85326/61631226_zpid/,33.4391,-112.56700000000001,2017-09-29,2017-09-29
306556,22699181,"3878 W Ashton Dr, Anthem, AZ 85086 ",85086,0.8298127055168152,239000,https://www.zillow.com/homedetails/3878-W-Ashton-Dr-Anthem-AZ-85086/67802475_zpid/,33.8724,-112.14399999999999,2017-09-20,2017-09-20
917596,22740734,"22045 W Gardenia Dr, Buckeye, AZ 85326 ",85326,0.8296872973442078,199900,https://www.zillow.com/homedetails/22045-W-Gardenia-Dr-Buckeye-AZ-85326/62739152_zpid/,33.4457,-112.525,2017-10-05,2017-10-05
1235038,22648326,"4646 E Redfield Rd, Gilbert, AZ 85234 ",85234,0.8289614915847778,240000,https://www.zillow.com/homedetails/4646-E-Redfield-Rd-Gilbert-AZ-85234/67794145_zpid/,33.3604,-111.691,2017-09-08,2017-09-08
1223698,22745574,"3009 E Millbrae Ln, Gilbert, AZ 85234 ",85234,0.8281168937683105,240000,https://www.zillow.com/homedetails/3009-E-Millbrae-Ln-Gilbert-AZ-85234/8232721_zpid/,33.375,-111.726,2017-10-08,2017-10-08
909381,22637989,"119 N 228th Ave, Buckeye, AZ 85326 ",85326,0.8278083801269531,185000,https://www.zillow.com/homedetails/119-N-228th-Ave-Buckeye-AZ-85326/64737340_zpid/,33.4486,-112.541,2017-09-07,2017-09-07
61298,23796856,"34932 N 31st Ave, Phoenix, AZ 85086 ",85086,0.8276742696762085,248880,https://www.zillow.com/homedetails/34932-N-31st-Ave-Phoenix-AZ-85086/60981123_zpid/,33.8022,-112.126,2017-10-05,2017-10-05
7447909,22576290,"8225 S 5th Ln, Phoenix, AZ 85041 ",85041,0.827513575553894,234900,https://www.zillow.com/homedetails/8225-S-5th-Ln-Phoenix-AZ-85041/95083688_zpid/,33.3714,-112.08200000000001,2017-08-23,2017-08-23
432087,22704087,"11018 W Elm St, Phoenix, AZ 85037 ",85037,0.8270524740219116,223000,https://www.zillow.com/homedetails/11018-W-Elm-St-Phoenix-AZ-85037/95185302_zpid/,33.5054,-112.29700000000001,2017-09-20,2017-09-20
1234842,22699575,"4616 E Laurel Ct, Gilbert, AZ 85234 ",85234,0.8269191980361938,238888,https://www.zillow.com/homedetails/4616-E-Laurel-Ct-Gilbert-AZ-85234/67786616_zpid/,33.3609,-111.69200000000001,2017-09-07,2017-09-07
926829,22709179,"23761 W La Salle St, Buckeye, AZ 85326 ",85326,0.8260323405265808,175000,https://www.zillow.com/homedetails/23761-W-La-Salle-St-Buckeye-AZ-85326/82828886_zpid/,33.3973,-112.56200000000001,2017-09-22,2017-09-22
196994,22694497,"3905 W Park St, Phoenix, AZ 85041 ",85041,0.8258668780326843,197000,https://www.zillow.com/homedetails/3905-W-Park-St-Phoenix-AZ-85041/55258381_zpid/,33.3804,-112.14399999999999,2017-09-19,2017-09-19
431469,22724416,"10929 W Taft St, Phoenix, AZ 85037 ",85037,0.8254812359809875,229000,https://www.zillow.com/homedetails/10929-W-Taft-St-Phoenix-AZ-85037/81974726_zpid/,33.5045,-112.295,2017-09-27,2017-09-27
7447911,22576289,"8204 S 6th Ln, Phoenix, AZ 85041 ",85041,0.8251676559448242,236900,https://www.zillow.com/homedetails/8204-S-6th-Ln-Phoenix-AZ-85041/95127702_zpid/,33.372,-112.083,2017-08-23,2017-08-23
7447915,22576292,"8216 S 6th Ln, Phoenix, AZ 85041 ",85041,0.8251676559448242,234900,https://www.zillow.com/homedetails/8216-S-6th-Ln-Phoenix-AZ-85041/95089441_zpid/,33.3716,-112.083,2017-08-23,2017-08-23
1030772,22746080,"2535 E La Costa Dr, Chandler, AZ 85249 ",85249,0.8247928023338318,229999,https://www.zillow.com/homedetails/2535-E-La-Costa-Dr-Chandler-AZ-85249/8216057_zpid/,33.2141,-111.79700000000001,2017-10-07,2017-10-07
193092,23512160,"2336 W Fawn Dr, Phoenix, AZ 85041 ",85041,0.8247714042663574,246900,https://www.zillow.com/homedetails/2336-W-Fawn-Dr-Phoenix-AZ-85041/81997525_zpid/,33.3757,-112.111,2017-09-28,2017-09-28
1211290,22739736,"1149 E Harvard Ave, Gilbert, AZ 85234 ",85234,0.8241547346115112,235000,https://www.zillow.com/homedetails/1149-E-Harvard-Ave-Gilbert-AZ-85234/8247986_zpid/,33.367,-111.766,2017-10-04,2017-10-04
59611,22709624,"2364 W Turtle Hill Ct, Anthem, AZ 85086 ",85086,0.8236581087112427,249900,https://www.zillow.com/homedetails/2364-W-Turtle-Hill-Ct-Anthem-AZ-85086/55213390_zpid/,33.8604,-112.111,2017-09-21,2017-09-21
9016379,22710160,"1411 E Gary Dr, Chandler, AZ 85225 ",85225,0.8234913349151611,249900,https://www.zillow.com/homedetails/1411-E-Gary-Dr-Chandler-AZ-85225/8204321_zpid/,33.3214,-111.81700000000001,2017-09-22,2017-09-22
919753,22740742,"22418 W Woodlands Ave, Buckeye, AZ 85326 ",85326,0.8233336210250854,214900,https://www.zillow.com/homedetails/22418-W-Woodlands-Ave-Buckeye-AZ-85326/60964573_zpid/,33.4499,-112.53299999999999,2017-10-05,2017-10-05
911079,22684837,"1439 S 222nd Ln, Buckeye, AZ 85326 ",85326,0.8230181932449341,189500,https://www.zillow.com/homedetails/1439-S-222nd-Ln-Buckeye-AZ-85326/67799835_zpid/,33.4336,-112.53,2017-09-15,2017-09-15
916447,22732637,"21845 W Mohave St, Buckeye, AZ 85326 ",85326,0.8229878544807434,179900,https://www.zillow.com/homedetails/21845-W-Mohave-St-Buckeye-AZ-85326/71629089_zpid/,33.4309,-112.52,2017-10-01,2017-10-01
910646,22643054,"1363 S 219th Ln, Buckeye, AZ 85326 ",85326,0.8228147029876709,183000,https://www.zillow.com/homedetails/1363-S-219th-Ln-Buckeye-AZ-85326/71626339_zpid/,33.4343,-112.523,2017-09-07,2017-09-07
92365,22738132,"21474 E Alyssa Rd, Queen Creek, AZ 85142 ",85142,0.8227185010910034,242500,https://www.zillow.com/homedetails/21474-E-Alyssa-Rd-Queen-Creek-AZ-85142/81953291_zpid/,33.2576,-111.62100000000001,2017-10-03,2017-10-03
90743,22738107,"21140 E Cherrywood Dr, Queen Creek, AZ 85142 ",85142,0.8225318193435669,235000,https://www.zillow.com/homedetails/21140-E-Cherrywood-Dr-Queen-Creek-AZ-85142/95088035_zpid/,33.2339,-111.62700000000001,2017-10-03,2017-10-03
918443,22706988,"22209 W Hadley St, Buckeye, AZ 85326 ",85326,0.8221112489700317,202000,https://www.zillow.com/homedetails/22209-W-Hadley-St-Buckeye-AZ-85326/81992530_zpid/,33.4379,-112.52799999999999,2017-09-22,2017-09-22
429812,23796734,"10750 W Coolidge St, Phoenix, AZ 85037 ",85037,0.8220353722572327,215000,https://www.zillow.com/homedetails/10750-W-Coolidge-St-Phoenix-AZ-85037/81982882_zpid/,33.5037,-112.292,2017-09-18,2017-09-18
429776,22703731,"10740 W Taft St, Phoenix, AZ 85037 ",85037,0.8220353722572327,209000,https://www.zillow.com/homedetails/10740-W-Taft-St-Phoenix-AZ-85037/81977416_zpid/,33.5043,-112.292,2017-09-20,2017-09-20
444887,22730839,"4607 N 92nd Ln, Phoenix, AZ 85037 ",85037,0.8219243288040161,214900,https://www.zillow.com/homedetails/4607-N-92nd-Ln-Phoenix-AZ-85037/7466411_zpid/,33.5044,-112.259,2017-09-28,2017-09-28
916666,22721826,"21939 W Papago St, Buckeye, AZ 85326 ",85326,0.8214402794837952,189999,https://www.zillow.com/homedetails/21939-W-Papago-St-Buckeye-AZ-85326/67807787_zpid/,33.4341,-112.522,2017-09-26,2017-09-26
1239329,22731291,"937 N Starling Dr, Gilbert, AZ 85234 ",85234,0.821416437625885,248000,https://www.zillow.com/homedetails/937-N-Starling-Dr-Gilbert-AZ-85234/8230703_zpid/,33.3681,-111.693,2017-09-30,2017-09-30
928938,22675342,"2404 S 238th Ln, Buckeye, AZ 85326 ",85326,0.8214030265808105,219900,https://www.zillow.com/homedetails/2404-S-238th-Ln-Buckeye-AZ-85326/92354814_zpid/,33.4247,-112.564,2017-09-14,2017-09-14
928073,22744933,"23898 W Desert Bloom St, Buckeye, AZ 85326 ",85326,0.8213809728622437,182000,https://www.zillow.com/homedetails/23898-W-Desert-Bloom-St-Buckeye-AZ-85326/61631128_zpid/,33.4362,-112.565,2017-10-07,2017-10-07
432685,23796738,"11129 W Brittlewood Dr, Phoenix, AZ 85037 ",85037,0.821287214756012,221998,https://www.zillow.com/homedetails/11129-W-Brittlewood-Dr-Phoenix-AZ-85037/71619323_zpid/,33.5042,-112.29899999999999,2017-10-04,2017-10-04
912620,22740718,"1682 S 233rd Ave, Buckeye, AZ 85326 ",85326,0.8210902810096741,200000,https://www.zillow.com/homedetails/1682-S-233rd-Ave-Buckeye-AZ-85326/67710768_zpid/,33.4315,-112.551,2017-10-06,2017-10-06
9016019,22707065,"83 N 225th Dr, Buckeye, AZ 85326 ",85326,0.820244312286377,185000,https://www.zillow.com/homedetails/83-N-225th-Dr-Buckeye-AZ-85326/71492945_zpid/,33.4482,-112.536,2017-09-20,2017-09-20
794409,22712213,"2428 E Hampton Ave, Mesa, AZ 85204 ",85204,0.8197135925292969,245000,https://www.zillow.com/homedetails/2428-E-Hampton-Ave-Mesa-AZ-85204/7652354_zpid/,33.3906,-111.779,2017-09-23,2017-09-23
941112,22733516,"595 S 220th Ln, Buckeye, AZ 85326 ",85326,0.8197107911109924,202000,https://www.zillow.com/homedetails/595-S-220th-Ln-Buckeye-AZ-85326/81998097_zpid/,33.4416,-112.525,2017-10-03,2017-10-03
524237,22678362,"9106 W Monte Vista Rd, Phoenix, AZ 85037 ",85037,0.8196410536766052,199000,https://www.zillow.com/homedetails/9106-W-Monte-Vista-Rd-Phoenix-AZ-85037/60047183_zpid/,33.4705,-112.256,2017-09-13,2017-09-13
8991469,22610872,"940 S 242nd Dr, Buckeye, AZ 85326 ",85326,0.819562554359436,170000,https://www.zillow.com/homedetails/940-S-242nd-Dr-Buckeye-AZ-85326/67797708_zpid/,33.4378,-112.572,2017-08-31,2017-08-31
940317,22707059,"546 S 223rd Dr, Buckeye, AZ 85326 ",85326,0.8192518949508667,195000,https://www.zillow.com/homedetails/546-S-223rd-Dr-Buckeye-AZ-85326/67787089_zpid/,33.4421,-112.531,2017-09-21,2017-09-21
62626,22734524,"39763 N High Noon Way, Anthem, AZ 85086 ",85086,0.8191027045249939,238990,https://www.zillow.com/homedetails/39763-N-High-Noon-Way-Anthem-AZ-85086/61501922_zpid/,33.846,-112.119,2017-10-02,2017-10-02
527635,22717844,"9459 W Virginia Ave, Phoenix, AZ 85037 ",85037,0.8191004991531372,200000,https://www.zillow.com/homedetails/9459-W-Virginia-Ave-Phoenix-AZ-85037/62727169_zpid/,33.4764,-112.26299999999999,2017-09-20,2017-09-20
771912,23796908,"954 N Sinova, Mesa, AZ 85205 ",85205,0.8183598518371582,245000,https://www.zillow.com/homedetails/954-N-Sinova-Mesa-AZ-85205/7673032_zpid/,33.4335,-111.71600000000001,2017-09-28,2017-09-28
915929,22662840,"21539 W Hilton Ave, Buckeye, AZ 85326 ",85326,0.8178342580795288,197500,https://www.zillow.com/homedetails/21539-W-Hilton-Ave-Buckeye-AZ-85326/95167457_zpid/,33.4276,-112.529,2017-09-12,2017-09-12
916196,22675349,"21732 W Sonora St, Buckeye, AZ 85326 ",85326,0.8173519968986511,204900,https://www.zillow.com/homedetails/21732-W-Sonora-St-Buckeye-AZ-85326/71628983_zpid/,33.4326,-112.51799999999999,2017-09-13,2017-09-13
425732,22714385,"10010 W Montecito Ave, Phoenix, AZ 85037 ",85037,0.817262589931488,215000,https://www.zillow.com/homedetails/10010-W-Montecito-Ave-Phoenix-AZ-85037/7484276_zpid/,33.4997,-112.27600000000001,2017-09-20,2017-09-20
918528,22632391,"22219 W Desert Bloom St, Buckeye, AZ 85326 ",85326,0.8171879649162292,212900,https://www.zillow.com/homedetails/22219-W-Desert-Bloom-St-Buckeye-AZ-85326/71617590_zpid/,33.4364,-112.529,2017-09-06,2017-09-06
930011,22707015,"24753 W Dove Peak, Buckeye, AZ 85326 ",85326,0.8170216679573059,199000,https://www.zillow.com/homedetails/24753-W-Dove-Peak-Buckeye-AZ-85326/62739649_zpid/,33.3974,-112.583,2017-09-21,2017-09-21
916094,22721825,"21699 W Hess Ave, Buckeye, AZ 85326 ",85326,0.8160524368286133,199900,https://www.zillow.com/homedetails/21699-W-Hess-Ave-Buckeye-AZ-85326/95095792_zpid/,33.4269,-112.51700000000001,2017-09-26,2017-09-26
520341,22734448,"8921 W Edgemont Ave, Phoenix, AZ 85037 ",85037,0.8160021305084229,199000,https://www.zillow.com/homedetails/8921-W-Edgemont-Ave-Phoenix-AZ-85037/7487901_zpid/,33.4783,-112.25200000000001,2017-10-02,2017-10-02
915752,22713704,"2097 S 215th Dr, Buckeye, AZ 85326 ",85326,0.8152751326560974,185000,https://www.zillow.com/homedetails/2097-S-215th-Dr-Buckeye-AZ-85326/95111018_zpid/,33.4286,-112.514,2017-09-24,2017-09-24
9016015,22740735,"22411 W Loma Linda Blvd, Buckeye, AZ 85326 ",85326,0.8150503039360046,218900,https://www.zillow.com/homedetails/22411-W-Loma-Linda-Blvd-Buckeye-AZ-85326/95078578_zpid/,33.4438,-112.53299999999999,2017-10-04,2017-10-04
196517,22710785,"3714 W Burgess Ln, Phoenix, AZ 85041 ",85041,0.8145865797996521,229000,https://www.zillow.com/homedetails/3714-W-Burgess-Ln-Phoenix-AZ-85041/67774286_zpid/,33.3891,-112.139,2017-09-21,2017-09-21
908274,22684838,"1030 S 223rd Ln, Buckeye, AZ 85326 ",85326,0.8144693374633789,189000,https://www.zillow.com/homedetails/1030-S-223rd-Ln-Buckeye-AZ-85326/67787135_zpid/,33.4373,-112.53200000000001,2017-09-15,2017-09-15
939292,22707047,"4265 S 247th Dr, Buckeye, AZ 85326 ",85326,0.8141953349113464,212000,https://www.zillow.com/homedetails/4265-S-247th-Dr-Buckeye-AZ-85326/81967685_zpid/,33.4089,-112.583,2017-09-20,2017-09-20
95571,23796722,"22624 S 208th St, Queen Creek, AZ 85142 ",85142,0.8131847977638245,223900,http://www.zillow.com/homedetails/22624-S-208th-St-Queen-Creek-AZ-85142/59260575_zpid,33.2426,-111.632,2017-10-16,2017-10-16
1225676,22738196,"333 E Page Ave, Gilbert, AZ 85234 ",85234,0.8130786418914795,240000,https://www.zillow.com/homedetails/333-E-Page-Ave-Gilbert-AZ-85234/8248534_zpid/,33.3538,-111.78299999999999,2017-10-04,2017-10-04
9019013,22730232,"898 S 242nd Ln, Buckeye, AZ 85326 ",85326,0.8130610585212708,214900,https://www.zillow.com/homedetails/898-S-242nd-Ln-Buckeye-AZ-85326/67797697_zpid/,33.4382,-112.572,2017-09-28,2017-09-28
919867,22649177,"22470 W Woodlands Ave, Buckeye, AZ 85326 ",85326,0.8127134442329407,215000,https://www.zillow.com/homedetails/22470-W-Woodlands-Ave-Buckeye-AZ-85326/67807708_zpid/,33.4499,-112.53399999999999,2017-09-10,2017-09-10
941834,22675362,"664 S 231st Dr, Buckeye, AZ 85326 ",85326,0.8122785091400146,209900,https://www.zillow.com/homedetails/664-S-231st-Dr-Buckeye-AZ-85326/67769354_zpid/,33.4409,-112.54799999999999,2017-09-14,2017-09-14
9021177,23755425,"206 E Maricopa Rd, Buckeye, AZ 85326 ",85326,0.8113539814949036,57500,https://www.zillow.com/homedetails/206-E-Maricopa-Rd-Buckeye-AZ-85326/2092372167_zpid/,33.3848,-112.58,2017-10-18,2017-10-18
1268632,22731181,"3515 E Erie St, Gilbert, AZ 85295 ",85295,0.8109154105186462,220000,https://www.zillow.com/homedetails/3515-E-Erie-St-Gilbert-AZ-85295/95187885_zpid/,33.3092,-111.714,2017-09-30,2017-09-30
201407,22732018,"7104 S 31st Dr, Phoenix, AZ 85041 ",85041,0.8108008503913879,203900,https://www.zillow.com/homedetails/7104-S-31st-Dr-Phoenix-AZ-85041/60977326_zpid/,33.3822,-112.125,2017-09-29,2017-09-29
9015638,22704145,"8444 W Lewis Ave, Phoenix, AZ 85037 ",85037,0.8106685876846313,176900,https://www.zillow.com/homedetails/8444-W-Lewis-Ave-Phoenix-AZ-85037/82823102_zpid/,33.4743,-112.241,2017-09-21,2017-09-21
940129,22707055,"5296 S 237th Ln, Buckeye, AZ 85326 ",85326,0.8104850649833679,184500,https://www.zillow.com/homedetails/5296-S-237th-Ln-Buckeye-AZ-85326/82828776_zpid/,33.3984,-112.56200000000001,2017-09-22,2017-09-22
935849,22675352,"25779 W Gibson Ln, Buckeye, AZ 85326 ",85326,0.8098644018173218,215000,https://www.zillow.com/homedetails/25779-W-Gibson-Ln-Buckeye-AZ-85326/81995939_zpid/,33.4252,-112.605,2017-09-14,2017-09-14
800131,22717375,"711 S Hall, Mesa, AZ 85204 ",85204,0.8092693090438843,224500,https://www.zillow.com/homedetails/711-S-Hall-Mesa-AZ-85204/7633366_zpid/,33.4023,-111.79299999999999,2017-09-14,2017-09-14
757234,22645875,"4010 E Decatur St, Mesa, AZ 85205 ",85205,0.8089514970779419,210000,https://www.zillow.com/homedetails/4010-E-Decatur-St-Mesa-AZ-85205/7638161_zpid/,33.4267,-111.744,2017-09-09,2017-09-09
914287,22706974,"19456 W Washington St, Buckeye, AZ 85326 ",85326,0.8089023232460022,177500,https://www.zillow.com/homedetails/19456-W-Washington-St-Buckeye-AZ-85326/88784612_zpid/,33.4474,-112.478,2017-09-21,2017-09-21
767712,22741019,"6140 E Inglewood St, Mesa, AZ 85205 ",85205,0.8084928393363953,224000,https://www.zillow.com/homedetails/6140-E-Inglewood-St-Mesa-AZ-85205/7676525_zpid/,33.4481,-111.698,2017-10-06,2017-10-06
59018,22739844,"1622 W Owens Way, Anthem, AZ 85086 ",85086,0.8082639575004578,235000,https://www.zillow.com/homedetails/1622-W-Owens-Way-Anthem-AZ-85086/67775925_zpid/,33.8503,-112.095,2017-10-05,2017-10-05
1199585,22731289,"945 W Cantebria Dr, Gilbert, AZ 85233 ",85233,0.8079562187194824,249900,https://www.zillow.com/homedetails/945-W-Cantebria-Dr-Gilbert-AZ-85233/8181022_zpid/,33.3336,-111.811,2017-09-28,2017-09-28
676537,22677337,"8034 E Neville Ave, Mesa, AZ 85209 ",85209,0.8075613975524902,245000,https://www.zillow.com/homedetails/8034-E-Neville-Ave-Mesa-AZ-85209/8275055_zpid/,33.3674,-111.66,2017-09-12,2017-09-12
432066,22706407,"11016 W Pierson St, Phoenix, AZ 85037 ",85037,0.8068729639053345,214900,https://www.zillow.com/homedetails/11016-W-Pierson-St-Phoenix-AZ-85037/95085111_zpid/,33.506,-112.29700000000001,2017-09-22,2017-09-22
770442,22593845,"6556 E Ivy St, Mesa, AZ 85205 ",85205,0.8066683411598206,240000,https://www.zillow.com/homedetails/6556-E-Ivy-St-Mesa-AZ-85205/7676957_zpid/,33.4459,-111.68799999999999,2017-08-28,2017-08-28
932686,22558940,"253 N 222nd Dr, Buckeye, AZ 85326 ",85326,0.8065124750137329,205000,https://www.zillow.com/homedetails/253-N-222nd-Dr-Buckeye-AZ-85326/60997084_zpid/,33.45,-112.53,2017-08-22,2017-08-22
8981869,23796878,"5955 E Colby St, Mesa, AZ 85205 ",85205,0.8062476515769958,182500,https://www.zillow.com/homedetails/5955-E-Colby-St-Mesa-AZ-85205/2093297884_zpid/,33.4258,-111.70200000000001,2017-09-29,2017-09-29
8997572,22740740,"22413 W Morning Glory St, Buckeye, AZ 85326 ",85326,0.8058792352676392,215900,https://www.zillow.com/homedetails/22413-W-Morning-Glory-St-Buckeye-AZ-85326/95129484_zpid/,33.4445,-112.53299999999999,2017-10-04,2017-10-04
9019188,22732337,"7507 S 12th Ave, Phoenix, AZ 85041 ",85041,0.8058561682701111,235732,https://www.zillow.com/homedetails/7507-S-12th-Ave-Phoenix-AZ-85041/95161575_zpid/,33.3783,-112.087,2017-09-30,2017-09-30
194219,22747286,"2612 W Burgess Ln, Phoenix, AZ 85041 ",85041,0.8046590685844421,228000,https://www.zillow.com/homedetails/2612-W-Burgess-Ln-Phoenix-AZ-85041/62727594_zpid/,33.3897,-112.115,2017-10-03,2017-10-03
933347,22703128,"25531 W Ripple Rd, Buckeye, AZ 85326 ",85326,0.8045387864112854,194500,https://www.zillow.com/homedetails/25531-W-Ripple-Rd-Buckeye-AZ-85326/71610853_zpid/,33.4232,-112.6,2017-09-21,2017-09-21
191577,22688185,"1926 W Burgess Ln, Phoenix, AZ 85041 ",85041,0.8041144609451294,236500,https://www.zillow.com/homedetails/1926-W-Burgess-Ln-Phoenix-AZ-85041/67781758_zpid/,33.3897,-112.101,2017-09-13,2017-09-13
195437,22710779,"3202 W Saint Catherine Ave, Phoenix, AZ 85041 ",85041,0.8039727807044983,235000,https://www.zillow.com/homedetails/3202-W-Saint-Catherine-Ave-Phoenix-AZ-85041/67764960_zpid/,33.388000000000005,-112.12700000000001,2017-09-21,2017-09-21
937071,22621194,"25858 W Pleasant Ln, Buckeye, AZ 85326 ",85326,0.8037919998168945,210000,https://www.zillow.com/homedetails/25858-W-Pleasant-Ln-Buckeye-AZ-85326/71610647_zpid/,33.3914,-112.60700000000001,2017-09-03,2017-09-03
448988,22734457,"8504 W College Dr, Phoenix, AZ 85037 ",85037,0.8027625679969788,190000,https://www.zillow.com/homedetails/8504-W-College-Dr-Phoenix-AZ-85037/7483600_zpid/,33.5084,-112.243,2017-10-03,2017-10-03
1710613,22745468,"23200 N Toro Ct, Sun City West, AZ 85375 ",85375,0.8023359179496765,244900,https://www.zillow.com/homedetails/23200-N-Toro-Ct-Sun-City-West-AZ-85375/8121954_zpid/,33.6948,-112.368,2017-10-07,2017-10-07
190807,22693975,"1638 W Alta Vista Rd, Phoenix, AZ 85041 ",85041,0.8023284077644348,190000,https://www.zillow.com/homedetails/1638-W-Alta-Vista-Rd-Phoenix-AZ-85041/60554396_zpid/,33.3898,-112.094,2017-09-20,2017-09-20
1687554,22739829,"13318 W Broken Arrow Dr, Sun City West, AZ 85375 ",85375,0.8023148775100708,249900,https://www.zillow.com/homedetails/13318-W-Broken-Arrow-Dr-Sun-City-West-AZ-85375/8120207_zpid/,33.6694,-112.345,2017-10-04,2017-10-04
801193,22728255,"921 E Garnet Ave, Mesa, AZ 85204 ",85204,0.8020645380020142,238500,https://www.zillow.com/homedetails/921-E-Garnet-Ave-Mesa-AZ-85204/7629246_zpid/,33.3912,-111.811,2017-09-28,2017-09-28
786487,22634118,"1445 E Edgewood Ave, Mesa, AZ 85204 ",85204,0.8020092248916626,235000,https://www.zillow.com/homedetails/1445-E-Edgewood-Ave-Mesa-AZ-85204/7627045_zpid/,33.3998,-111.8,2017-09-04,2017-09-04
9013150,22688245,"7503 S 12th Ave, Phoenix, AZ 85041 ",85041,0.8014922142028809,219525,https://www.zillow.com/homedetails/7503-S-12th-Ave-Phoenix-AZ-85041/95154957_zpid/,33.3785,-112.087,2017-09-15,2017-09-15
790406,22730235,"1035 E Millett Ave, Mesa, AZ 85204 ",85204,0.8008249998092651,247500,https://www.zillow.com/homedetails/1035-E-Millett-Ave-Mesa-AZ-85204/7629863_zpid/,33.3993,-111.809,2017-09-29,2017-09-29
526828,22737450,"9418 W Sheridan St, Phoenix, AZ 85037 ",85037,0.8005205988883972,214500,https://www.zillow.com/homedetails/9418-W-Sheridan-St-Phoenix-AZ-85037/67773035_zpid/,33.475,-112.262,2017-09-28,2017-09-28
196550,22714145,"3717 W Nancy Ln, Phoenix, AZ 85041 ",85041,0.800510048866272,209000,https://www.zillow.com/homedetails/3717-W-Nancy-Ln-Phoenix-AZ-85041/67774261_zpid/,33.3894,-112.139,2017-09-25,2017-09-25
756261,22698087,"243 N 58th St, Mesa, AZ 85205 ",85205,0.8002392053604126,230000,https://www.zillow.com/homedetails/243-N-58th-St-Mesa-AZ-85205/7663432_zpid/,33.4204,-111.706,2017-09-14,2017-09-14
931551,22707029,"251 S 195th Dr, Buckeye, AZ 85326 ",85326,0.8000999093055725,214000,https://www.zillow.com/homedetails/251-S-195th-Dr-Buckeye-AZ-85326/95145471_zpid/,33.4445,-112.479,2017-09-22,2017-09-22
1260641,22745553,"2555 E Bart St, Gilbert, AZ 85295 ",85295,0.7996401190757751,229900,https://www.zillow.com/homedetails/2555-E-Bart-St-Gilbert-AZ-85295/81983627_zpid/,33.3197,-111.735,2017-10-08,2017-10-08
767943,22723927,"6205 E Covina St, Mesa, AZ 85205 ",85205,0.798842191696167,217000,https://www.zillow.com/homedetails/6205-E-Covina-St-Mesa-AZ-85205/7668203_zpid/,33.4244,-111.697,2017-09-26,2017-09-26
656864,22564338,"2031 S Gordon, Mesa, AZ 85209 ",85209,0.7983055710792542,205000,https://www.zillow.com/homedetails/2031-S-Gordon-Mesa-AZ-85209/52478809_zpid/,33.3783,-111.645,2017-08-22,2017-08-22
784692,22719644,"1050 E 9th Ave, Mesa, AZ 85204 ",85204,0.7982534170150757,225000,https://www.zillow.com/homedetails/1050-E-9th-Ave-Mesa-AZ-85204/7629874_zpid/,33.399,-111.80799999999999,2017-09-25,2017-09-25
770841,22730283,"6637 E Fox Cir, Mesa, AZ 85205 ",85205,0.7975716590881348,249999,https://www.zillow.com/homedetails/6637-E-Fox-Cir-Mesa-AZ-85205/7677787_zpid/,33.4358,-111.68700000000001,2017-09-29,2017-09-29
772099,22694976,"149 N 63rd St, Mesa, AZ 85205 ",85205,0.7972701191902161,219000,https://www.zillow.com/homedetails/149-N-63rd-St-Mesa-AZ-85205/7666772_zpid/,33.4189,-111.695,2017-09-20,2017-09-20
432006,22730812,"11007 W College Dr, Phoenix, AZ 85037 ",85037,0.7970019578933716,200000,https://www.zillow.com/homedetails/11007-W-College-Dr-Phoenix-AZ-85037/94638476_zpid/,33.5071,-112.29700000000001,2017-09-28,2017-09-28
797574,22745148,"3350 E Florian Ave, Mesa, AZ 85204 ",85204,0.7966369986534119,216900,https://www.zillow.com/homedetails/3350-E-Florian-Ave-Mesa-AZ-85204/7648059_zpid/,33.395,-111.759,2017-10-09,2017-10-09
8991926,22677175,"226 N 56th Pl, Mesa, AZ 85205 ",85205,0.7965771555900574,197490,https://www.zillow.com/homedetails/226-N-56th-Pl-Mesa-AZ-85205/2093059371_zpid/,33.4228,-111.71,2017-09-11,2017-09-11
8991927,22684349,"236 N 56th Pl, Mesa, AZ 85205 ",85205,0.7965771555900574,196990,https://www.zillow.com/homedetails/236-N-56th-Pl-Mesa-AZ-85205/2093059213_zpid/,33.4228,-111.71,2017-09-11,2017-09-11
565077,22610214,"10030 E Isleta Ave, Mesa, AZ 85209 ",85209,0.7958279252052307,210000,https://www.zillow.com/homedetails/10030-E-Isleta-Ave-Mesa-AZ-85209/71607613_zpid/,33.3855,-111.615,2017-09-01,2017-09-01
1023131,22710161,"1470 E County Down Dr, Chandler, AZ 85249 ",85249,0.7957576513290405,239000,https://www.zillow.com/homedetails/1470-E-County-Down-Dr-Chandler-AZ-85249/8227924_zpid/,33.2083,-111.815,2017-09-22,2017-09-22
197098,23512231,"3929 W Park St, Phoenix, AZ 85041 ",85041,0.7952186465263367,209650,https://www.zillow.com/homedetails/3929-W-Park-St-Phoenix-AZ-85041/55258375_zpid/,33.3802,-112.14399999999999,2017-10-10,2017-10-10
19763,22735101,"758 S Gentry, Mesa, AZ 85204 ",85204,0.7947937250137329,220000,https://www.zillow.com/homedetails/758-S-Gentry-Mesa-AZ-85204/7647069_zpid/,33.382,-111.785,2017-10-03,2017-10-03
202455,22723275,"8103 S 5th Ave, Phoenix, AZ 85041 ",85041,0.7944103479385376,225000,https://www.zillow.com/homedetails/8103-S-5th-Ave-Phoenix-AZ-85041/95142752_zpid/,33.3731,-112.08,2017-09-26,2017-09-26
789169,22738955,"1420 E Edgewood Ave, Mesa, AZ 85204 ",85204,0.794374406337738,229900,https://www.zillow.com/homedetails/1420-E-Edgewood-Ave-Mesa-AZ-85204/7627021_zpid/,33.4002,-111.8,2017-10-05,2017-10-05
1214233,23526850,"1419 N Thunderbird Ave, Gilbert, AZ 85234 ",85234,0.7942319512367249,235000,https://www.zillow.com/homedetails/1419-N-Thunderbird-Ave-Gilbert-AZ-85234/59731843_zpid/,33.3761,-111.725,2017-10-11,2017-10-11
909782,22684847,"1268 S 226th Dr, Buckeye, AZ 85326 ",85326,0.7938321828842163,167500,https://www.zillow.com/homedetails/1268-S-226th-Dr-Buckeye-AZ-85326/62634595_zpid/,33.435,-112.538,2017-09-16,2017-09-16
772780,23796870,"4936 E Halifax St, Mesa, AZ 85205 ",85205,0.7937591075897217,234900,https://www.zillow.com/homedetails/4936-E-Halifax-St-Mesa-AZ-85205/7660011_zpid/,33.4433,-111.72399999999999,2017-10-11,2017-10-11
8964635,22733496,"24598 W Sheraton Ln, Buckeye, AZ 85326 ",85326,0.7936227321624756,236900,https://www.zillow.com/homedetails/24598-W-Sheraton-Ln-Buckeye-AZ-85326/95148348_zpid/,33.4007,-112.58,2017-10-03,2017-10-03
432342,22695619,"11108 W Calle Del Sol, Phoenix, AZ 85037 ",85037,0.7935678362846375,189900,https://www.zillow.com/homedetails/11108-W-Calle-Del-Sol-Phoenix-AZ-85037/7477778_zpid/,33.4966,-112.29799999999999,2017-09-13,2017-09-13
191593,23802511,"1935 W Nancy Ln, Phoenix, AZ 85041 ",85041,0.7931574583053589,219500,https://www.zillow.com/homedetails/1935-W-Nancy-Ln-Phoenix-AZ-85041/63102771_zpid/,33.3901,-112.101,2017-10-06,2017-10-06
9003593,22621199,"6227 S 41ST Dr, Phoenix, AZ 85041 ",85041,0.7931070923805237,219900,https://www.zillow.com/homedetails/6227-S-41ST-Dr-Phoenix-AZ-85041/95071055_zpid/,33.3891,-112.147,2017-09-04,2017-09-04
678752,23649826,"8421 E Lindner Ave, Mesa, AZ 85209 ",85209,0.7928679585456848,214900,https://www.zillow.com/homedetails/8421-E-Lindner-Ave-Mesa-AZ-85209/67763444_zpid/,33.3757,-111.65299999999999,2017-10-13,2017-10-13
934842,22740754,"25689 W Morning Dove Ct, Buckeye, AZ 85326 ",85326,0.7924647331237793,179000,https://www.zillow.com/homedetails/25689-W-Morning-Dove-Ct-Buckeye-AZ-85326/60997590_zpid/,33.3834,-112.603,2017-10-06,2017-10-06
195703,22746425,"3256 W Huntington Dr, Phoenix, AZ 85041 ",85041,0.7924142479896545,217900,https://www.zillow.com/homedetails/3256-W-Huntington-Dr-Phoenix-AZ-85041/71601711_zpid/,33.393,-112.12899999999999,2017-10-06,2017-10-06
450214,22642480,"8705 W Roanoke Ave, Phoenix, AZ 85037 ",85037,0.7920874953269958,210000,https://www.zillow.com/homedetails/8705-W-Roanoke-Ave-Phoenix-AZ-85037/7473636_zpid/,33.4784,-112.24700000000001,2017-09-08,2017-09-08
435581,22732846,"2207 N 87th Dr, Phoenix, AZ 85037 ",85037,0.7915019989013672,184900,https://www.zillow.com/homedetails/2207-N-87th-Dr-Phoenix-AZ-85037/7487726_zpid/,33.4706,-112.24700000000001,2017-09-30,2017-09-30
788356,23802508,"1923 S Windsor, Mesa, AZ 85204 ",85204,0.791328489780426,243000,https://www.zillow.com/homedetails/1923-S-Windsor-Mesa-AZ-85204/7653196_zpid/,33.3802,-111.77600000000001,2017-10-03,2017-10-03
928729,22730198,"24007 W Twilight Trl, Buckeye, AZ 85326 ",85326,0.7895252108573914,168000,https://www.zillow.com/homedetails/24007-W-Twilight-Trl-Buckeye-AZ-85326/61501874_zpid/,33.4405,-112.56700000000001,2017-09-29,2017-09-29
9002820,22740780,"5111 S 245TH Ln, Buckeye, AZ 85326 ",85326,0.7892593145370483,238900,https://www.zillow.com/homedetails/5111-S-245TH-Ln-Buckeye-AZ-85326/95077384_zpid/,33.4,-112.579,2017-10-06,2017-10-06
191448,22711813,"1838 W Minton St, Phoenix, AZ 85041 ",85041,0.7889531850814819,229900,https://www.zillow.com/homedetails/1838-W-Minton-St-Phoenix-AZ-85041/121851706_zpid/,33.3812,-112.098,2017-09-20,2017-09-20
921861,23754349,"22797 W Solano Dr, Buckeye, AZ 85326 ",85326,0.7886735796928406,172000,https://www.zillow.com/homedetails/22797-W-Solano-Dr-Buckeye-AZ-85326/67787385_zpid/,33.4466,-112.541,2017-10-16,2017-10-16
1214451,23756808,"1438 E Laurel Ave, Gilbert, AZ 85234 ",85234,0.788242757320404,249000,https://www.zillow.com/homedetails/1438-E-Laurel-Ave-Gilbert-AZ-85234/8235767_zpid/,33.3609,-111.758,2017-10-19,2017-10-19
657153,22738983,"2056 S Olivewood, Mesa, AZ 85209 ",85209,0.7878103852272034,239000,https://www.zillow.com/homedetails/2056-S-Olivewood-Mesa-AZ-85209/50196479_zpid/,33.3774,-111.601,2017-10-04,2017-10-04
27401,22723268,"5619 S 16th Dr, Phoenix, AZ 85041 ",85041,0.7877041697502136,204998,https://www.zillow.com/homedetails/5619-S-16th-Dr-Phoenix-AZ-85041/68015583_zpid/,33.3952,-112.09299999999999,2017-09-26,2017-09-26
1260474,23752184,"2542 E Vermont Dr, Gilbert, AZ 85295 ",85295,0.7870057225227356,249999,https://www.zillow.com/homedetails/2542-E-Vermont-Dr-Gilbert-AZ-85295/95107867_zpid/,33.3037,-111.735,2017-10-12,2017-10-12
528633,22730918,"9966 W Monterosa Ave, Phoenix, AZ 85037 ",85037,0.7865015268325806,165000,https://www.zillow.com/homedetails/9966-W-Monterosa-Ave-Phoenix-AZ-85037/7484629_zpid/,33.4961,-112.27600000000001,2017-09-30,2017-09-30
801715,22703446,"944 E Hampton Ave, Mesa, AZ 85204 ",85204,0.7862001657485962,214000,https://www.zillow.com/homedetails/944-E-Hampton-Ave-Mesa-AZ-85204/92349034_zpid/,33.3899,-111.811,2017-09-21,2017-09-21
202983,22736991,"9216 S 7th Ave, Phoenix, AZ 85041 ",85041,0.7858372330665588,193750,https://www.zillow.com/homedetails/9216-S-7th-Ave-Phoenix-AZ-85041/8132490_zpid/,33.3626,-112.084,2017-09-05,2017-09-05
1255101,23757873,"1712 E Los Alamos St, Gilbert, AZ 85295 ",85295,0.785537838935852,236000,https://www.zillow.com/homedetails/1712-E-Los-Alamos-St-Gilbert-AZ-85295/8243548_zpid/,33.3151,-111.75299999999999,2017-10-19,2017-10-19
9019954,22740798,"836 S 239th Ln, Buckeye, AZ 85326 ",85326,0.7848650813102722,174900,https://www.zillow.com/homedetails/836-S-239th-Ln-Buckeye-AZ-85326/61631224_zpid/,33.439,-112.56700000000001,2017-10-05,2017-10-05
197525,22710801,"4102 W Carter Rd, Phoenix, AZ 85041 ",85041,0.7843254208564758,189000,https://www.zillow.com/homedetails/4102-W-Carter-Rd-Phoenix-AZ-85041/60047540_zpid/,33.3821,-112.147,2017-09-21,2017-09-21
771858,23649831,"929 N Sandal Cir, Mesa, AZ 85205 ",85205,0.7832213640213013,249900,https://www.zillow.com/homedetails/929-N-Sandal-Cir-Mesa-AZ-85205/7673272_zpid/,33.4326,-111.70700000000001,2017-10-12,2017-10-12
925794,22713529,"23584 W Harrison Dr, Buckeye, AZ 85326 ",85326,0.7830842733383179,179900,https://www.zillow.com/homedetails/23584-W-Harrison-Dr-Buckeye-AZ-85326/95091196_zpid/,33.4308,-112.555,2017-09-24,2017-09-24
84445,23653302,"19030 E Seagull Dr, Queen Creek, AZ 85142 ",85142,0.7829546928405762,239999,http://www.zillow.com/homedetails/19030-E-Seagull-Dr-Queen-Creek-AZ-85142/81955463_zpid,33.2772,-111.67200000000001,2017-10-12,2017-10-12
95043,23587990,"22358 E Via Del Rancho, Queen Creek, AZ 85142 ",85142,0.7829371690750122,239000,http://www.zillow.com/homedetails/22358-E-Via-Del-Rancho-Queen-Creek-AZ-85142/67772153_zpid,33.235,-111.603,2017-10-12,2017-10-12
95110,23796720,"22378 E Via Del Palo, Queen Creek, AZ 85142 ",85142,0.7829371690750122,229900,http://www.zillow.com/homedetails/22378-E-Via-Del-Palo-Queen-Creek-AZ-85142/67772116_zpid,33.2347,-111.601,2017-10-15,2017-10-15
1094399,23809172,"808 E Calle Del Norte, Chandler, AZ 85225 ",85225,0.7826619744300842,231000,https://www.zillow.com/homedetails/808-E-Calle-Del-Norte-Chandler-AZ-85225/8182115_zpid/,33.3294,-111.829,2017-10-16,2017-10-16
1213301,23752858,"133 E Laurel Ave, Gilbert, AZ 85234 ",85234,0.7816745042800903,199900,https://www.zillow.com/homedetails/133-E-Laurel-Ave-Gilbert-AZ-85234/8234778_zpid/,33.3592,-111.785,2017-10-15,2017-10-15
936356,22740755,"25814 W Victory St, Buckeye, AZ 85326 ",85326,0.7815264463424683,179900,https://www.zillow.com/homedetails/25814-W-Victory-St-Buckeye-AZ-85326/67796893_zpid/,33.415,-112.60600000000001,2017-10-05,2017-10-05
63907,22739848,"41330 N Belfair Way, Anthem, AZ 85086 ",85086,0.7808328866958618,229900,https://www.zillow.com/homedetails/41330-N-Belfair-Way-Anthem-AZ-85086/55263958_zpid/,33.8602,-112.10700000000001,2017-10-05,2017-10-05
445258,22579487,"4631 N 108th Dr, Phoenix, AZ 85037 ",85037,0.7794703245162964,199900,https://www.zillow.com/homedetails/4631-N-108th-Dr-Phoenix-AZ-85037/82240291_zpid/,33.5036,-112.294,2017-08-25,2017-08-25
193249,22741943,"2406 W Mobile Ln, Phoenix, AZ 85041 ",85041,0.7792823314666748,195000,https://www.zillow.com/homedetails/2406-W-Mobile-Ln-Phoenix-AZ-85041/67774049_zpid/,33.4002,-112.11,2017-10-06,2017-10-06
8989698,22507365,"6520 S 38th Dr, Phoenix, AZ 85041 ",85041,0.7790210247039795,245000,https://www.zillow.com/homedetails/6520-S-38th-Dr-Phoenix-AZ-85041/2093117491_zpid/,33.3841,-112.141,2017-08-15,2017-08-15
911663,22744929,"155 S 229th Dr, Buckeye, AZ 85326 ",85326,0.7789984941482544,199900,https://www.zillow.com/homedetails/155-S-229th-Dr-Buckeye-AZ-85326/67711084_zpid/,33.4459,-112.544,2017-10-09,2017-10-09
9018184,22723649,"222 S 225th Ave, Buckeye, AZ 85326 ",85326,0.7786170840263367,214999,https://www.zillow.com/homedetails/222-S-225th-Ave-Buckeye-AZ-85326/95074692_zpid/,33.4452,-112.536,2017-09-27,2017-09-27
916277,22744935,"21764 W Renegade St, Buckeye, AZ 85326 ",85326,0.7785179018974304,209900,https://www.zillow.com/homedetails/21764-W-Renegade-St-Buckeye-AZ-85326/71629105_zpid/,33.4296,-112.51899999999999,2017-10-08,2017-10-08
769446,22684365,"635 N 55th Pl, Mesa, AZ 85205 ",85205,0.7781038284301758,194700,https://www.zillow.com/homedetails/635-N-55th-Pl-Mesa-AZ-85205/7662439_zpid/,33.4277,-111.711,2017-09-16,2017-09-16
908926,22647202,"1118 S 225th Ave, Buckeye, AZ 85326 ",85326,0.7776980400085449,169000,https://www.zillow.com/homedetails/1118-S-225th-Ave-Buckeye-AZ-85326/81972579_zpid/,33.4364,-112.535,2017-09-10,2017-09-10
805588,23754187,"3412 E Carol Ave, Mesa, AZ 85204 ",85204,0.7767992615699768,219499,https://www.zillow.com/homedetails/3412-E-Carol-Ave-Mesa-AZ-85204/7645444_zpid/,33.4061,-111.758,2017-10-16,2017-10-16
795678,23796850,"2647 E Holmes Ave, Mesa, AZ 85204 ",85204,0.7765365839004517,219996,https://www.zillow.com/homedetails/2647-E-Holmes-Ave-Mesa-AZ-85204/7652159_zpid/,33.389,-111.77600000000001,2017-10-16,2017-10-16
62801,23752298,"40028 N Cross Timbers Ct, Anthem, AZ 85086 ",85086,0.7756083011627197,239000,https://www.zillow.com/homedetails/40028-N-Cross-Timbers-Ct-Anthem-AZ-85086/60255187_zpid/,33.8484,-112.118,2017-10-14,2017-10-14
913783,22733483,"19283 W Washington St, Buckeye, AZ 85326 ",85326,0.7754470705986023,203000,https://www.zillow.com/homedetails/19283-W-Washington-St-Buckeye-AZ-85326/87799788_zpid/,33.4473,-112.47399999999999,2017-10-02,2017-10-02
939898,23649598,"509 S 9th St, Buckeye, AZ 85326 ",85326,0.7753466963768005,179000,https://www.zillow.com/homedetails/509-S-9th-St-Buckeye-AZ-85326/8287002_zpid/,33.365,-112.57799999999999,2017-10-13,2017-10-13
926841,22558953,"23760 W La Salle St, Buckeye, AZ 85326 ",85326,0.7753221988677979,185000,https://www.zillow.com/homedetails/23760-W-La-Salle-St-Buckeye-AZ-85326/82828746_zpid/,33.3973,-112.56200000000001,2017-08-22,2017-08-22
8982134,22738473,"1723 W Minton St, Phoenix, AZ 85041 ",85041,0.7752523422241211,224999,https://www.zillow.com/homedetails/1723-W-Minton-St-Phoenix-AZ-85041/121854453_zpid/,33.3807,-112.096,2017-10-04,2017-10-04
527019,22747540,"9424 W Pierson St, Phoenix, AZ 85037 ",85037,0.7751473784446716,212000,https://www.zillow.com/homedetails/9424-W-Pierson-St-Phoenix-AZ-85037/52423672_zpid/,33.5071,-112.26299999999999,2017-10-10,2017-10-10
8950768,22737533,"145 S 224TH Ave, Buckeye, AZ 85326 ",85326,0.7750775814056396,206900,https://www.zillow.com/homedetails/145-S-224TH-Ave-Buckeye-AZ-85326/95173887_zpid/,33.449,-112.53299999999999,2017-10-04,2017-10-04
801140,22651109,"920 S Fraser Cir, Mesa, AZ 85204 ",85204,0.7746500372886658,212900,https://www.zillow.com/homedetails/920-S-Fraser-Cir-Mesa-AZ-85204/7629698_zpid/,33.3983,-111.81200000000001,2017-09-06,2017-09-06
934139,22626862,"25610 W Red Sky Pl, Buckeye, AZ 85326 ",85326,0.7744140028953552,218000,https://www.zillow.com/homedetails/25610-W-Red-Sky-Pl-Buckeye-AZ-85326/60997726_zpid/,33.3819,-112.601,2017-09-05,2017-09-05
801010,23793874,"901 E Harmony Ave, Mesa, AZ 85204 ",85204,0.7741068601608276,249900,https://www.zillow.com/homedetails/901-E-Harmony-Ave-Mesa-AZ-85204/7629354_zpid/,33.3887,-111.81200000000001,2017-10-15,2017-10-15
931037,22643069,"24975 W Dove Mesa Dr, Buckeye, AZ 85326 ",85326,0.7739764451980591,160000,https://www.zillow.com/homedetails/24975-W-Dove-Mesa-Dr-Buckeye-AZ-85326/62739563_zpid/,33.3985,-112.587,2017-09-08,2017-09-08
1050469,22700548,"6990 S Senate St, Chandler, AZ 85249 ",85249,0.7739073038101196,230000,https://www.zillow.com/homedetails/6990-S-Senate-St-Chandler-AZ-85249/55274921_zpid/,33.2046,-111.819,2017-09-02,2017-09-02
427546,22737778,"10238 W Monterosa St, Phoenix, AZ 85037 ",85037,0.7738690972328186,210000,https://www.zillow.com/homedetails/10238-W-Monterosa-St-Phoenix-AZ-85037/7483974_zpid/,33.4953,-112.281,2017-09-30,2017-09-30
13631,22747292,"2627 W Novak Way, Phoenix, AZ 85041 ",85041,0.7736799716949463,230000,https://www.zillow.com/homedetails/2627-W-Novak-Way-Phoenix-AZ-85041/62727584_zpid/,33.3888,-112.116,2017-10-09,2017-10-09
671334,22723933,"7441 E Irwin Ave, Mesa, AZ 85209 ",85209,0.7732065916061401,195900,https://www.zillow.com/homedetails/7441-E-Irwin-Ave-Mesa-AZ-85209/8074681_zpid/,33.3836,-111.67200000000001,2017-09-27,2017-09-27
930982,22737728,"24960 W Dove Mesa Dr, Buckeye, AZ 85326 ",85326,0.7727924585342407,174900,https://www.zillow.com/homedetails/24960-W-Dove-Mesa-Dr-Buckeye-AZ-85326/62739525_zpid/,33.3988,-112.587,2017-10-04,2017-10-04
8985507,22740741,"22416 W Morning Glory St, Buckeye, AZ 85326 ",85326,0.7727648615837097,208900,https://www.zillow.com/homedetails/22416-W-Morning-Glory-St-Buckeye-AZ-85326/95150650_zpid/,33.4449,-112.53299999999999,2017-10-04,2017-10-04
8986571,22733499,"24633 W Sheraton Ln, Buckeye, AZ 85326 ",85326,0.7723585367202759,216900,https://www.zillow.com/homedetails/24633-W-Sheraton-Ln-Buckeye-AZ-85326/95120222_zpid/,33.4002,-112.581,2017-10-03,2017-10-03
61514,23753680,"3536 W Steinbeck Ct, Anthem, AZ 85086 ",85086,0.7716187834739685,245000,https://www.zillow.com/homedetails/3536-W-Steinbeck-Ct-Anthem-AZ-85086/55264626_zpid/,33.8552,-112.13600000000001,2017-10-16,2017-10-16
9016016,22740736,"22412 W Loma Linda Blvd, Buckeye, AZ 85326 ",85326,0.7675595879554749,210900,https://www.zillow.com/homedetails/22412-W-Loma-Linda-Blvd-Buckeye-AZ-85326/95075181_zpid/,33.4442,-112.53299999999999,2017-10-04,2017-10-04
806813,22712221,"857 S 33rd Pl, Mesa, AZ 85204 ",85204,0.767299234867096,229900,https://www.zillow.com/homedetails/857-S-33rd-Pl-Mesa-AZ-85204/7648164_zpid/,33.3994,-111.759,2017-09-23,2017-09-23
771602,23810646,"727 N Bermuda, Mesa, AZ 85205 ",85205,0.766905665397644,242900,https://www.zillow.com/homedetails/727-N-Bermuda-Mesa-AZ-85205/7637684_zpid/,33.4289,-111.75200000000001,2017-10-27,2017-10-27
922312,23649571,"22849 W Hopi St, Buckeye, AZ 85326 ",85326,0.7654939889907837,224900,https://www.zillow.com/homedetails/22849-W-Hopi-St-Buckeye-AZ-85326/67787159_zpid/,33.4296,-112.544,2017-10-13,2017-10-13
9020505,23526370,"24498 W Atlanta Ave, Buckeye, AZ 85326 ",85326,0.7650616765022278,239900,https://www.zillow.com/homedetails/24498-W-Atlanta-Ave-Buckeye-AZ-85326/95183261_zpid/,33.3998,-112.56299999999999,2017-10-10,2017-10-10
1265373,23759387,"3012 E Megan St, Gilbert, AZ 85295 ",85295,0.7646763324737549,239000,https://www.zillow.com/homedetails/3012-E-Megan-St-Gilbert-AZ-85295/81982561_zpid/,33.3209,-111.725,2017-10-20,2017-10-20
22933,22734467,"8739 W Fairmount Ave, Phoenix, AZ 85037 ",85037,0.7646076083183289,170000,https://www.zillow.com/homedetails/8739-W-Fairmount-Ave-Phoenix-AZ-85037/7471067_zpid/,33.492,-112.24799999999999,2017-10-03,2017-10-03
793532,23805342,"2240 E Isabella Ave, Mesa, AZ 85204 ",85204,0.7641206383705139,215000,https://www.zillow.com/homedetails/2240-E-Isabella-Ave-Mesa-AZ-85204/7652605_zpid/,33.3856,-111.78299999999999,2017-10-25,2017-10-25
927832,23649582,"23868 W Tonto St, Buckeye, AZ 85326 ",85326,0.7634273767471313,198850,https://www.zillow.com/homedetails/23868-W-Tonto-St-Buckeye-AZ-85326/61631107_zpid/,33.4372,-112.564,2017-10-13,2017-10-13
306104,23753243,"37910 N Pagoda Ln, Phoenix, AZ 85086 ",85086,0.7621679306030273,225000,https://www.zillow.com/homedetails/37910-N-Pagoda-Ln-Phoenix-AZ-85086/81987480_zpid/,33.8286,-112.14299999999999,2017-10-15,2017-10-15
932920,22684855,"25408 W Clanton Ave, Buckeye, AZ 85326 ",85326,0.7619709968566895,165000,https://www.zillow.com/homedetails/25408-W-Clanton-Ave-Buckeye-AZ-85326/81987237_zpid/,33.3675,-112.59700000000001,2017-09-15,2017-09-15
95607,23806949,"22646 S 208th St, Queen Creek, AZ 85142 ",85142,0.7618083953857422,219000,https://www.zillow.com/homedetails/22646-S-208th-St-Queen-Creek-AZ-85142/59260574_zpid/,33.2424,-111.632,2017-10-25,2017-10-25
945073,22707049,"4519 S 237th Ln, Buckeye, AZ 85326 ",85326,0.7612667083740234,177900,https://www.zillow.com/homedetails/4519-S-237th-Ln-Buckeye-AZ-85326/95182545_zpid/,33.4056,-112.561,2017-09-20,2017-09-20
193310,22933774,"2411 W Melody Dr, Phoenix, AZ 85041 ",85041,0.7604700326919556,238000,https://www.zillow.com/homedetails/2411-W-Melody-Dr-Phoenix-AZ-85041/92348074_zpid/,33.3744,-112.11200000000001,2017-10-10,2017-10-10
567748,23649695,"10262 E Isleta Ave, Mesa, AZ 85209 ",85209,0.7601497173309326,224900,https://www.zillow.com/homedetails/10262-E-Isleta-Ave-Mesa-AZ-85209/67792324_zpid/,33.385999999999996,-111.609,2017-10-13,2017-10-13
799546,23799665,"558 E Gable Ave, Mesa, AZ 85204 ",85204,0.7596340179443359,199900,https://www.zillow.com/homedetails/558-E-Gable-Ave-Mesa-AZ-85204/7628734_zpid/,33.3925,-111.819,2017-10-16,2017-10-16
1091540,23758032,"691 E Stottler Pl, Chandler, AZ 85225 ",85225,0.7588639855384827,240000,https://www.zillow.com/homedetails/691-E-Stottler-Pl-Chandler-AZ-85225/8181866_zpid/,33.3326,-111.83,2017-10-19,2017-10-19
672631,23649851,"7561 E Monte Ave, Mesa, AZ 85209 ",85209,0.7576746940612793,244900,https://www.zillow.com/homedetails/7561-E-Monte-Ave-Mesa-AZ-85209/8273260_zpid/,33.3702,-111.67200000000001,2017-10-13,2017-10-13
62441,23805728,"39523 N Prairie Ln, Anthem, AZ 85086 ",85086,0.7576382160186768,234900,https://www.zillow.com/homedetails/39523-N-Prairie-Ln-Anthem-AZ-85086/64894781_zpid/,33.8439,-112.096,2017-10-24,2017-10-24
94610,23809040,"22256 S 214th St, Queen Creek, AZ 85142 ",85142,0.7574478983879089,235000,https://www.zillow.com/homedetails/22256-S-214th-St-Queen-Creek-AZ-85142/60991187_zpid/,33.2458,-111.62100000000001,2017-10-26,2017-10-26
940268,22744936,"5418 S 236th Ave, Buckeye, AZ 85326 ",85326,0.7571256756782532,204900,https://www.zillow.com/homedetails/5418-S-236th-Ave-Buckeye-AZ-85326/82828834_zpid/,33.3972,-112.559,2017-10-09,2017-10-09
200451,22693966,"6623 S 17th Ave, Phoenix, AZ 85041 ",85041,0.7569688558578491,189000,https://www.zillow.com/homedetails/6623-S-17th-Ave-Phoenix-AZ-85041/59272440_zpid/,33.385999999999996,-112.095,2017-09-19,2017-09-19
198232,22711838,"4850 S 4th Ave, Phoenix, AZ 85041 ",85041,0.7569498419761658,177000,https://www.zillow.com/homedetails/4850-S-4th-Ave-Phoenix-AZ-85041/95177011_zpid/,33.4015,-112.07799999999999,2017-09-22,2017-09-22
200810,22694521,"6826 S 38th Ln, Phoenix, AZ 85041 ",85041,0.7565669417381287,204900,https://www.zillow.com/homedetails/6826-S-38th-Ln-Phoenix-AZ-85041/67789778_zpid/,33.384,-112.14200000000001,2017-09-19,2017-09-19
427675,22730823,"10313 W Calle Del Oro, Phoenix, AZ 85037 ",85037,0.7561935186386108,181800,https://www.zillow.com/homedetails/10313-W-Calle-Del-Oro-Phoenix-AZ-85037/7465875_zpid/,33.5003,-112.28399999999999,2017-09-29,2017-09-29
933703,22510420,"25559 W Burgess Ln, Buckeye, AZ 85326 ",85326,0.7560328841209412,224000,https://www.zillow.com/homedetails/25559-W-Burgess-Ln-Buckeye-AZ-85326/81982923_zpid/,33.3884,-112.601,2017-08-14,2017-08-14
926210,23649573,"23649 W Levi Dr, Buckeye, AZ 85326 ",85326,0.7557216286659241,174900,https://www.zillow.com/homedetails/23649-W-Levi-Dr-Buckeye-AZ-85326/95088267_zpid/,33.4042,-112.56,2017-10-14,2017-10-14
8950797,22681415,"2020 E Chicago St, Chandler, AZ 85225 ",85225,0.7554212212562561,185000,https://www.zillow.com/homedetails/2020-E-Chicago-St-Chandler-AZ-85225/8204918_zpid/,33.3012,-111.805,2017-09-15,2017-09-15
795306,23796827,"2548 E Inverness Ave, Mesa, AZ 85204 ",85204,0.7553005218505859,217000,https://www.zillow.com/homedetails/2548-E-Inverness-Ave-Mesa-AZ-85204/7652903_zpid/,33.3824,-111.77600000000001,2017-09-28,2017-09-28
765893,22730274,"5826 E Casper Rd, Mesa, AZ 85205 ",85205,0.7551846504211426,190000,https://www.zillow.com/homedetails/5826-E-Casper-Rd-Mesa-AZ-85205/7662752_zpid/,33.4253,-111.705,2017-09-29,2017-09-29
430477,22747622,"10841 W Elm St, Phoenix, AZ 85037 ",85037,0.7551196217536926,219900,https://www.zillow.com/homedetails/10841-W-Elm-St-Phoenix-AZ-85037/81988279_zpid/,33.5053,-112.294,2017-10-10,2017-10-10
191774,22933813,"2020 W Hasan Dr, Phoenix, AZ 85041 ",85041,0.7546782493591309,224900,https://www.zillow.com/homedetails/2020-W-Hasan-Dr-Phoenix-AZ-85041/63179338_zpid/,33.3912,-112.102,2017-10-10,2017-10-10
1230880,23809923,"4042 E Orion St, Gilbert, AZ 85234 ",85234,0.754607081413269,249990,https://www.zillow.com/homedetails/4042-E-Orion-St-Gilbert-AZ-85234/8272527_zpid/,33.3666,-111.70299999999999,2017-10-26,2017-10-26
13624,22644691,"2526 W Beverly Rd, Phoenix, AZ 85041 ",85041,0.7545238733291626,207000,https://www.zillow.com/homedetails/2526-W-Beverly-Rd-Phoenix-AZ-85041/92425316_zpid/,33.3747,-112.11399999999999,2017-09-08,2017-09-08
929811,22610825,"24656 W Mobile Ln, Buckeye, AZ 85326 ",85326,0.75431227684021,192900,https://www.zillow.com/homedetails/24656-W-Mobile-Ln-Buckeye-AZ-85326/95150098_zpid/,33.4017,-112.581,2017-08-29,2017-08-29
4563,22642496,"10831 W Calle Del Sol, Phoenix, AZ 85037 ",85037,0.7541961073875427,189900,https://www.zillow.com/homedetails/10831-W-Calle-Del-Sol-Phoenix-AZ-85037/7477760_zpid/,33.4955,-112.294,2017-09-08,2017-09-08
656207,23649752,"2021 S Boca Cir, Mesa, AZ 85209 ",85209,0.753695547580719,248000,https://www.zillow.com/homedetails/2021-S-Boca-Cir-Mesa-AZ-85209/62735520_zpid/,33.3756,-111.611,2017-10-12,2017-10-12
761782,23809563,"5022 E Colby St, Mesa, AZ 85205 ",85205,0.7530176639556885,235000,https://www.zillow.com/homedetails/5022-E-Colby-St-Mesa-AZ-85205/7639176_zpid/,33.4258,-111.723,2017-10-26,2017-10-26
935657,22637994,"25762 W Winslow Ave, Buckeye, AZ 85326 ",85326,0.7525128126144409,189900,https://www.zillow.com/homedetails/25762-W-Winslow-Ave-Buckeye-AZ-85326/67797313_zpid/,33.4198,-112.605,2017-09-07,2017-09-07
922906,23526375,"22966 W Solano Dr, Buckeye, AZ 85326 ",85326,0.7522411942481995,179900,https://www.zillow.com/homedetails/22966-W-Solano-Dr-Buckeye-AZ-85326/67799697_zpid/,33.4468,-112.545,2017-10-11,2017-10-11
446210,23650443,"4731 N 94th Ave, Phoenix, AZ 85037 ",85037,0.7521837949752808,218000,https://www.zillow.com/homedetails/4731-N-94th-Ave-Phoenix-AZ-85037/52423670_zpid/,33.5067,-112.26100000000001,2017-10-12,2017-10-12
450692,23753402,"8742 W Edgemont Ave, Phoenix, AZ 85037 ",85037,0.752177894115448,190000,https://www.zillow.com/homedetails/8742-W-Edgemont-Ave-Phoenix-AZ-85037/7473770_zpid/,33.4794,-112.249,2017-10-12,2017-10-12
919776,23649693,"22448 W Adams St, Buckeye, AZ 85326 ",85326,0.7510030269622803,199999,https://www.zillow.com/homedetails/22448-W-Adams-St-Buckeye-AZ-85326/71626239_zpid/,33.4492,-112.53299999999999,2017-10-13,2017-10-13
803891,22744382,"2131 E Forge Ave, Mesa, AZ 85204 ",85204,0.7506100535392761,219500,https://www.zillow.com/homedetails/2131-E-Forge-Ave-Mesa-AZ-85204/7647589_zpid/,33.3961,-111.785,2017-10-07,2017-10-07
9006473,23649603,"8 N 226th Ln, Buckeye, AZ 85326 ",85326,0.7502747774124146,185000,https://www.zillow.com/homedetails/8-N-226th-Ln-Buckeye-AZ-85326/71626208_zpid/,33.4475,-112.539,2017-10-14,2017-10-14
918705,23649564,"22237 W Solano Dr, Buckeye, AZ 85326 ",85326,0.7502367496490479,206000,https://www.zillow.com/homedetails/22237-W-Solano-Dr-Buckeye-AZ-85326/60997169_zpid/,33.4464,-112.529,2017-10-12,2017-10-12
653764,23758256,"1316 S Providence Cir, Mesa, AZ 85209 ",85209,0.7502102255821228,223900,https://www.zillow.com/homedetails/1316-S-Providence-Cir-Mesa-AZ-85209/59267687_zpid/,33.3912,-111.633,2017-10-20,2017-10-20
798763,22602017,"461 S Forest, Mesa, AZ 85204 ",85204,0.7501612305641174,185000,https://www.zillow.com/homedetails/461-S-Forest-Mesa-AZ-85204/7626307_zpid/,33.4063,-111.792,2017-08-30,2017-08-30
930308,22684850,"24811 W Wayland Dr, Buckeye, AZ 85326 ",85326,0.7488307952880859,168900,https://www.zillow.com/homedetails/24811-W-Wayland-Dr-Buckeye-AZ-85326/82822482_zpid/,33.3954,-112.585,2017-09-16,2017-09-16
1703443,22711351,"18814 N Zinnia Ct, Sun City West, AZ 85375 ",85375,0.7486633658409119,244900,https://www.zillow.com/homedetails/18814-N-Zinnia-Ct-Sun-City-West-AZ-85375/8110465_zpid/,33.6563,-112.32799999999999,2017-09-22,2017-09-22
932854,22675354,"25394 W Darrel Dr, Buckeye, AZ 85326 ",85326,0.7479225397109985,180000,https://www.zillow.com/homedetails/25394-W-Darrel-Dr-Buckeye-AZ-85326/89026843_zpid/,33.3844,-112.59700000000001,2017-09-14,2017-09-14
15264,22740536,"611 N Sunland Dr, Chandler, AZ 85225 ",85225,0.7473211288452148,210000,https://www.zillow.com/homedetails/611-N-Sunland-Dr-Chandler-AZ-85225/8187200_zpid/,33.3142,-111.844,2017-10-04,2017-10-04
754593,22715063,"135 N 62nd St, Mesa, AZ 85205 ",85205,0.7473196983337402,182900,https://www.zillow.com/homedetails/135-N-62nd-St-Mesa-AZ-85205/7666980_zpid/,33.4185,-111.697,2017-09-23,2017-09-23
927227,23649581,"23814 W Wayland Dr, Buckeye, AZ 85326 ",85326,0.7469614744186401,169900,https://www.zillow.com/homedetails/23814-W-Wayland-Dr-Buckeye-AZ-85326/82827005_zpid/,33.3948,-112.56299999999999,2017-10-13,2017-10-13
308654,23809089,"40749 N Citrus Canyon Trl, Anthem, AZ 85086 ",85086,0.7466486096382141,219500,https://www.zillow.com/homedetails/40749-N-Citrus-Canyon-Trl-Anthem-AZ-85086/61278849_zpid/,33.8538,-112.113,2017-10-26,2017-10-26
803965,23756169,"221 S Olive, Mesa, AZ 85204 ",85204,0.7465109825134277,227999,https://www.zillow.com/homedetails/221-S-Olive-Mesa-AZ-85204/7625392_zpid/,33.4108,-111.818,2017-10-16,2017-10-16
908216,23649532,"1020 S 226th Ave, Buckeye, AZ 85326 ",85326,0.7461035251617432,199000,https://www.zillow.com/homedetails/1020-S-226th-Ave-Buckeye-AZ-85326/81997907_zpid/,33.4374,-112.537,2017-10-12,2017-10-12
1209562,23759898,"1010 N Palm St, Gilbert, AZ 85234 ",85234,0.7445032000541687,249000,https://www.zillow.com/homedetails/1010-N-Palm-St-Gilbert-AZ-85234/8234330_zpid/,33.3688,-111.786,2017-10-21,2017-10-21
427508,23796730,"10231 W Hazelwood Ave, Phoenix, AZ 85037 ",85037,0.7444499731063843,230000,https://www.zillow.com/homedetails/10231-W-Hazelwood-Ave-Phoenix-AZ-85037/7483962_zpid/,33.5031,-112.28200000000001,2017-10-05,2017-10-05
909759,23527092,"1263 S 220th Dr, Buckeye, AZ 85326 ",85326,0.7442124485969543,199750,https://www.zillow.com/homedetails/1263-S-220th-Dr-Buckeye-AZ-85326/82822502_zpid/,33.4351,-112.524,2017-10-11,2017-10-11
786045,23805330,"1350 S Harris Dr, Mesa, AZ 85204 ",85204,0.7438363432884216,247900,https://www.zillow.com/homedetails/1350-S-Harris-Dr-Mesa-AZ-85204/7627532_zpid/,33.3903,-111.79700000000001,2017-10-24,2017-10-24
62434,23810857,"39519 N Prairie Ln, Anthem, AZ 85086 ",85086,0.7435370087623596,243000,https://www.zillow.com/homedetails/39519-N-Prairie-Ln-Anthem-AZ-85086/64712745_zpid/,33.8438,-112.096,2017-10-27,2017-10-27
1185293,23809903,"255 N Tiago Dr, Gilbert, AZ 85233 ",85233,0.7431800365447998,234900,https://www.zillow.com/homedetails/255-N-Tiago-Dr-Gilbert-AZ-85233/8283656_zpid/,33.3546,-111.807,2017-10-26,2017-10-26
9021603,23794761,"20131 W Tonto St, Buckeye, AZ 85326 ",85326,0.7428559064865112,214459,https://www.zillow.com/homedetails/20131-W-Tonto-St-Buckeye-AZ-85326/95179836_zpid/,33.4367,-112.492,2017-10-08,2017-10-08
674373,22686863,"7845 E Lindner Ave, Mesa, AZ 85209 ",85209,0.7426528930664062,217500,https://www.zillow.com/homedetails/7845-E-Lindner-Ave-Mesa-AZ-85209/8229796_zpid/,33.3766,-111.665,2017-09-17,2017-09-17
1199971,23756869,"969 W Hudson Way, Gilbert, AZ 85233 ",85233,0.7424124479293823,225000,https://www.zillow.com/homedetails/969-W-Hudson-Way-Gilbert-AZ-85233/8173130_zpid/,33.3728,-111.81299999999999,2017-10-19,2017-10-19
928550,22740748,"23979 W Wayland Dr, Buckeye, AZ 85326 ",85326,0.7421979904174805,155000,https://www.zillow.com/homedetails/23979-W-Wayland-Dr-Buckeye-AZ-85326/82827088_zpid/,33.3946,-112.56700000000001,2017-10-05,2017-10-05
565035,23809527,"10026 E Isabella Ave, Mesa, AZ 85209 ",85209,0.742188036441803,221000,https://www.zillow.com/homedetails/10026-E-Isabella-Ave-Mesa-AZ-85209/71607634_zpid/,33.385,-111.61399999999999,2017-10-26,2017-10-26
9020499,23526326,"9336 E Fairway Blvd, Sun Lakes, AZ 85248 ",85248,0.741610050201416,235000,https://www.zillow.com/homedetails/9336-E-Fairway-Blvd-Sun-Lakes-AZ-85248/92350449_zpid/,33.2128,-111.882,2017-10-09,2017-10-09
201868,23512324,"7315 S 30th Ave, Phoenix, AZ 85041 ",85041,0.7415871024131775,220000,https://www.zillow.com/homedetails/7315-S-30th-Ave-Phoenix-AZ-85041/60977105_zpid/,33.3795,-112.12299999999999,2017-10-11,2017-10-11
939572,22712589,"4888 S 245th Dr, Buckeye, AZ 85326 ",85326,0.7415701746940613,169500,https://www.zillow.com/homedetails/4888-S-245th-Dr-Buckeye-AZ-85326/95162677_zpid/,33.4022,-112.579,2017-09-23,2017-09-23
1273564,23809098,"4489 E Harrison St, Gilbert, AZ 85295 ",85295,0.7415088415145874,229000,https://www.zillow.com/homedetails/4489-E-Harrison-St-Gilbert-AZ-85295/60987715_zpid/,33.3164,-111.694,2017-10-26,2017-10-26
1681133,23526866,"12615 W Rampart Dr, Sun City West, AZ 85375 ",85375,0.7414994239807129,240000,https://www.zillow.com/homedetails/12615-W-Rampart-Dr-Sun-City-West-AZ-85375/8111814_zpid/,33.6481,-112.333,2017-10-11,2017-10-11
911099,23649541,"1440 S 222nd Ln, Buckeye, AZ 85326 ",85326,0.7408429980278015,198000,https://www.zillow.com/homedetails/1440-S-222nd-Ln-Buckeye-AZ-85326/67799797_zpid/,33.4335,-112.53,2017-10-14,2017-10-14
933107,22595037,"25455 W Lincoln Ave, Buckeye, AZ 85326 ",85326,0.7399371266365051,158900,https://www.zillow.com/homedetails/25455-W-Lincoln-Ave-Buckeye-AZ-85326/81996412_zpid/,33.368,-112.598,2017-08-28,2017-08-28
926538,22578795,"23701 W Grove St, Buckeye, AZ 85326 ",85326,0.7394710183143616,182500,https://www.zillow.com/homedetails/23701-W-Grove-St-Buckeye-AZ-85326/82777091_zpid/,33.3988,-112.561,2017-08-24,2017-08-24
302851,23796617,"2353 W Owens Ct, Anthem, AZ 85086 ",85086,0.7394133806228638,229900,https://www.zillow.com/homedetails/2353-W-Owens-Ct-Anthem-AZ-85086/59424840_zpid/,33.8499,-112.111,2017-10-24,2017-10-24
924893,23805306,"23357 W Pima St, Buckeye, AZ 85326 ",85326,0.7393289804458618,182900,https://www.zillow.com/homedetails/23357-W-Pima-St-Buckeye-AZ-85326/62739727_zpid/,33.433,-112.553,2017-10-24,2017-10-24
912957,23649540,"1828 S 238th Ln, Buckeye, AZ 85326 ",85326,0.7387480735778809,227000,https://www.zillow.com/homedetails/1828-S-238th-Ln-Buckeye-AZ-85326/92348987_zpid/,33.4299,-112.565,2017-10-14,2017-10-14
787223,23754727,"1642 S Whiting, Mesa, AZ 85204 ",85204,0.7376128435134888,249900,https://www.zillow.com/homedetails/1642-S-Whiting-Mesa-AZ-85204/7652961_zpid/,33.3847,-111.77799999999999,2017-10-17,2017-10-17
910792,23649534,"1382 S 228th Dr, Buckeye, AZ 85326 ",85326,0.7375608682632446,172000,https://www.zillow.com/homedetails/1382-S-228th-Dr-Buckeye-AZ-85326/60997286_zpid/,33.434,-112.542,2017-10-13,2017-10-13
1090459,23810641,"631 W Caroline Ln, Chandler, AZ 85225 ",85225,0.7375109791755676,230000,https://www.zillow.com/homedetails/631-W-Caroline-Ln-Chandler-AZ-85225/8183658_zpid/,33.3304,-111.851,2017-10-27,2017-10-27
59871,23809855,"2587 W Patagonia Way, Anthem, AZ 85086 ",85086,0.7372331619262695,236000,https://www.zillow.com/homedetails/2587-W-Patagonia-Way-Anthem-AZ-85086/62569477_zpid/,33.8467,-112.115,2017-10-26,2017-10-26
928164,23756406,"23930 W Lasso Ln, Buckeye, AZ 85326 ",85326,0.7371624708175659,229900,https://www.zillow.com/homedetails/23930-W-Lasso-Ln-Buckeye-AZ-85326/61631234_zpid/,33.4398,-112.566,2017-10-19,2017-10-19
1540451,23808132,"10501 E Watford Way, Sun Lakes, AZ 85248 ",85248,0.7371461391448975,249900,https://www.zillow.com/homedetails/10501-E-Watford-Way-Sun-Lakes-AZ-85248/8217143_zpid/,33.2083,-111.855,2017-10-26,2017-10-26
8906433,22747477,"7235 S 17th Dr, Phoenix, AZ 85041 ",85041,0.7365174293518066,219999,https://www.zillow.com/homedetails/7235-S-17th-Dr-Phoenix-AZ-85041/121852817_zpid/,33.3821,-112.096,2017-10-08,2017-10-08
784962,23758228,"1064 S Lazona Dr, Mesa, AZ 85204 ",85204,0.7363913655281067,234900,https://www.zillow.com/homedetails/1064-S-Lazona-Dr-Mesa-AZ-85204/7627193_zpid/,33.3953,-111.802,2017-10-20,2017-10-20
759349,23809562,"4726 E Hannibal St, Mesa, AZ 85205 ",85205,0.7362457513809204,240000,https://www.zillow.com/homedetails/4726-E-Hannibal-St-Mesa-AZ-85205/7672273_zpid/,33.4439,-111.729,2017-10-26,2017-10-26
1859,23650472,"9128 W Alvarado St, Phoenix, AZ 85037 ",85037,0.736193060874939,214000,https://www.zillow.com/homedetails/9128-W-Alvarado-St-Phoenix-AZ-85037/60047210_zpid/,33.4712,-112.257,2017-10-12,2017-10-12
794079,22738988,"2359 E Birchwood Ave, Mesa, AZ 85204 ",85204,0.7361676096916199,206000,https://www.zillow.com/homedetails/2359-E-Birchwood-Ave-Mesa-AZ-85204/7640737_zpid/,33.4096,-111.78,2017-10-05,2017-10-05
915058,23752602,"20210 W Desert Bloom St, Buckeye, AZ 85326 ",85326,0.7358707785606384,206000,https://www.zillow.com/homedetails/20210-W-Desert-Bloom-St-Buckeye-AZ-85326/95081019_zpid/,33.4365,-112.527,2017-10-15,2017-10-15
917765,23810345,"22073 W Cantilever St, Buckeye, AZ 85326 ",85326,0.735827624797821,183900,https://www.zillow.com/homedetails/22073-W-Cantilever-St-Buckeye-AZ-85326/62694805_zpid/,33.4479,-112.52600000000001,2017-10-27,2017-10-27
1548013,22681597,"25254 S Lakeway Dr, Sun Lakes, AZ 85248 ",85248,0.7355853319168091,227900,https://www.zillow.com/homedetails/25254-S-Lakeway-Dr-Sun-Lakes-AZ-85248/8220856_zpid/,33.2165,-111.882,2017-09-15,2017-09-15
202993,23757658,"9221 S Leila Ln, Phoenix, AZ 85041 ",85041,0.7353304624557495,199900,https://www.zillow.com/homedetails/9221-S-Leila-Ln-Phoenix-AZ-85041/59266004_zpid/,33.3625,-112.074,2017-10-19,2017-10-19
449589,23796595,"8551 W Sheridan St, Phoenix, AZ 85037 ",85037,0.7353123426437378,220000,https://www.zillow.com/homedetails/8551-W-Sheridan-St-Phoenix-AZ-85037/7487376_zpid/,33.4745,-112.245,2017-10-23,2017-10-23
1235311,23756862,"4707 E Laurel Ave, Gilbert, AZ 85234 ",85234,0.7349962592124939,199900,https://www.zillow.com/homedetails/4707-E-Laurel-Ave-Gilbert-AZ-85234/71608462_zpid/,33.3608,-111.69,2017-10-19,2017-10-19
527753,23797429,"9509 W Elm St, Phoenix, AZ 85037 ",85037,0.7349076271057129,205000,https://www.zillow.com/homedetails/9509-W-Elm-St-Phoenix-AZ-85037/55256235_zpid/,33.5056,-112.265,2017-10-24,2017-10-24
763754,23809566,"5353 E Elmwood St, Mesa, AZ 85205 ",85205,0.7346085906028748,210000,https://www.zillow.com/homedetails/5353-E-Elmwood-St-Mesa-AZ-85205/7673058_zpid/,33.433,-111.715,2017-10-27,2017-10-27
765156,23810410,"5709 E Evergreen St, Mesa, AZ 85205 ",85205,0.7345638871192932,232000,https://www.zillow.com/homedetails/5709-E-Evergreen-St-Mesa-AZ-85205/7673285_zpid/,33.4318,-111.708,2017-10-27,2017-10-27
200562,23753399,"6710 S 37th Ln, Phoenix, AZ 85041 ",85041,0.7335981130599976,232500,https://www.zillow.com/homedetails/6710-S-37th-Ln-Phoenix-AZ-85041/71619498_zpid/,33.385999999999996,-112.14,2017-10-13,2017-10-13
923337,23796263,"23018 W Mohave St, Buckeye, AZ 85326 ",85326,0.7331221103668213,182900,https://www.zillow.com/homedetails/23018-W-Mohave-St-Buckeye-AZ-85326/62739410_zpid/,33.4321,-112.546,2017-10-23,2017-10-23
925288,23756395,"23425 W Harrison Dr, Buckeye, AZ 85326 ",85326,0.7328721880912781,204000,https://www.zillow.com/homedetails/23425-W-Harrison-Dr-Buckeye-AZ-85326/67779718_zpid/,33.4308,-112.555,2017-10-19,2017-10-19
1091743,23760164,"701 N Colorado St, Chandler, AZ 85225 ",85225,0.7326527833938599,213500,https://www.zillow.com/homedetails/701-N-Colorado-St-Chandler-AZ-85225/8188001_zpid/,33.3154,-111.839,2017-10-15,2017-10-15
926491,23649579,"23694 W Chambers St, Buckeye, AZ 85326 ",85326,0.7320711612701416,187500,https://www.zillow.com/homedetails/23694-W-Chambers-St-Buckeye-AZ-85326/82778292_zpid/,33.3982,-112.561,2017-10-13,2017-10-13
8966382,22740737,"22405 W Morning Glory St, Buckeye, AZ 85326 ",85326,0.7319331169128418,199900,https://www.zillow.com/homedetails/22405-W-Morning-Glory-St-Buckeye-AZ-85326/95076215_zpid/,33.4446,-112.53200000000001,2017-10-04,2017-10-04
785981,23801678,"1346 E Nielson Ave, Mesa, AZ 85204 ",85204,0.7315864562988281,219000,https://www.zillow.com/homedetails/1346-E-Nielson-Ave-Mesa-AZ-85204/7624301_zpid/,33.4109,-111.802,2017-10-24,2017-10-24
791501,23807599,"1544 E Hilton Ave, Mesa, AZ 85204 ",85204,0.7314345836639404,234000,https://www.zillow.com/homedetails/1544-E-Hilton-Ave-Mesa-AZ-85204/7627616_zpid/,33.3881,-111.79799999999999,2017-10-25,2017-10-25
775954,23757831,"6523 E Ingram St, Mesa, AZ 85205 ",85205,0.7313491702079773,219777,https://www.zillow.com/homedetails/6523-E-Ingram-St-Mesa-AZ-85205/7676924_zpid/,33.4472,-111.69,2017-10-19,2017-10-19
917370,23809475,"22017 W Cantilever St, Buckeye, AZ 85326 ",85326,0.7310238480567932,197000,https://www.zillow.com/homedetails/22017-W-Cantilever-St-Buckeye-AZ-85326/62694813_zpid/,33.4478,-112.524,2017-10-26,2017-10-26
795249,23806974,"2534 E Glade Ave, Mesa, AZ 85204 ",85204,0.7308522462844849,240000,https://www.zillow.com/homedetails/2534-E-Glade-Ave-Mesa-AZ-85204/7652268_zpid/,33.3916,-111.777,2017-10-25,2017-10-25
937092,22744807,"25860 W Elizabeth Ave, Buckeye, AZ 85326 ",85326,0.7308216691017151,188500,https://www.zillow.com/homedetails/25860-W-Elizabeth-Ave-Buckeye-AZ-85326/81993372_zpid/,33.4271,-112.60700000000001,2017-10-09,2017-10-09
9016014,22740738,"22410 W Morning Glory St, Buckeye, AZ 85326 ",85326,0.7306947708129883,199900,https://www.zillow.com/homedetails/22410-W-Morning-Glory-St-Buckeye-AZ-85326/95134990_zpid/,33.4449,-112.53299999999999,2017-10-04,2017-10-04
2802,23801824,"132 S 223rd Ave, Buckeye, AZ 85326 ",85326,0.7306332588195801,202900,https://www.zillow.com/homedetails/132-S-223rd-Ave-Buckeye-AZ-85326/60962622_zpid/,33.4461,-112.53,2017-10-24,2017-10-24
9020044,22741467,"15214 W Sky Hawk Dr, Sun City West, AZ 85375 ",85375,0.7305901050567627,239000,https://www.zillow.com/homedetails/15214-W-Sky-Hawk-Dr-Sun-City-West-AZ-85375/8118918_zpid/,33.6731,-112.382,2017-10-06,2017-10-06
916069,23757750,"21681 W Durango St, Buckeye, AZ 85326 ",85326,0.7302241325378418,239900,https://www.zillow.com/homedetails/21681-W-Durango-St-Buckeye-AZ-85326/88786715_zpid/,33.4288,-112.51700000000001,2017-10-20,2017-10-20
1075269,23796771,"1803 N Cheri Lynn Dr, Chandler, AZ 85225 ",85225,0.729801595211029,239900,https://www.zillow.com/homedetails/1803-N-Cheri-Lynn-Dr-Chandler-AZ-85225/8183501_zpid/,33.3321,-111.853,2017-10-19,2017-10-19
672294,23805359,"7533 E Nido Ave, Mesa, AZ 85209 ",85209,0.7297413945198059,230000,https://www.zillow.com/homedetails/7533-E-Nido-Ave-Mesa-AZ-85209/8274092_zpid/,33.3691,-111.67200000000001,2017-10-24,2017-10-24
201932,23796533,"7405 S 40th Ave, Phoenix, AZ 85041 ",85041,0.7291451096534729,209900,https://www.zillow.com/homedetails/7405-S-40th-Ave-Phoenix-AZ-85041/55258362_zpid/,33.3797,-112.14399999999999,2017-10-22,2017-10-22
786952,23796761,"1555 E Mahoney Ave, Mesa, AZ 85204 ",85204,0.7290732860565186,208000,https://www.zillow.com/homedetails/1555-E-Mahoney-Ave-Mesa-AZ-85204/7624020_zpid/,33.4139,-111.79700000000001,2017-10-02,2017-10-02
308763,23796420,"40919 N Citrus Canyon Trl, Anthem, AZ 85086 ",85086,0.7286293506622314,246999,https://www.zillow.com/homedetails/40919-N-Citrus-Canyon-Trl-Anthem-AZ-85086/61501862_zpid/,33.8562,-112.11200000000001,2017-10-23,2017-10-23
122583,22739828,"12807 W Jadestone Dr, Sun City West, AZ 85375 ",85375,0.7285780310630798,249900,https://www.zillow.com/homedetails/12807-W-Jadestone-Dr-Sun-City-West-AZ-85375/8110078_zpid/,33.6641,-112.33200000000001,2017-10-04,2017-10-04
193750,23752672,"2512 W Darrel Rd, Phoenix, AZ 85041 ",85041,0.7281017303466797,207000,https://www.zillow.com/homedetails/2512-W-Darrel-Rd-Phoenix-AZ-85041/62727665_zpid/,33.3846,-112.113,2017-10-15,2017-10-15
521769,23806422,"9002 W Clarendon Ave, Phoenix, AZ 85037 ",85037,0.7276114821434021,169000,https://www.zillow.com/homedetails/9002-W-Clarendon-Ave-Phoenix-AZ-85037/7470545_zpid/,33.4905,-112.25399999999999,2017-10-25,2017-10-25
451535,23753568,"8801 W Mariposa St, Phoenix, AZ 85037 ",85037,0.7270162105560303,187900,https://www.zillow.com/homedetails/8801-W-Mariposa-St-Phoenix-AZ-85037/7483286_zpid/,33.5074,-112.249,2017-10-16,2017-10-16
917776,23809473,"22080 W Yavapai St, Buckeye, AZ 85326 ",85326,0.7266520261764526,187500,https://www.zillow.com/homedetails/22080-W-Yavapai-St-Buckeye-AZ-85326/67803100_zpid/,33.4351,-112.525,2017-10-26,2017-10-26
95070,23585565,"22364 E Via Del Rancho, Queen Creek, AZ 85142 ",85142,0.7263873219490051,209900,http://www.zillow.com/homedetails/22364-E-Via-Del-Rancho-Queen-Creek-AZ-85142/67772150_zpid,33.2347,-111.603,2017-10-11,2017-10-11
9021383,23757759,"994 S 220th Ln, Buckeye, AZ 85326 ",85326,0.7259631752967834,219900,https://www.zillow.com/homedetails/994-S-220th-Ln-Buckeye-AZ-85326/71626279_zpid/,33.4376,-112.525,2017-10-19,2017-10-19
436097,23756175,"2311 N 91st Gln, Phoenix, AZ 85037 ",85037,0.7259418368339539,226900,https://www.zillow.com/homedetails/2311-N-91st-Gln-Phoenix-AZ-85037/60974969_zpid/,33.4747,-112.257,2017-10-18,2017-10-18
201702,23757455,"7225 S 37th Dr, Phoenix, AZ 85041 ",85041,0.7254881858825684,221900,https://www.zillow.com/homedetails/7225-S-37th-Dr-Phoenix-AZ-85041/62727711_zpid/,33.3806,-112.13799999999999,2017-10-18,2017-10-18
1691370,22687841,"13730 W Utica Dr, Sun City West, AZ 85375 ",85375,0.7245387434959412,189900,https://www.zillow.com/homedetails/13730-W-Utica-Dr-Sun-City-West-AZ-85375/8114586_zpid/,33.6569,-112.35799999999999,2017-09-15,2017-09-15
448364,23512346,"8402 W Fairmount Ave, Phoenix, AZ 85037 ",85037,0.7242118120193481,170000,https://www.zillow.com/homedetails/8402-W-Fairmount-Ave-Phoenix-AZ-85037/7470144_zpid/,33.4902,-112.24,2017-10-10,2017-10-10
9001852,22740739,"22395 W Loma Linda Cir, Buckeye, AZ 85326 ",85326,0.723840057849884,186900,https://www.zillow.com/homedetails/22395-W-Loma-Linda-Cir-Buckeye-AZ-85326/95165880_zpid/,33.4438,-112.53200000000001,2017-10-04,2017-10-04
763457,23526528,"5317 E Des Moines St, Mesa, AZ 85205 ",85205,0.7236451506614685,179000,https://www.zillow.com/homedetails/5317-E-Des-Moines-St-Mesa-AZ-85205/7662680_zpid/,33.4275,-111.71600000000001,2017-10-11,2017-10-11
8971411,23526363,"24624 W Sheraton Ln, Buckeye, AZ 85326 ",85326,0.7235583662986755,218900,https://www.zillow.com/homedetails/24624-W-Sheraton-Ln-Buckeye-AZ-85326/95173149_zpid/,33.4007,-112.581,2017-10-10,2017-10-10
441208,22747304,"2921 N 87th Ave, Phoenix, AZ 85037 ",85037,0.7234315276145935,159999,https://www.zillow.com/homedetails/2921-N-87th-Ave-Phoenix-AZ-85037/7480314_zpid/,33.4806,-112.24600000000001,2017-10-06,2017-10-06
9021795,23805990,"747 W Rosal Pl, Chandler, AZ 85225 ",85225,0.7232716083526611,249900,https://www.zillow.com/homedetails/747-W-Rosal-Pl-Chandler-AZ-85225/8177685_zpid/,33.3412,-111.855,2017-10-25,2017-10-25
927877,23755437,"23875 W Desert Bloom St, Buckeye, AZ 85326 ",85326,0.7230410575866699,185000,https://www.zillow.com/homedetails/23875-W-Desert-Bloom-St-Buckeye-AZ-85326/61631131_zpid/,33.4363,-112.565,2017-10-18,2017-10-18
194609,23753317,"2826 W Grenadine Rd, Phoenix, AZ 85041 ",85041,0.7227295637130737,229900,https://www.zillow.com/homedetails/2826-W-Grenadine-Rd-Phoenix-AZ-85041/71605174_zpid/,33.399,-112.12,2017-10-16,2017-10-16
922120,23796566,"22829 W Solano Dr, Buckeye, AZ 85326 ",85326,0.7224192023277283,201800,https://www.zillow.com/homedetails/22829-W-Solano-Dr-Buckeye-AZ-85326/67787390_zpid/,33.4468,-112.542,2017-10-23,2017-10-23
196217,23527666,"3448 W Apollo Rd, Phoenix, AZ 85041 ",85041,0.7223460674285889,239900,https://www.zillow.com/homedetails/3448-W-Apollo-Rd-Phoenix-AZ-85041/82819918_zpid/,33.3863,-112.133,2017-10-11,2017-10-11
914054,23526354,"19389 W Monroe St, Buckeye, AZ 85326 ",85326,0.7221489548683167,210000,https://www.zillow.com/homedetails/19389-W-Monroe-St-Buckeye-AZ-85326/88788500_zpid/,33.4488,-112.476,2017-10-09,2017-10-09
918970,22742993,"22271 W Mesquite Dr, Buckeye, AZ 85326 ",85326,0.7217879891395569,170000,https://www.zillow.com/homedetails/22271-W-Mesquite-Dr-Buckeye-AZ-85326/60997008_zpid/,33.4486,-112.53,2017-10-07,2017-10-07
920671,23758161,"22582 W Lasso Ln, Buckeye, AZ 85326 ",85326,0.7216440439224243,195000,https://www.zillow.com/homedetails/22582-W-Lasso-Ln-Buckeye-AZ-85326/81978599_zpid/,33.4382,-112.537,2017-10-20,2017-10-20
526527,23806419,"9409 W Berkeley Rd, Phoenix, AZ 85037 ",85037,0.7215591073036194,234000,https://www.zillow.com/homedetails/9409-W-Berkeley-Rd-Phoenix-AZ-85037/60047081_zpid/,33.4677,-112.262,2017-10-25,2017-10-25
9020923,23752544,"22 W Harwell Rd, Phoenix, AZ 85041 ",85041,0.72148597240448,149900,https://www.zillow.com/homedetails/22-W-Harwell-Rd-Phoenix-AZ-85041/8131606_zpid/,33.3765,-112.074,2017-10-12,2017-10-12
765142,22627137,"5708 E Duncan St, Mesa, AZ 85205 ",85205,0.7212154269218445,199500,https://www.zillow.com/homedetails/5708-E-Duncan-St-Mesa-AZ-85205/7662923_zpid/,33.4294,-111.708,2017-09-05,2017-09-05
441965,22659382,"4022 N 88th Ln, Phoenix, AZ 85037 ",85037,0.7206602096557617,165000,https://www.zillow.com/homedetails/4022-N-88th-Ln-Phoenix-AZ-85037/7470881_zpid/,33.4932,-112.25,2017-09-09,2017-09-09
795350,23802971,"2556 E Holmes Ave, Mesa, AZ 85204 ",85204,0.7206473350524902,227900,https://www.zillow.com/homedetails/2556-E-Holmes-Ave-Mesa-AZ-85204/7652075_zpid/,33.389,-111.77600000000001,2017-10-24,2017-10-24
1702819,22723105,"18247 N 125th Ave, Sun City West, AZ 85375 ",85375,0.7205925583839417,219900,https://www.zillow.com/homedetails/18247-N-125th-Ave-Sun-City-West-AZ-85375/8109837_zpid/,33.6512,-112.329,2017-09-25,2017-09-25
1684326,22723103,"13006 W Jadestone Dr, Sun City West, AZ 85375 ",85375,0.7205762267112732,224900,https://www.zillow.com/homedetails/13006-W-Jadestone-Dr-Sun-City-West-AZ-85375/8107722_zpid/,33.6643,-112.335,2017-09-26,2017-09-26
660650,23796811,"2345 S Joslyn, Mesa, AZ 85209 ",85209,0.7202902436256409,234000,https://www.zillow.com/homedetails/2345-S-Joslyn-Mesa-AZ-85209/55275141_zpid/,33.3728,-111.65,2017-10-19,2017-10-19
124200,22745453,"13234 W Bellwood Dr, Sun City West, AZ 85375 ",85375,0.7201524972915649,249900,https://www.zillow.com/homedetails/13234-W-Bellwood-Dr-Sun-City-West-AZ-85375/8107933_zpid/,33.6603,-112.34200000000001,2017-10-09,2017-10-09
122952,22735732,"12915 W Prospect Dr, Sun City West, AZ 85375 ",85375,0.7200006246566772,179900,https://www.zillow.com/homedetails/12915-W-Prospect-Dr-Sun-City-West-AZ-85375/8109287_zpid/,33.6531,-112.337,2017-09-27,2017-09-27
192820,22933851,"2307 W Darrel Rd, Phoenix, AZ 85041 ",85041,0.7199296951293945,224900,https://www.zillow.com/homedetails/2307-W-Darrel-Rd-Phoenix-AZ-85041/59272586_zpid/,33.3842,-112.10799999999999,2017-10-10,2017-10-10
8992031,23809197,"9502 E Fairway Blvd, Sun Lakes, AZ 85248 ",85248,0.7193112969398499,184000,https://www.zillow.com/homedetails/9502-E-Fairway-Blvd-Sun-Lakes-AZ-85248/8220797_zpid/,33.2079,-111.87899999999999,2017-09-26,2017-09-26
930665,23756399,"24876 W Vista Norte Ct, Buckeye, AZ 85326 ",85326,0.7192696332931519,199000,https://www.zillow.com/homedetails/24876-W-Vista-Norte-Ct-Buckeye-AZ-85326/81995320_zpid/,33.4117,-112.586,2017-10-19,2017-10-19
908196,23755944,"1017 S 221st Dr, Buckeye, AZ 85326 ",85326,0.7191954255104065,199500,https://www.zillow.com/homedetails/1017-S-221st-Dr-Buckeye-AZ-85326/71626287_zpid/,33.4376,-112.527,2017-10-18,2017-10-18
925013,23809478,"23380 W Harrison Dr, Buckeye, AZ 85326 ",85326,0.7191412448883057,208000,https://www.zillow.com/homedetails/23380-W-Harrison-Dr-Buckeye-AZ-85326/67779747_zpid/,33.431,-112.554,2017-10-26,2017-10-26
939187,23755240,"4167 S 250th Ave, Buckeye, AZ 85326 ",85326,0.7190380096435547,220000,https://www.zillow.com/homedetails/4167-S-250th-Ave-Buckeye-AZ-85326/71598948_zpid/,33.4108,-112.588,2017-10-18,2017-10-18
1028837,23810028,"2258 E Palm Beach Dr, Chandler, AZ 85249 ",85249,0.7189455032348633,211900,https://www.zillow.com/homedetails/2258-E-Palm-Beach-Dr-Chandler-AZ-85249/52432553_zpid/,33.2067,-111.802,2017-10-26,2017-10-26
928773,23807950,"24013 W Twilight Trl, Buckeye, AZ 85326 ",85326,0.7187276482582092,205000,https://www.zillow.com/homedetails/24013-W-Twilight-Trl-Buckeye-AZ-85326/61631333_zpid/,33.4405,-112.568,2017-10-25,2017-10-25
918846,23809474,"22247 W Shadow Dr, Buckeye, AZ 85326 ",85326,0.7185961008071899,195000,https://www.zillow.com/homedetails/22247-W-Shadow-Dr-Buckeye-AZ-85326/82385981_zpid/,33.4414,-112.529,2017-10-26,2017-10-26
1071953,23527782,"15 W Galveston St, Chandler, AZ 85225 ",85225,0.7185863852500916,219000,https://www.zillow.com/homedetails/15-W-Galveston-St-Chandler-AZ-85225/8187338_zpid/,33.3134,-111.84200000000001,2017-10-11,2017-10-11
1686468,22725967,"13231 W Pomegranate Dr, Sun City West, AZ 85375 ",85375,0.7180790305137634,184900,https://www.zillow.com/homedetails/13231-W-Pomegranate-Dr-Sun-City-West-AZ-85375/8108146_zpid/,33.6579,-112.34100000000001,2017-09-27,2017-09-27
9020503,23526372,"24458 W Atlanta Ave, Buckeye, AZ 85326 ",85326,0.7180111408233643,186900,https://www.zillow.com/homedetails/24458-W-Atlanta-Ave-Buckeye-AZ-85326/95174141_zpid/,33.3998,-112.56299999999999,2017-10-10,2017-10-10
1686562,23555130,"13235 W Kodiak Dr, Sun City West, AZ 85375 ",85375,0.7178007960319519,227900,https://www.zillow.com/homedetails/13235-W-Kodiak-Dr-Sun-City-West-AZ-85375/8110933_zpid/,33.6501,-112.346,2017-10-12,2017-10-12
785286,23806620,"1158 E Jarvis Ave, Mesa, AZ 85204 ",85204,0.7176895141601562,199900,https://www.zillow.com/homedetails/1158-E-Jarvis-Ave-Mesa-AZ-85204/7624401_zpid/,33.4097,-111.806,2017-10-25,2017-10-25
1031677,23757178,"2660 E Bellerive Dr, Chandler, AZ 85249 ",85249,0.7175454497337341,231000,https://www.zillow.com/homedetails/2660-E-Bellerive-Dr-Chandler-AZ-85249/8215802_zpid/,33.2163,-111.795,2017-10-19,2017-10-19
197368,23806032,"4025 W Carter Rd, Phoenix, AZ 85041 ",85041,0.7174652218818665,178000,https://www.zillow.com/homedetails/4025-W-Carter-Rd-Phoenix-AZ-85041/55258568_zpid/,33.3818,-112.146,2017-10-25,2017-10-25
8962074,23526364,"24635 W Romley Rd, Buckeye, AZ 85326 ",85326,0.7173587083816528,206900,https://www.zillow.com/homedetails/24635-W-Romley-Rd-Buckeye-AZ-85326/95098538_zpid/,33.400999999999996,-112.581,2017-10-10,2017-10-10
767547,22700297,"6116 E Dodge St, Mesa, AZ 85205 ",85205,0.7172361612319946,174999,https://www.zillow.com/homedetails/6116-E-Dodge-St-Mesa-AZ-85205/7667720_zpid/,33.4288,-111.699,2017-09-14,2017-09-14
1095623,23810667,"854 E Manor Dr, Chandler, AZ 85225 ",85225,0.71702641248703,226000,https://www.zillow.com/homedetails/854-E-Manor-Dr-Chandler-AZ-85225/8182101_zpid/,33.3287,-111.82700000000001,2017-10-27,2017-10-27
940965,23754668,"588 S 222nd Ln, Buckeye, AZ 85326 ",85326,0.7167474031448364,204990,https://www.zillow.com/homedetails/588-S-222nd-Ln-Buckeye-AZ-85326/82385966_zpid/,33.4417,-112.53,2017-10-17,2017-10-17
195902,23527658,"3329 W Chanute Pass, Phoenix, AZ 85041 ",85041,0.7159972190856934,225900,https://www.zillow.com/homedetails/3329-W-Chanute-Pass-Phoenix-AZ-85041/71628063_zpid/,33.398,-112.131,2017-10-11,2017-10-11
1081678,22681699,"265 N Exeter St, Chandler, AZ 85225 ",85225,0.7158780097961426,159900,https://www.zillow.com/homedetails/265-N-Exeter-St-Chandler-AZ-85225/8187706_zpid/,33.3073,-111.835,2017-09-15,2017-09-15
8991925,23802768,"224 N 56th Pl, Mesa, AZ 85205 ",85205,0.71554034948349,218490,https://www.zillow.com/homedetails/224-N-56th-Pl-Mesa-AZ-85205/2093059613_zpid/,33.4228,-111.71,2017-10-23,2017-10-23
8991924,23806917,"220 N 56th Pl, Mesa, AZ 85205 ",85205,0.71554034948349,219490,https://www.zillow.com/homedetails/220-N-56th-Pl-Mesa-AZ-85205/2093059263_zpid/,33.4228,-111.71,2017-10-23,2017-10-23
918472,23796258,"22213 W Devin Dr, Buckeye, AZ 85326 ",85326,0.7153769135475159,217500,https://www.zillow.com/homedetails/22213-W-Devin-Dr-Buckeye-AZ-85326/81985291_zpid/,33.4398,-112.52799999999999,2017-10-23,2017-10-23
8986570,23526362,"24580 W Sheraton Ln, Buckeye, AZ 85326 ",85326,0.7148681879043579,208900,https://www.zillow.com/homedetails/24580-W-Sheraton-Ln-Buckeye-AZ-85326/95151159_zpid/,33.4007,-112.58,2017-10-10,2017-10-10
8945994,23526379,"5096 S 245TH Dr, Buckeye, AZ 85326 ",85326,0.7148681879043579,206900,https://www.zillow.com/homedetails/5096-S-245TH-Dr-Buckeye-AZ-85326/95089461_zpid/,33.4002,-112.579,2017-10-10,2017-10-10
916539,22490935,"21877 W Sonora St, Buckeye, AZ 85326 ",85326,0.7140380144119263,210000,https://www.zillow.com/homedetails/21877-W-Sonora-St-Buckeye-AZ-85326/71629036_zpid/,33.4326,-112.521,2017-08-08,2017-08-08
939779,23756410,"5033 S 236th Dr, Buckeye, AZ 85326 ",85326,0.7138376832008362,184000,https://www.zillow.com/homedetails/5033-S-236th-Dr-Buckeye-AZ-85326/95088026_zpid/,33.4009,-112.56,2017-10-19,2017-10-19
9016013,22737532,"22406 W Loma Linda Blvd, Buckeye, AZ 85326 ",85326,0.713778555393219,186900,https://www.zillow.com/homedetails/22406-W-Loma-Linda-Blvd-Buckeye-AZ-85326/95073833_zpid/,33.4442,-112.53299999999999,2017-10-04,2017-10-04
795271,22584123,"2546 E Javelina Ave, Mesa, AZ 85204 ",85204,0.7130947113037109,215000,https://www.zillow.com/homedetails/2546-E-Javelina-Ave-Mesa-AZ-85204/7653128_zpid/,33.3803,-111.777,2017-08-26,2017-08-26
912423,23809012,"1637 S 219th Dr, Buckeye, AZ 85326 ",85326,0.7127669453620911,203000,https://www.zillow.com/homedetails/1637-S-219th-Dr-Buckeye-AZ-85326/67807782_zpid/,33.4319,-112.522,2017-10-26,2017-10-26
448906,22738625,"8455 W Devonshire Ave, Phoenix, AZ 85037 ",85037,0.7125752568244934,169900,https://www.zillow.com/homedetails/8455-W-Devonshire-Ave-Phoenix-AZ-85037/7466636_zpid/,33.4958,-112.242,2017-09-29,2017-09-29
667199,23808020,"7009 E Kiva Ave, Mesa, AZ 85209 ",85209,0.7122305631637573,225500,https://www.zillow.com/homedetails/7009-E-Kiva-Ave-Mesa-AZ-85209/8274021_zpid/,33.3782,-111.68299999999999,2017-10-25,2017-10-25
804324,23808122,"2339 E Alpine Ave, Mesa, AZ 85204 ",85204,0.711971640586853,209000,https://www.zillow.com/homedetails/2339-E-Alpine-Ave-Mesa-AZ-85204/7640512_zpid/,33.4112,-111.781,2017-10-26,2017-10-26
192627,22711817,"223 W Harwell Rd, Phoenix, AZ 85041 ",85041,0.7114152312278748,159900,https://www.zillow.com/homedetails/223-W-Harwell-Rd-Phoenix-AZ-85041/8131549_zpid/,33.3763,-112.07799999999999,2017-09-22,2017-09-22
939270,23756422,"4237 S 247th Dr, Buckeye, AZ 85326 ",85326,0.7113834619522095,219000,https://www.zillow.com/homedetails/4237-S-247th-Dr-Buckeye-AZ-85326/71599013_zpid/,33.4093,-112.583,2017-10-19,2017-10-19
793025,23805340,"2123 E Catalina Ave, Mesa, AZ 85204 ",85204,0.7110243439674377,212900,https://www.zillow.com/homedetails/2123-E-Catalina-Ave-Mesa-AZ-85204/7646933_zpid/,33.4053,-111.78399999999999,2017-10-24,2017-10-24
1085154,23760140,"348 N Nevada St, Chandler, AZ 85225 ",85225,0.7098429799079895,244800,https://www.zillow.com/homedetails/348-N-Nevada-St-Chandler-AZ-85225/8187660_zpid/,33.3088,-111.837,2017-10-21,2017-10-21
9021856,23807616,"541 S Hunt Dr, Mesa, AZ 85204 ",85204,0.7093804478645325,230000,https://www.zillow.com/homedetails/541-S-Hunt-Dr-Mesa-AZ-85204/7632995_zpid/,33.4051,-111.79799999999999,2017-10-25,2017-10-25
942737,22744934,"7266 S 254th Dr, Buckeye, AZ 85326 ",85326,0.7092833518981934,199000,https://www.zillow.com/homedetails/7266-S-254th-Dr-Buckeye-AZ-85326/95180709_zpid/,33.3805,-112.59899999999999,2017-10-09,2017-10-09
932917,23649586,"25412 W Jackson Ave, Buckeye, AZ 85326 ",85326,0.708932101726532,185000,https://www.zillow.com/homedetails/25412-W-Jackson-Ave-Buckeye-AZ-85326/81989225_zpid/,33.3688,-112.598,2017-10-13,2017-10-13
1686447,22732869,"13231 W Jubilee Dr, Sun City West, AZ 85375 ",85375,0.7088434100151062,228500,https://www.zillow.com/homedetails/13231-W-Jubilee-Dr-Sun-City-West-AZ-85375/8115628_zpid/,33.644,-112.34299999999999,2017-10-01,2017-10-01
9022048,23810358,"22388 W Loma Linda Cir, Buckeye, AZ 85326 ",85326,0.7081303000450134,228900,https://www.zillow.com/homedetails/22388-W-Loma-Linda-Cir-Buckeye-AZ-85326/95165849_zpid/,33.4443,-112.53200000000001,2017-10-27,2017-10-27
942094,23526381,"6929 S 251st Dr, Buckeye, AZ 85326 ",85326,0.7077946066856384,189000,https://www.zillow.com/homedetails/6929-S-251st-Dr-Buckeye-AZ-85326/95093751_zpid/,33.3836,-112.59200000000001,2017-10-10,2017-10-10
806365,23796890,"703 S Spencer, Mesa, AZ 85204 ",85204,0.7076849937438965,208999,https://www.zillow.com/homedetails/703-S-Spencer-Mesa-AZ-85204/7630126_zpid/,33.4023,-111.807,2017-10-18,2017-10-18
924797,23649576,"23340 W Twilight Trl, Buckeye, AZ 85326 ",85326,0.7067305445671082,175000,https://www.zillow.com/homedetails/23340-W-Twilight-Trl-Buckeye-AZ-85326/67769263_zpid/,33.4408,-112.553,2017-10-13,2017-10-13
930534,23808800,"24854 W Rancho Vista Dr, Buckeye, AZ 85326 ",85326,0.7066845297813416,213000,https://www.zillow.com/homedetails/24854-W-Rancho-Vista-Dr-Buckeye-AZ-85326/71598996_zpid/,33.4104,-112.586,2017-10-26,2017-10-26
928685,23758167,"24002 W Chambers St, Buckeye, AZ 85326 ",85326,0.7064380645751953,175000,https://www.zillow.com/homedetails/24002-W-Chambers-St-Buckeye-AZ-85326/82827219_zpid/,33.3982,-112.56700000000001,2017-10-20,2017-10-20
441326,23650432,"3042 N 87th Ave, Phoenix, AZ 85037 ",85037,0.7061446309089661,204999,https://www.zillow.com/homedetails/3042-N-87th-Ave-Phoenix-AZ-85037/7479842_zpid/,33.483000000000004,-112.24700000000001,2017-10-13,2017-10-13
122604,22735731,"12811 W Ashwood Dr, Sun City West, AZ 85375 ",85375,0.705965518951416,194900,https://www.zillow.com/homedetails/12811-W-Ashwood-Dr-Sun-City-West-AZ-85375/8109387_zpid/,33.6549,-112.333,2017-09-28,2017-09-28
8982670,23753363,"1934 N Iowa St, Chandler, AZ 85225 ",85225,0.705794095993042,215500,https://www.zillow.com/homedetails/1934-N-Iowa-St-Chandler-AZ-85225/8182675_zpid/,33.3331,-111.85,2017-10-13,2017-10-13
1069157,23757142,"1193 E Butler Dr, Chandler, AZ 85225 ",85225,0.7055966854095459,248000,https://www.zillow.com/homedetails/1193-E-Butler-Dr-Chandler-AZ-85225/8223077_zpid/,33.3017,-111.806,2017-10-19,2017-10-19
195185,23803267,"3121 W Dunbar Dr, Phoenix, AZ 85041 ",85041,0.7052092552185059,218650,https://www.zillow.com/homedetails/3121-W-Dunbar-Dr-Phoenix-AZ-85041/71598495_zpid/,33.3791,-112.126,2017-10-24,2017-10-24
1072092,23756133,"150 S Dakota St, Chandler, AZ 85225 ",85225,0.7046135663986206,150000,https://www.zillow.com/homedetails/150-S-Dakota-St-Chandler-AZ-85225/8205645_zpid/,33.3013,-111.846,2017-10-12,2017-10-12
928684,23809483,"24001 W Twilight Trl, Buckeye, AZ 85326 ",85326,0.7044004201889038,173000,https://www.zillow.com/homedetails/24001-W-Twilight-Trl-Buckeye-AZ-85326/61631332_zpid/,33.4404,-112.56700000000001,2017-10-26,2017-10-26
930053,23805305,"24761 W Wedgewood Ave, Buckeye, AZ 85326 ",85326,0.704370379447937,195990,https://www.zillow.com/homedetails/24761-W-Wedgewood-Ave-Buckeye-AZ-85326/95072633_zpid/,33.4105,-112.584,2017-10-24,2017-10-24
756304,23755143,"223 N 57th Pl, Mesa, AZ 85205 ",85205,0.7042992115020752,239900,https://www.zillow.com/homedetails/223-N-57th-Pl-Mesa-AZ-85205/7663110_zpid/,33.4203,-111.70700000000001,2017-10-18,2017-10-18
771745,22677317,"751 N 59th Pl, Mesa, AZ 85205 ",85205,0.7041055560112,156900,https://www.zillow.com/homedetails/751-N-59th-Pl-Mesa-AZ-85205/7663088_zpid/,33.4299,-111.70299999999999,2017-09-15,2017-09-15
676888,23758275,"8111 E Idaho Ave, Mesa, AZ 85209 ",85209,0.7038109302520752,157500,https://www.zillow.com/homedetails/8111-E-Idaho-Ave-Mesa-AZ-85209/8076857_zpid/,33.3848,-111.656,2017-10-20,2017-10-20
786908,23796762,"1541 E Broadway Rd, Mesa, AZ 85204 ",85204,0.7030373215675354,175000,https://www.zillow.com/homedetails/1541-E-Broadway-Rd-Mesa-AZ-85204/7633040_zpid/,33.4078,-111.79799999999999,2017-10-17,2017-10-17
199963,23796882,"6239 S 21st Dr, Phoenix, AZ 85041 ",85041,0.7013593912124634,222000,https://www.zillow.com/homedetails/6239-S-21st-Dr-Phoenix-AZ-85041/59272617_zpid/,33.3889,-112.104,2017-10-23,2017-10-23
193415,22698056,"242 W Tamarisk St, Phoenix, AZ 85041 ",85041,0.7011603116989136,200000,https://www.zillow.com/homedetails/242-W-Tamarisk-St-Phoenix-AZ-85041/81981841_zpid/,33.4043,-112.07700000000001,2017-09-19,2017-09-19
1093718,23760171,"790 S Jesse St, Chandler, AZ 85225 ",85225,0.7004646062850952,235000,https://www.zillow.com/homedetails/790-S-Jesse-St-Chandler-AZ-85225/50196341_zpid/,33.2941,-111.824,2017-10-21,2017-10-21
9000803,23796894,"755 E 8th Ave, Mesa, AZ 85204 ",85204,0.7001163363456726,179900,https://www.zillow.com/homedetails/755-E-8th-Ave-Mesa-AZ-85204/7630963_zpid/,33.4006,-111.815,2017-10-20,2017-10-20
1679066,22694370,"12326 W Westgate Dr, Sun City West, AZ 85375 ",85375,0.6992011070251465,178000,https://www.zillow.com/homedetails/12326-W-Westgate-Dr-Sun-City-West-AZ-85375/8112139_zpid/,33.6405,-112.32700000000001,2017-09-20,2017-09-20
196746,22710799,"3738 W Roeser Rd, Phoenix, AZ 85041 ",85041,0.6990068554878235,149000,https://www.zillow.com/homedetails/3738-W-Roeser-Rd-Phoenix-AZ-85041/7503405_zpid/,33.3996,-112.139,2017-09-21,2017-09-21
919633,23758170,"22384 W Desert Bloom St, Buckeye, AZ 85326 ",85326,0.6989738941192627,185000,https://www.zillow.com/homedetails/22384-W-Desert-Bloom-St-Buckeye-AZ-85326/67796803_zpid/,33.4362,-112.53200000000001,2017-10-20,2017-10-20
9021534,23759698,"90 N 224th Ave, Buckeye, AZ 85326 ",85326,0.6987579464912415,155000,https://www.zillow.com/homedetails/90-N-224th-Ave-Buckeye-AZ-85326/67807684_zpid/,33.4482,-112.53299999999999,2017-10-21,2017-10-21
8991935,23756480,"446 S Temple St, Mesa, AZ 85204 ",85204,0.6986576318740845,195000,https://www.zillow.com/homedetails/446-S-Temple-St-Mesa-AZ-85204/7630372_zpid/,33.4065,-111.811,2017-10-19,2017-10-19
925248,23753690,"23419 W Harrison Dr, Buckeye, AZ 85326 ",85326,0.6984313130378723,180000,https://www.zillow.com/homedetails/23419-W-Harrison-Dr-Buckeye-AZ-85326/67779717_zpid/,33.4306,-112.555,2017-10-16,2017-10-16
197477,23808740,"405 W Monte Way, Phoenix, AZ 85041 ",85041,0.6983737945556641,214900,https://www.zillow.com/homedetails/405-W-Monte-Way-Phoenix-AZ-85041/92348879_zpid/,33.3605,-112.08,2017-10-26,2017-10-26
1079645,23757169,"2312 E Commonwealth Ave, Chandler, AZ 85225 ",85225,0.6980130076408386,238900,https://www.zillow.com/homedetails/2312-E-Commonwealth-Ave-Chandler-AZ-85225/8204639_zpid/,33.3045,-111.8,2017-10-18,2017-10-18
1705,22706438,"8721 W Campbell Ave, Phoenix, AZ 85037 ",85037,0.6977590322494507,199000,https://www.zillow.com/homedetails/8721-W-Campbell-Ave-Phoenix-AZ-85037/7466961_zpid/,33.5015,-112.24799999999999,2017-09-21,2017-09-21
524898,23810672,"9134 W Cypress St, Phoenix, AZ 85037 ",85037,0.6976425051689148,214900,https://www.zillow.com/homedetails/9134-W-Cypress-St-Phoenix-AZ-85037/67762994_zpid/,33.4719,-112.257,2017-10-27,2017-10-27
926498,23806214,"23692 W Grove St, Buckeye, AZ 85326 ",85326,0.6975772380828857,194900,https://www.zillow.com/homedetails/23692-W-Grove-St-Buckeye-AZ-85326/82779451_zpid/,33.399,-112.56,2017-10-25,2017-10-25
566159,23526514,"10152 E Isleta Ave, Mesa, AZ 85209 ",85209,0.6969622373580933,197000,https://www.zillow.com/homedetails/10152-E-Isleta-Ave-Mesa-AZ-85209/67792287_zpid/,33.3859,-111.61200000000001,2017-10-11,2017-10-11
527842,23809845,"9515 W Monte Vista Rd, Phoenix, AZ 85037 ",85037,0.6967218518257141,228000,https://www.zillow.com/homedetails/9515-W-Monte-Vista-Rd-Phoenix-AZ-85037/60974977_zpid/,33.4699,-112.265,2017-10-26,2017-10-26
921334,23756778,"22657 W Cocopah St, Buckeye, AZ 85326 ",85326,0.6966063976287842,173000,https://www.zillow.com/homedetails/22657-W-Cocopah-St-Buckeye-AZ-85326/62694871_zpid/,33.4323,-112.538,2017-10-19,2017-10-19
195942,23806016,"3334 W Fraktur Rd, Phoenix, AZ 85041 ",85041,0.6964380741119385,219400,https://www.zillow.com/homedetails/3334-W-Fraktur-Rd-Phoenix-AZ-85041/67781582_zpid/,33.3954,-112.13,2017-10-25,2017-10-25
431638,22678252,"10935 W Montecito Ave, Phoenix, AZ 85037 ",85037,0.6960306763648987,150000,https://www.zillow.com/homedetails/10935-W-Montecito-Ave-Phoenix-AZ-85037/7477548_zpid/,33.4977,-112.296,2017-09-14,2017-09-14
790202,23808120,"1941 E Delta Ave, Mesa, AZ 85204 ",85204,0.6950505375862122,239900,https://www.zillow.com/homedetails/1941-E-Delta-Ave-Mesa-AZ-85204/7633328_zpid/,33.4014,-111.789,2017-10-26,2017-10-26
918716,23797228,"22238 W Devin Dr, Buckeye, AZ 85326 ",85326,0.6947447657585144,176000,https://www.zillow.com/homedetails/22238-W-Devin-Dr-Buckeye-AZ-85326/81996671_zpid/,33.4402,-112.529,2017-10-24,2017-10-24
788546,23806870,"1945 E Marilyn Ave, Mesa, AZ 85204 ",85204,0.6946459412574768,245000,https://www.zillow.com/homedetails/1945-E-Marilyn-Ave-Mesa-AZ-85204/7633227_zpid/,33.4037,-111.789,2017-10-25,2017-10-25
1230351,23809925,"3940 E Stanford Ave, Gilbert, AZ 85234 ",85234,0.6944440603256226,243000,https://www.zillow.com/homedetails/3940-E-Stanford-Ave-Gilbert-AZ-85234/8231811_zpid/,33.3676,-111.706,2017-10-26,2017-10-26
121574,22739827,"12326 W Swallow Dr, Sun City West, AZ 85375 ",85375,0.6935167908668518,209900,https://www.zillow.com/homedetails/12326-W-Swallow-Dr-Sun-City-West-AZ-85375/8112390_zpid/,33.6701,-112.32700000000001,2017-10-05,2017-10-05
1088769,23796873,"521 E Del Rio St, Chandler, AZ 85225 ",85225,0.6931261420249939,239950,https://www.zillow.com/homedetails/521-E-Del-Rio-St-Chandler-AZ-85225/8188211_zpid/,33.316,-111.834,2017-10-23,2017-10-23
435965,23757849,"2237 N 94th Ave, Phoenix, AZ 85037 ",85037,0.6929669976234436,229999,https://www.zillow.com/homedetails/2237-N-94th-Ave-Phoenix-AZ-85037/67773064_zpid/,33.4752,-112.26100000000001,2017-10-20,2017-10-20
429182,23758539,"10626 W Montecito Ave, Phoenix, AZ 85037 ",85037,0.6928861737251282,180000,https://www.zillow.com/homedetails/10626-W-Montecito-Ave-Phoenix-AZ-85037/7465709_zpid/,33.4989,-112.289,2017-10-20,2017-10-20
441252,23796851,"3001 N 86th Ln, Phoenix, AZ 85037 ",85037,0.6926688551902771,230000,https://www.zillow.com/homedetails/3001-N-86th-Ln-Phoenix-AZ-85037/7480278_zpid/,33.4814,-112.245,2017-10-19,2017-10-19
913352,23797227,"19020 W Culver St, Buckeye, AZ 85326 ",85326,0.6922094225883484,215000,https://www.zillow.com/homedetails/19020-W-Culver-St-Buckeye-AZ-85326/8308228_zpid/,33.4613,-112.469,2017-09-22,2017-09-22
528498,23759875,"9944 W Devonshire Ave, Phoenix, AZ 85037 ",85037,0.6921960711479187,174000,https://www.zillow.com/homedetails/9944-W-Devonshire-Ave-Phoenix-AZ-85037/7484599_zpid/,33.4968,-112.275,2017-10-21,2017-10-21
138821,22592606,"22516 N Twin Buttes Dr, Sun City West, AZ 85375 ",85375,0.6921091079711914,224900,https://www.zillow.com/homedetails/22516-N-Twin-Buttes-Dr-Sun-City-West-AZ-85375/8120540_zpid/,33.6891,-112.355,2017-08-28,2017-08-28
451837,22734450,"8819 W Glenrosa Ave, Phoenix, AZ 85037 ",85037,0.6917295455932617,160000,https://www.zillow.com/homedetails/8819-W-Glenrosa-Ave-Phoenix-AZ-85037/7467131_zpid/,33.4979,-112.25,2017-10-02,2017-10-02
527735,23797438,"9507 W Monte Vista Rd, Phoenix, AZ 85037 ",85037,0.6905912160873413,214900,https://www.zillow.com/homedetails/9507-W-Monte-Vista-Rd-Phoenix-AZ-85037/60974973_zpid/,33.4697,-112.265,2017-10-24,2017-10-24
59189,23809854,"1819 W Owens Way, Anthem, AZ 85086 ",85086,0.6903475522994995,218900,https://www.zillow.com/homedetails/1819-W-Owens-Way-Anthem-AZ-85086/62731088_zpid/,33.8501,-112.098,2017-10-26,2017-10-26
933412,23526365,"25535 W Superior Ave, Buckeye, AZ 85326 ",85326,0.6893673539161682,187900,https://www.zillow.com/homedetails/25535-W-Superior-Ave-Buckeye-AZ-85326/67787232_zpid/,33.4155,-112.6,2017-10-11,2017-10-11
