property_id,transaction_id,address,zipcode,ypred,list,url,lat,long,date_listed,transaction_date
43124,23755414,"7301 W Payson Rd, Phoenix, AZ 85043 ",85043,0.7611771881580353,195000,https://www.zillow.com/homedetails/7301-W-Payson-Rd-Phoenix-AZ-85043/60975135_zpid/,33.4225,-112.21700000000001,2017-10-18,2017-10-18
9012601,23824429,"8709 W C P Hayes Dr, Tolleson, AZ 85353 ",85353,0.750706923007965,215000,https://www.zillow.com/homedetails/8709-W-C-P-Hayes-Dr-Tolleson-AZ-85353/7476816_zpid/,33.4541,-112.24799999999999,2017-11-09,2017-11-09
1090459,23810641,"631 W Caroline Ln, Chandler, AZ 85225 ",85225,0.7441500306129456,230000,https://www.zillow.com/homedetails/631-W-Caroline-Ln-Chandler-AZ-85225/8183658_zpid/,33.3304,-111.851,2017-10-27,2017-10-27
359302,23814410,"2021 S 83rd Dr, Tolleson, AZ 85353 ",85353,0.7435218930244446,197900,https://www.zillow.com/homedetails/2021-S-83rd-Dr-Tolleson-AZ-85353/59271300_zpid/,33.4288,-112.23899999999999,2017-10-29,2017-10-29
361380,23818137,"8601 W Flavia Hvn, Tolleson, AZ 85353 ",85353,0.7434044182300568,245000,https://www.zillow.com/homedetails/8601-W-Flavia-Hvn-Tolleson-AZ-85353/59271170_zpid/,33.4241,-112.245,2017-11-02,2017-11-02
8987452,23806670,"13360 N 79th Ave, Peoria, AZ 85381 ",85381,0.741749393939972,219000,https://www.zillow.com/homedetails/13360-N-79th-Ave-Peoria-AZ-85381/8100973_zpid/,33.6063,-112.229,2017-10-25,2017-10-25
9018003,23819878,"1842 W Alamo Dr, Chandler, AZ 85224 ",85224,0.7415426731109619,244500,https://www.zillow.com/homedetails/1842-W-Alamo-Dr-Chandler-AZ-85224/8199834_zpid/,33.3482,-111.875,2017-11-03,2017-11-03
424819,23757935,"9632 N 53rd Ave, Glendale, AZ 85302 ",85302,0.7407395243644714,195000,https://www.zillow.com/homedetails/9632-N-53rd-Ave-Glendale-AZ-85302/7734288_zpid/,33.5739,-112.17399999999999,2017-10-20,2017-10-20
419880,23820028,"5616 W Brown St, Glendale, AZ 85302 ",85302,0.7396578371524811,199900,https://www.zillow.com/homedetails/5616-W-Brown-St-Glendale-AZ-85302/7735264_zpid/,33.5783,-112.18,2017-11-03,2017-11-03
524525,23853423,"9119 W Cypress St, Phoenix, AZ 85037 ",85037,0.7391121745109558,189900,https://www.zillow.com/homedetails/9119-W-Cypress-St-Phoenix-AZ-85037/67762984_zpid/,33.4715,-112.256,2017-11-14,2017-11-14
1410407,23835273,"7080 W Glenn Dr, Glendale, AZ 85303 ",85303,0.7371962428092956,234900,https://www.zillow.com/homedetails/7080-W-Glenn-Dr-Glendale-AZ-85303/55173602_zpid/,33.5399,-112.211,2017-11-15,2017-11-15
362517,23822656,"8838 W Hilton Ave, Tolleson, AZ 85353 ",85353,0.7359063029289246,184900,https://www.zillow.com/homedetails/8838-W-Hilton-Ave-Tolleson-AZ-85353/62726881_zpid/,33.4279,-112.251,2017-11-06,2017-11-06
1867405,23806135,"7571 W Comet Ave, Peoria, AZ 85345 ",85345,0.7354652285575867,212000,https://www.zillow.com/homedetails/7571-W-Comet-Ave-Peoria-AZ-85345/7682477_zpid/,33.5791,-112.22200000000001,2017-10-25,2017-10-25
43392,23823135,"7910 W Chickasaw St, Phoenix, AZ 85043 ",85043,0.7351312696933746,179000,https://www.zillow.com/homedetails/7910-W-Chickasaw-St-Phoenix-AZ-85043/59271721_zpid/,33.4308,-112.23,2017-11-09,2017-11-09
9022216,23813716,"8333 W Watkins St, Tolleson, AZ 85353 ",85353,0.7346817255020142,194900,https://www.zillow.com/homedetails/8333-W-Watkins-St-Tolleson-AZ-85353/54886336_zpid/,33.4265,-112.24,2017-10-28,2017-10-28
501566,23807411,"7828 W Bonitos Dr, Phoenix, AZ 85035 ",85035,0.7339720547199249,162999,https://www.zillow.com/homedetails/7828-W-Bonitos-Dr-Phoenix-AZ-85035/82823203_zpid/,33.4717,-112.228,2017-10-19,2017-10-19
9021527,23824183,"7384 W Greer Ave, Peoria, AZ 85345 ",85345,0.7323689579963684,209900,https://www.zillow.com/homedetails/7384-W-Greer-Ave-Peoria-AZ-85345/7701234_zpid/,33.5882,-112.21799999999999,2017-11-09,2017-11-09
1414144,23831100,"7341 N 70th Dr, Glendale, AZ 85303 ",85303,0.7313648939132691,183000,https://www.zillow.com/homedetails/7341-N-70th-Dr-Glendale-AZ-85303/7704927_zpid/,33.5435,-112.211,2017-11-10,2017-11-10
1373864,23831106,"8783 W State Ave, Glendale, AZ 85305 ",85305,0.7293335676193238,240000,https://www.zillow.com/homedetails/8783-W-State-Ave-Glendale-AZ-85305/61627820_zpid/,33.5431,-112.24799999999999,2017-11-11,2017-11-11
1421352,23835289,"8016 W Sierra Vista Dr, Glendale, AZ 85303 ",85303,0.7282848417758941,235000,https://www.zillow.com/homedetails/8016-W-Sierra-Vista-Dr-Glendale-AZ-85303/7462651_zpid/,33.5314,-112.23299999999999,2017-11-15,2017-11-15
9022833,23828576,"8602 W Roma Ave, Phoenix, AZ 85037 ",85037,0.7273488759994506,220000,https://www.zillow.com/homedetails/8602-W-Roma-Ave-Phoenix-AZ-85037/7480533_zpid/,33.5006,-112.245,2017-11-03,2017-11-03
43395,23752723,"7911 W Hilton Ave, Phoenix, AZ 85043 ",85043,0.726822578907013,232000,https://www.zillow.com/homedetails/7911-W-Hilton-Ave-Phoenix-AZ-85043/50893343_zpid/,33.4289,-112.23,2017-10-15,2017-10-15
380868,23801450,"12018 N 42nd Dr, Phoenix, AZ 85029 ",85029,0.7263987183570861,189000,https://www.zillow.com/homedetails/12018-N-42nd-Dr-Phoenix-AZ-85029/7744164_zpid/,33.595,-112.15100000000001,2017-10-21,2017-10-21
629600,23810385,"1646 W Pecos Ave, Mesa, AZ 85202 ",85202,0.7263668954372406,214900,https://www.zillow.com/homedetails/1646-W-Pecos-Ave-Mesa-AZ-85202/8191480_zpid/,33.3602,-111.87,2017-10-27,2017-10-27
40212,23823118,"2916 S 72nd Ln, Phoenix, AZ 85043 ",85043,0.7239654064178467,175000,https://www.zillow.com/homedetails/2916-S-72nd-Ln-Phoenix-AZ-85043/67788654_zpid/,33.4218,-112.21700000000001,2017-11-09,2017-11-09
391398,23818338,"4112 W Camino Acequia, Phoenix, AZ 85051 ",85051,0.7238703072071075,220986,https://www.zillow.com/homedetails/4112-W-Camino-Acequia-Phoenix-AZ-85051/7745955_zpid/,33.5781,-112.146,2017-11-02,2017-11-02
1406067,23813622,"6732 N 79th Ave, Glendale, AZ 85303 ",85303,0.722636342048645,215000,https://www.zillow.com/homedetails/6732-N-79th-Ave-Glendale-AZ-85303/7462444_zpid/,33.5339,-112.229,2017-10-28,2017-10-28
9019224,23831968,"8005 W Shaw Butte Dr, Peoria, AZ 85345 ",85345,0.7214487016201019,225500,https://www.zillow.com/homedetails/8005-W-Shaw-Butte-Dr-Peoria-AZ-85345/7680677_zpid/,33.5951,-112.23100000000001,2017-11-14,2017-11-14
43818,23819082,"8128 W Papago St, Phoenix, AZ 85043 ",85043,0.7210557937622071,199900,https://www.zillow.com/homedetails/8128-W-Papago-St-Phoenix-AZ-85043/60047290_zpid/,33.4345,-112.235,2017-11-02,2017-11-02
402515,23808878,"15205 N 51st Dr, Glendale, AZ 85306 ",85306,0.7208975613117218,189900,https://www.zillow.com/homedetails/15205-N-51st-Dr-Glendale-AZ-85306/7910980_zpid/,33.6226,-112.169,2017-10-26,2017-10-26
39711,23836391,"1514 S 80th Ln, Phoenix, AZ 85043 ",85043,0.7195775449275971,220000,https://www.zillow.com/homedetails/1514-S-80th-Ln-Phoenix-AZ-85043/59271788_zpid/,33.4339,-112.23299999999999,2017-11-16,2017-11-16
8977160,23825434,"16231 N 91st Dr, Peoria, AZ 85382 ",85382,0.7188539028167724,233000,https://www.zillow.com/homedetails/16231-N-91st-Dr-Peoria-AZ-85382/2123153916_zpid/,33.6316,-112.25200000000001,2017-11-13,2017-11-13
394581,23831766,"3626 W Rue De Lamour Ave, Phoenix, AZ 85029 ",85029,0.7186041533946991,199900,https://www.zillow.com/homedetails/3626-W-Rue-De-Lamour-Ave-Phoenix-AZ-85029/7741437_zpid/,33.6102,-112.137,2017-11-09,2017-11-09
9022274,23821495,"5736 W Libby St, Glendale, AZ 85308 ",85308,0.7179115295410157,245000,https://www.zillow.com/homedetails/5736-W-Libby-St-Glendale-AZ-85308/7900965_zpid/,33.6479,-112.18299999999999,2017-11-04,2017-11-04
1358037,23823771,"7832 N 54th Ln, Glendale, AZ 85301 ",85301,0.7178823053836823,219900,https://www.zillow.com/homedetails/7832-N-54th-Ln-Glendale-AZ-85301/50188196_zpid/,33.5516,-112.177,2017-11-06,2017-11-06
1421999,23820040,"8134 W Mclellan Rd, Glendale, AZ 85303 ",85303,0.7171691119670868,222500,https://www.zillow.com/homedetails/8134-W-Mclellan-Rd-Glendale-AZ-85303/7462575_zpid/,33.5326,-112.235,2017-11-03,2017-11-03
7449241,23819586,"11935 N 68th Ave, Peoria, AZ 85345 ",85345,0.7157770752906799,245000,https://www.zillow.com/homedetails/11935-N-68th-Ave-Peoria-AZ-85345/7700139_zpid/,33.594,-112.204,2017-11-03,2017-11-03
401493,23754956,"11221 N 58th Ave, Glendale, AZ 85304 ",85304,0.7153062462806702,209000,https://www.zillow.com/homedetails/11221-N-58th-Ave-Glendale-AZ-85304/7736227_zpid/,33.588,-112.184,2017-10-17,2017-10-17
448988,23831998,"8504 W College Dr, Phoenix, AZ 85037 ",85037,0.714150995016098,184900,https://www.zillow.com/homedetails/8504-W-College-Dr-Phoenix-AZ-85037/7483600_zpid/,33.5084,-112.243,2017-11-13,2017-11-13
9023161,23824406,"18235 N 39th Dr, Glendale, AZ 85308 ",85308,0.7139213919639588,229900,https://www.zillow.com/homedetails/18235-N-39th-Dr-Glendale-AZ-85308/2126416075_zpid/,33.6523,-112.14399999999999,2017-11-09,2017-11-09
447418,23839812,"8311 W Coolidge St, Phoenix, AZ 85037 ",85037,0.7133499264717102,193900,https://www.zillow.com/homedetails/8311-W-Coolidge-St-Phoenix-AZ-85037/7480994_zpid/,33.5048,-112.238,2017-10-30,2017-10-30
224538,23818658,"14264 N 33rd Ave, Phoenix, AZ 85053 ",85053,0.7127872049808502,244900,https://www.zillow.com/homedetails/14264-N-33rd-Ave-Phoenix-AZ-85053/7943194_zpid/,33.6163,-112.12899999999999,2017-11-02,2017-11-02
9022859,23821620,"5030 W Taro Dr, Glendale, AZ 85308 ",85308,0.7123779833316803,228000,https://www.zillow.com/homedetails/5030-W-Taro-Dr-Glendale-AZ-85308/7939791_zpid/,33.6587,-112.16799999999999,2017-11-04,2017-11-04
434848,23811348,"2008 N 89th Dr, Phoenix, AZ 85037 ",85037,0.7119205951690674,170000,https://www.zillow.com/homedetails/2008-N-89th-Dr-Phoenix-AZ-85037/7486878_zpid/,33.469,-112.25200000000001,2017-10-27,2017-10-27
345142,23753531,"1739 E Bluefield Ave, Phoenix, AZ 85022 ",85022,0.7106574892997741,224900,https://www.zillow.com/homedetails/1739-E-Bluefield-Ave-Phoenix-AZ-85022/8001407_zpid/,33.6526,-112.044,2017-10-16,2017-10-16
247335,23797270,"2232 W Sequoia Dr, Phoenix, AZ 85027 ",85027,0.7099137127399444,229995,https://www.zillow.com/homedetails/2232-W-Sequoia-Dr-Phoenix-AZ-85027/7970402_zpid/,33.663000000000004,-112.10799999999999,2017-10-24,2017-10-24
43503,23828145,"7939 W Lumbee St, Phoenix, AZ 85043 ",85043,0.7098969280719757,178900,https://www.zillow.com/homedetails/7939-W-Lumbee-St-Phoenix-AZ-85043/59271818_zpid/,33.434,-112.23100000000001,2017-11-13,2017-11-13
1406108,23835268,"6734 N 77th Dr, Glendale, AZ 85303 ",85303,0.7098557591438294,249000,https://www.zillow.com/homedetails/6734-N-77th-Dr-Glendale-AZ-85303/7463022_zpid/,33.5345,-112.226,2017-11-17,2017-11-17
9006564,23814082,"16612 N 28th Way, Phoenix, AZ 85032 ",85032,0.7093053221702575,194900,https://www.zillow.com/homedetails/16612-N-28th-Way-Phoenix-AZ-85032/8005824_zpid/,33.6376,-112.021,2017-10-29,2017-10-29
421245,23823724,"6222 W Echo Ln, Glendale, AZ 85302 ",85302,0.7085316419601441,205000,https://www.zillow.com/homedetails/6222-W-Echo-Ln-Glendale-AZ-85302/7704166_zpid/,33.5584,-112.194,2017-11-07,2017-11-07
409171,23815122,"6610 W Caribbean Ln, Glendale, AZ 85306 ",85306,0.7081356406211853,210000,https://www.zillow.com/homedetails/6610-W-Caribbean-Ln-Glendale-AZ-85306/8100447_zpid/,33.6248,-112.199,2017-10-30,2017-10-30
404082,23831516,"16245 N 43rd Dr, Glendale, AZ 85306 ",85306,0.7077018201351166,244900,https://www.zillow.com/homedetails/16245-N-43rd-Dr-Glendale-AZ-85306/7950704_zpid/,33.6339,-112.152,2017-11-14,2017-11-14
345778,23810944,"17441 N 20th St, Phoenix, AZ 85022 ",85022,0.7066442489624023,235000,https://www.zillow.com/homedetails/17441-N-20th-St-Phoenix-AZ-85022/8000666_zpid/,33.6457,-112.039,2017-10-27,2017-10-27
527753,23797429,"9509 W Elm St, Phoenix, AZ 85037 ",85037,0.7064943194389344,205000,https://www.zillow.com/homedetails/9509-W-Elm-St-Phoenix-AZ-85037/55256235_zpid/,33.5056,-112.265,2017-10-24,2017-10-24
1409866,23835277,"7017 N 77th Dr, Glendale, AZ 85303 ",85303,0.7059217751026153,215000,https://www.zillow.com/homedetails/7017-N-77th-Dr-Glendale-AZ-85303/55260208_zpid/,33.5385,-112.225,2017-11-16,2017-11-16
226936,23833915,"15039 N 30th Dr, Phoenix, AZ 85053 ",85053,0.7056312561035156,187999,https://www.zillow.com/homedetails/15039-N-30th-Dr-Phoenix-AZ-85053/7952779_zpid/,33.6227,-112.124,2017-11-09,2017-11-09
388589,23838914,"2338 W Altadena Ave, Phoenix, AZ 85029 ",85029,0.705599594116211,189900,https://www.zillow.com/homedetails/2338-W-Altadena-Ave-Phoenix-AZ-85029/7749198_zpid/,33.5925,-112.11,2017-11-07,2017-11-07
9021795,23822865,"747 W Rosal Pl, Chandler, AZ 85225 ",85225,0.7053880512714386,249800,https://www.zillow.com/homedetails/747-W-Rosal-Pl-Chandler-AZ-85225/8177685_zpid/,33.3412,-111.855,2017-11-07,2017-11-07
415220,23821258,"10031 N 56th Dr, Glendale, AZ 85302 ",85302,0.7049156486988067,203000,https://www.zillow.com/homedetails/10031-N-56th-Dr-Glendale-AZ-85302/7735304_zpid/,33.5778,-112.18,2017-11-04,2017-11-04
420158,23823709,"5666 W Laurie Ln, Glendale, AZ 85302 ",85302,0.7037616729736328,209000,https://www.zillow.com/homedetails/5666-W-Laurie-Ln-Glendale-AZ-85302/7732919_zpid/,33.5593,-112.181,2017-11-07,2017-11-07
484005,23821708,"2696 N 73rd Gln, Phoenix, AZ 85035 ",85035,0.7030011594295502,210000,https://www.zillow.com/homedetails/2696-N-73rd-Gln-Phoenix-AZ-85035/95155175_zpid/,33.4779,-112.21799999999999,2017-10-31,2017-10-31
391006,23835108,"3102 W Charter Oak Rd, Phoenix, AZ 85029 ",85029,0.7025229275226593,199900,https://www.zillow.com/homedetails/3102-W-Charter-Oak-Rd-Phoenix-AZ-85029/7747375_zpid/,33.5981,-112.126,2017-11-16,2017-11-16
392666,23759961,"4208 W El Camino Dr, Phoenix, AZ 85051 ",85051,0.7019475936889649,215000,https://www.zillow.com/homedetails/4208-W-El-Camino-Dr-Phoenix-AZ-85051/7752812_zpid/,33.5573,-112.15,2017-10-21,2017-10-21
247778,23835118,"3436 W Acoma Dr, Phoenix, AZ 85053 ",85053,0.7017068266868591,229900,https://www.zillow.com/homedetails/3436-W-Acoma-Dr-Phoenix-AZ-85053/7943333_zpid/,33.6178,-112.133,2017-11-16,2017-11-16
413653,23822290,"6114 W Shaw Butte Dr, Glendale, AZ 85304 ",85304,0.7009605824947357,249999,https://www.zillow.com/homedetails/6114-W-Shaw-Butte-Dr-Glendale-AZ-85304/7698065_zpid/,33.596,-112.191,2017-11-06,2017-11-06
354621,23808089,"2310 E Winchcomb Dr, Phoenix, AZ 85022 ",85022,0.7007404088973999,224900,https://www.zillow.com/homedetails/2310-E-Winchcomb-Dr-Phoenix-AZ-85022/8010116_zpid/,33.6168,-112.03399999999999,2017-10-25,2017-10-25
249634,23819195,"2238 W Village Dr, Phoenix, AZ 85023 ",85023,0.7001690328121185,224900,https://www.zillow.com/homedetails/2238-W-Village-Dr-Phoenix-AZ-85023/7963982_zpid/,33.6458,-112.10799999999999,2017-11-03,2017-11-03
9022078,23810726,"1132 E Villa Maria Dr, Phoenix, AZ 85022 ",85022,0.7000171124935151,215000,https://www.zillow.com/homedetails/1132-E-Villa-Maria-Dr-Phoenix-AZ-85022/8002438_zpid/,33.6518,-112.057,2017-10-27,2017-10-27
342848,23829559,"16841 N 18th Pl, Phoenix, AZ 85022 ",85022,0.699280846118927,238900,https://www.zillow.com/homedetails/16841-N-18th-Pl-Phoenix-AZ-85022/8004961_zpid/,33.6391,-112.04299999999999,2017-11-09,2017-11-09
1404969,23834294,"6396 N 73rd Dr, Glendale, AZ 85303 ",85303,0.6983362972736359,240000,https://www.zillow.com/homedetails/6396-N-73rd-Dr-Glendale-AZ-85303/95163104_zpid/,33.5285,-112.21700000000001,2017-11-16,2017-11-16
1092802,23820224,"731 W Palomino Dr, Chandler, AZ 85225 ",85225,0.6982246518135071,245900,https://www.zillow.com/homedetails/731-W-Palomino-Dr-Chandler-AZ-85225/8177603_zpid/,33.3404,-111.855,2017-11-03,2017-11-03
402730,23831013,"15243 N 66th Dr, Glendale, AZ 85306 ",85306,0.6978745877742767,239900,https://www.zillow.com/homedetails/15243-N-66th-Dr-Glendale-AZ-85306/8100497_zpid/,33.6248,-112.20100000000001,2017-11-11,2017-11-11
386606,23830834,"3661 W Alice Ave, Phoenix, AZ 85051 ",85051,0.6976896703243256,170000,https://www.zillow.com/homedetails/3661-W-Alice-Ave-Phoenix-AZ-85051/7753529_zpid/,33.5637,-112.139,2017-11-09,2017-11-09
9022109,23811012,"13037 N 56th Ave, Glendale, AZ 85304 ",85304,0.6970201849937439,214900,https://www.zillow.com/homedetails/13037-N-56th-Ave-Glendale-AZ-85304/7896749_zpid/,33.6024,-112.177,2017-10-27,2017-10-27
411761,23811017,"5271 W Lupine Ave, Glendale, AZ 85304 ",85304,0.6966864228248596,241000,https://www.zillow.com/homedetails/5271-W-Lupine-Ave-Glendale-AZ-85304/7737196_zpid/,33.5897,-112.17299999999999,2017-10-27,2017-10-27
423007,23831139,"8427 N 47th Dr, Glendale, AZ 85302 ",85302,0.696556282043457,249999,https://www.zillow.com/homedetails/8427-N-47th-Dr-Glendale-AZ-85302/7731867_zpid/,33.5593,-112.161,2017-11-13,2017-11-13
416225,23831022,"4436 W Palo Verde Ave, Glendale, AZ 85302 ",85302,0.6964053690433503,219000,https://www.zillow.com/homedetails/4436-W-Palo-Verde-Ave-Glendale-AZ-85302/7729529_zpid/,33.5732,-112.156,2017-11-10,2017-11-10
411351,23831053,"5194 W Paradise Dr, Glendale, AZ 85304 ",85304,0.6959491431713104,214900,https://www.zillow.com/homedetails/5194-W-Paradise-Dr-Glendale-AZ-85304/60978690_zpid/,33.5953,-112.171,2017-11-13,2017-11-13
255186,23834170,"4022 W Dailey St, Phoenix, AZ 85053 ",85053,0.695765620470047,239500,https://www.zillow.com/homedetails/4022-W-Dailey-St-Phoenix-AZ-85053/7945098_zpid/,33.6135,-112.146,2017-11-15,2017-11-15
415299,23818783,"10119 N 65th Ln, Glendale, AZ 85302 ",85302,0.6956083953380585,179998,https://www.zillow.com/homedetails/10119-N-65th-Ln-Glendale-AZ-85302/65235466_zpid/,33.5779,-112.2,2017-11-02,2017-11-02
420303,23834253,"5729 W Purdue Cir, Glendale, AZ 85302 ",85302,0.6953826129436493,220000,https://www.zillow.com/homedetails/5729-W-Purdue-Cir-Glendale-AZ-85302/7734981_zpid/,33.5741,-112.18299999999999,2017-11-15,2017-11-15
9012841,23819608,"8121 W Hatcher Rd, Peoria, AZ 85345 ",85345,0.6949342548847198,239000,https://www.zillow.com/homedetails/8121-W-Hatcher-Rd-Peoria-AZ-85345/7682649_zpid/,33.57,-112.234,2017-11-02,2017-11-02
1114416,23820184,"1617 W Stottler Dr, Chandler, AZ 85224 ",85224,0.6944431245326996,229900,https://www.zillow.com/homedetails/1617-W-Stottler-Dr-Chandler-AZ-85224/8193816_zpid/,33.3325,-111.87,2017-11-03,2017-11-03
9023660,23829074,"3140 E Michigan Ave, Phoenix, AZ 85032 ",85032,0.6944269239902496,205000,https://www.zillow.com/homedetails/3140-E-Michigan-Ave-Phoenix-AZ-85032/7999282_zpid/,33.652,-112.014,2017-11-10,2017-11-10
9021916,23821887,"5114 W Vogel Ave, Glendale, AZ 85302 ",85302,0.6943322598934174,152000,https://www.zillow.com/homedetails/5114-W-Vogel-Ave-Glendale-AZ-85302/92348849_zpid/,33.5721,-112.17,2017-11-05,2017-11-05
484854,23817893,"2833 N 73rd Dr, Phoenix, AZ 85035 ",85035,0.6941331028938293,190000,https://www.zillow.com/homedetails/2833-N-73rd-Dr-Phoenix-AZ-85035/92692586_zpid/,33.4796,-112.21600000000001,2017-11-01,2017-11-01
256281,23819820,"4218 W Boca Raton Rd, Phoenix, AZ 85053 ",85053,0.6937370955944061,168000,https://www.zillow.com/homedetails/4218-W-Boca-Raton-Rd-Phoenix-AZ-85053/7945462_zpid/,33.6112,-112.15,2017-11-03,2017-11-03
349598,23800467,"18407 N 16th Pl, Phoenix, AZ 85022 ",85022,0.6935069799423218,240000,https://www.zillow.com/homedetails/18407-N-16th-Pl-Phoenix-AZ-85022/8001275_zpid/,33.6534,-112.04700000000001,2017-10-24,2017-10-24
409111,23815119,"6540 W Phelps Rd, Glendale, AZ 85306 ",85306,0.6933569192886353,209900,https://www.zillow.com/homedetails/6540-W-Phelps-Rd-Glendale-AZ-85306/7901955_zpid/,33.6361,-112.20100000000001,2017-10-30,2017-10-30
8988163,23818314,"2650 E Hartford Ave, Phoenix, AZ 85032 ",85032,0.6930573761463166,249500,https://www.zillow.com/homedetails/2650-E-Hartford-Ave-Phoenix-AZ-85032/59266670_zpid/,33.6425,-112.025,2017-11-02,2017-11-02
9019581,23796917,"18428 N 55th Dr, Glendale, AZ 85308 ",85308,0.6930257618427277,199995,https://www.zillow.com/homedetails/18428-N-55th-Dr-Glendale-AZ-85308/7901123_zpid/,33.6531,-112.178,2017-10-23,2017-10-23
451535,23821794,"8801 W Mariposa St, Phoenix, AZ 85037 ",85037,0.6929003417491912,179900,https://www.zillow.com/homedetails/8801-W-Mariposa-St-Phoenix-AZ-85037/7483286_zpid/,33.5074,-112.249,2017-11-01,2017-11-01
1413516,22924606,"7311 N 73rd Dr, Glendale, AZ 85303 ",85303,0.6928991615772248,248700,https://www.zillow.com/homedetails/7311-N-73rd-Dr-Glendale-AZ-85303/59270763_zpid/,33.5425,-112.21600000000001,2017-10-07,2017-10-07
406350,23830327,"5211 W Acoma Dr, Glendale, AZ 85306 ",85306,0.6928628206253051,190000,https://www.zillow.com/homedetails/5211-W-Acoma-Dr-Glendale-AZ-85306/8097330_zpid/,33.618,-112.171,2017-11-08,2017-11-08
384676,23814267,"3501 W Ironwood Dr, Phoenix, AZ 85051 ",85051,0.6925388276576996,239900,https://www.zillow.com/homedetails/3501-W-Ironwood-Dr-Phoenix-AZ-85051/7745307_zpid/,33.5759,-112.134,2017-10-29,2017-10-29
390775,23814136,"4034 W Hatcher Rd, Phoenix, AZ 85051 ",85051,0.6923684179782867,225000,https://www.zillow.com/homedetails/4034-W-Hatcher-Rd-Phoenix-AZ-85051/7746477_zpid/,33.5721,-112.147,2017-10-29,2017-10-29
9021086,23815044,"8137 W Aster Dr, Peoria, AZ 85381 ",85381,0.692183542251587,239000,https://www.zillow.com/homedetails/8137-W-Aster-Dr-Peoria-AZ-85381/8100990_zpid/,33.6013,-112.235,2017-10-30,2017-10-30
9022220,23813743,"3934 W Sheridan St, Phoenix, AZ 85009 ",85009,0.6921773254871368,175000,https://www.zillow.com/homedetails/3934-W-Sheridan-St-Phoenix-AZ-85009/7512512_zpid/,33.4754,-112.145,2017-10-28,2017-10-28
644243,23819377,"2213 W Del Campo Cir, Mesa, AZ 85202 ",85202,0.691803801059723,215000,https://www.zillow.com/homedetails/2213-W-Del-Campo-Cir-Mesa-AZ-85202/7602126_zpid/,33.4009,-111.87899999999999,2017-11-03,2017-11-03
394881,23830983,"7533 N 30th Ave, Phoenix, AZ 85051 ",85051,0.6917047798633575,237900,https://www.zillow.com/homedetails/7533-N-30th-Ave-Phoenix-AZ-85051/95143966_zpid/,33.5471,-112.124,2017-11-11,2017-11-11
382941,23823645,"12830 N 38th Ave, Phoenix, AZ 85029 ",85029,0.6916845440864563,233000,https://www.zillow.com/homedetails/12830-N-38th-Ave-Phoenix-AZ-85029/7742807_zpid/,33.603,-112.14,2017-11-07,2017-11-07
8978879,23830053,"3626 W Villa Maria Dr, Glendale, AZ 85308 ",85308,0.6913165330886841,249900,https://www.zillow.com/homedetails/3626-W-Villa-Maria-Dr-Glendale-AZ-85308/7947889_zpid/,33.6518,-112.137,2017-11-03,2017-11-03
8958977,23756263,"2545 E Piute Ave, Phoenix, AZ 85050 ",85050,0.6910817146301269,159000,https://www.zillow.com/homedetails/2545-E-Piute-Ave-Phoenix-AZ-85050/7994601_zpid/,33.6629,-112.027,2017-10-13,2017-10-13
9021565,23760091,"6974 W Juniper Ave, Peoria, AZ 85382 ",85382,0.6906560301780701,219900,https://www.zillow.com/homedetails/6974-W-Juniper-Ave-Peoria-AZ-85382/7903019_zpid/,33.6365,-112.21,2017-10-21,2017-10-21
415297,23835189,"10114 N 66th Ln, Glendale, AZ 85302 ",85302,0.6896104395389557,197500,https://www.zillow.com/homedetails/10114-N-66th-Ln-Glendale-AZ-85302/67083300_zpid/,33.5779,-112.20299999999999,2017-11-15,2017-11-15
1349271,23815006,"5556 W Gardenia Ave, Glendale, AZ 85301 ",85301,0.6895893514156342,174900,https://www.zillow.com/homedetails/5556-W-Gardenia-Ave-Glendale-AZ-85301/2136646466_zpid/,33.5451,-112.18,2017-10-30,2017-10-30
9021585,23824122,"12612 N 79th Ave, Peoria, AZ 85381 ",85381,0.6878735005855561,225000,https://www.zillow.com/homedetails/12612-N-79th-Ave-Peoria-AZ-85381/8101178_zpid/,33.5997,-112.229,2017-11-09,2017-11-09
422412,23760087,"6622 W Golden Ln, Glendale, AZ 85302 ",85302,0.6878685116767883,190000,https://www.zillow.com/homedetails/6622-W-Golden-Ln-Glendale-AZ-85302/50187805_zpid/,33.5652,-112.20200000000001,2017-10-20,2017-10-20
392781,23831799,"4212 W Townley Ave, Phoenix, AZ 85051 ",85051,0.6874240934848785,239000,https://www.zillow.com/homedetails/4212-W-Townley-Ave-Phoenix-AZ-85051/7754721_zpid/,33.5659,-112.149,2017-11-04,2017-11-04
410898,23823665,"5031 W Windrose Dr, Glendale, AZ 85304 ",85304,0.6872927069664001,229000,https://www.zillow.com/homedetails/5031-W-Windrose-Dr-Glendale-AZ-85304/7954728_zpid/,33.6006,-112.167,2017-11-08,2017-11-08
9021813,23820289,"8528 W Eva St, Peoria, AZ 85345 ",85345,0.687211525440216,186000,https://www.zillow.com/homedetails/8528-W-Eva-St-Peoria-AZ-85345/7696910_zpid/,33.5674,-112.243,2017-11-03,2017-11-03
9022735,23819777,"13216 N 31st Way, Phoenix, AZ 85032 ",85032,0.6869359076023102,145000,https://www.zillow.com/homedetails/13216-N-31st-Way-Phoenix-AZ-85032/50188555_zpid/,33.6068,-112.014,2017-11-03,2017-11-03
830198,23815075,"3747 W Oregon Ave, Phoenix, AZ 85019 ",85019,0.6867149889469146,169900,https://www.zillow.com/homedetails/3747-W-Oregon-Ave-Phoenix-AZ-85019/50188145_zpid/,33.5141,-112.14,2017-10-30,2017-10-30
9023130,23824201,"7101 W Paradise Dr, Peoria, AZ 85345 ",85345,0.6860957324504853,199999,https://www.zillow.com/homedetails/7101-W-Paradise-Dr-Peoria-AZ-85345/7700652_zpid/,33.5947,-112.212,2017-11-07,2017-11-07
352186,23759913,"2024 E Danbury Rd, Phoenix, AZ 85022 ",85022,0.6856897115707398,242000,https://www.zillow.com/homedetails/2024-E-Danbury-Rd-Phoenix-AZ-85022/8000757_zpid/,33.6429,-112.039,2017-10-21,2017-10-21
702422,23836601,"3144 S Rogers, Mesa, AZ 85202 ",85202,0.6855854868888855,244000,https://www.zillow.com/homedetails/3144-S-Rogers-Mesa-AZ-85202/8171993_zpid/,33.3577,-111.86399999999999,2017-11-16,2017-11-16
250889,23830838,"3634 W Banff Ln, Phoenix, AZ 85053 ",85053,0.6854931652545929,243000,https://www.zillow.com/homedetails/3634-W-Banff-Ln-Phoenix-AZ-85053/7944164_zpid/,33.621,-112.137,2017-11-14,2017-11-14
408932,23816436,"6425 W Monte Cristo Ave, Glendale, AZ 85306 ",85306,0.6854355156421661,214900,https://www.zillow.com/homedetails/6425-W-Monte-Cristo-Ave-Glendale-AZ-85306/7902187_zpid/,33.631,-112.197,2017-10-31,2017-10-31
416972,23831830,"4633 W Ruth Ave, Glendale, AZ 85302 ",85302,0.6853314697742462,195000,https://www.zillow.com/homedetails/4633-W-Ruth-Ave-Glendale-AZ-85302/7731286_zpid/,33.5632,-112.15899999999999,2017-11-14,2017-11-14
422210,23835261,"6538 W Vogel Ave, Glendale, AZ 85302 ",85302,0.6851897776126862,209000,https://www.zillow.com/homedetails/6538-W-Vogel-Ave-Glendale-AZ-85302/7703283_zpid/,33.5724,-112.20100000000001,2017-11-16,2017-11-16
9019108,23831803,"4229 W Aster Dr, Phoenix, AZ 85029 ",85029,0.6851206183433532,189700,https://www.zillow.com/homedetails/4229-W-Aster-Dr-Phoenix-AZ-85029/7742210_zpid/,33.6019,-112.15100000000001,2017-11-10,2017-11-10
395130,23830853,"3719 W Joan De Arc Ave, Phoenix, AZ 85029 ",85029,0.6850647866725922,205900,https://www.zillow.com/homedetails/3719-W-Joan-De-Arc-Ave-Phoenix-AZ-85029/7741718_zpid/,33.607,-112.139,2017-11-13,2017-11-13
1859,23650472,"9128 W Alvarado St, Phoenix, AZ 85037 ",85037,0.6846947133541107,214000,https://www.zillow.com/homedetails/9128-W-Alvarado-St-Phoenix-AZ-85037/60047210_zpid/,33.4712,-112.257,2017-10-12,2017-10-12
9023033,23823351,"437 E Wescott Dr, Phoenix, AZ 85024 ",85024,0.6844275116920471,225000,https://www.zillow.com/homedetails/437-E-Wescott-Dr-Phoenix-AZ-85024/2092120604_zpid/,33.6585,-112.068,2017-11-08,2017-11-08
452056,23828606,"8831 W Mariposa St, Phoenix, AZ 85037 ",85037,0.6836430490016937,214900,https://www.zillow.com/homedetails/8831-W-Mariposa-St-Phoenix-AZ-85037/7483281_zpid/,33.5074,-112.25,2017-11-03,2017-11-03
955402,23827093,"117 S Crestview St, Chandler, AZ 85226 ",85226,0.6835993647575378,245000,https://www.zillow.com/homedetails/117-S-Crestview-St-Chandler-AZ-85226/8262999_zpid/,33.3011,-111.94,2017-11-13,2017-11-13
8967033,23805180,"9409 S Calle Maravilla, Guadalupe, AZ 85283 ",85283,0.683035159111023,119997,https://www.zillow.com/homedetails/9409-S-Calle-Maravilla-Guadalupe-AZ-85283/8143091_zpid/,33.3614,-111.96600000000001,2017-10-20,2017-10-20
829953,23830964,"3730 W Stella Ln, Phoenix, AZ 85019 ",85019,0.682634037733078,209900,https://www.zillow.com/homedetails/3730-W-Stella-Ln-Phoenix-AZ-85019/7761178_zpid/,33.5307,-112.14,2017-11-11,2017-11-11
8987246,23839497,"5830 E Calle Mexico, Guadalupe, AZ 85283 ",85283,0.6823248982429504,210000,https://www.zillow.com/homedetails/5830-E-Calle-Mexico-Guadalupe-AZ-85283/8138359_zpid/,33.366,-111.959,2017-11-09,2017-11-09
9019398,23819886,"2116 E Vista Dr, Phoenix, AZ 85022 ",85022,0.6823242783546448,249900,https://www.zillow.com/homedetails/2116-E-Vista-Dr-Phoenix-AZ-85022/8010925_zpid/,33.6222,-112.037,2017-11-03,2017-11-03
388744,23819809,"3835 W Camino Acequia, Phoenix, AZ 85051 ",85051,0.6822918891906739,233900,https://www.zillow.com/homedetails/3835-W-Camino-Acequia-Phoenix-AZ-85051/7745922_zpid/,33.5749,-112.14200000000001,2017-11-03,2017-11-03
9023830,23833574,"4019 W Woodridge Dr, Glendale, AZ 85308 ",85308,0.6821099758148194,217500,https://www.zillow.com/homedetails/4019-W-Woodridge-Dr-Glendale-AZ-85308/7946693_zpid/,33.64,-112.146,2017-11-11,2017-11-11
388499,23823809,"3827 W Glendale Ave, Phoenix, AZ 85051 ",85051,0.6816956996917725,155000,https://www.zillow.com/homedetails/3827-W-Glendale-Ave-Phoenix-AZ-85051/7758350_zpid/,33.5383,-112.14200000000001,2017-11-08,2017-11-08
9023869,23833553,"3749 W Angela Dr, Glendale, AZ 85308 ",85308,0.681090795993805,249900,https://www.zillow.com/homedetails/3749-W-Angela-Dr-Glendale-AZ-85308/7947470_zpid/,33.6455,-112.14,2017-11-15,2017-11-15
450270,23853373,"8713 W Wilshire Dr, Phoenix, AZ 85037 ",85037,0.6807723045349121,200000,https://www.zillow.com/homedetails/8713-W-Wilshire-Dr-Phoenix-AZ-85037/7473941_zpid/,33.4756,-112.24700000000001,2017-11-13,2017-11-13
332452,23830788,"1141 W North Ln, Phoenix, AZ 85021 ",85021,0.680540144443512,170000,https://www.zillow.com/homedetails/1141-W-North-Ln-Phoenix-AZ-85021/81984403_zpid/,33.580999999999996,-112.089,2017-11-07,2017-11-07
257537,23837110,"901 W Michelle Dr, Phoenix, AZ 85023 ",85023,0.6804171741008759,189900,https://www.zillow.com/homedetails/901-W-Michelle-Dr-Phoenix-AZ-85023/7956611_zpid/,33.6496,-112.085,2017-11-16,2017-11-16
424532,23814472,"9410 N 49th Ave, Glendale, AZ 85302 ",85302,0.680409574508667,221000,https://www.zillow.com/homedetails/9410-N-49th-Ave-Glendale-AZ-85302/7730248_zpid/,33.5719,-112.165,2017-10-28,2017-10-28
219462,23818678,"811 E Diana Ave, Phoenix, AZ 85020 ",85020,0.6803705513477325,219000,https://www.zillow.com/homedetails/811-E-Diana-Ave-Phoenix-AZ-85020/7789582_zpid/,33.5625,-112.06299999999999,2017-11-02,2017-11-02
391605,23759518,"4120 W Ironwood Dr, Phoenix, AZ 85051 ",85051,0.6803578734397888,245000,https://www.zillow.com/homedetails/4120-W-Ironwood-Dr-Phoenix-AZ-85051/7746405_zpid/,33.5754,-112.147,2017-10-21,2017-10-21
405373,23833538,"4656 W Juniper Ave, Glendale, AZ 85306 ",85306,0.6800375878810883,214277,https://www.zillow.com/homedetails/4656-W-Juniper-Ave-Glendale-AZ-85306/7950811_zpid/,33.6389,-112.15799999999999,2017-11-10,2017-11-10
1404598,23821104,"6113 N 71st Ln, Glendale, AZ 85303 ",85303,0.6799791932106019,194990,https://www.zillow.com/homedetails/6113-N-71st-Ln-Glendale-AZ-85303/7707065_zpid/,33.5257,-112.214,2017-11-04,2017-11-04
392592,23803343,"3302 W Pershing Ave, Phoenix, AZ 85029 ",85029,0.6795205056667328,189900,https://www.zillow.com/homedetails/3302-W-Pershing-Ave-Phoenix-AZ-85029/7745089_zpid/,33.6058,-112.12899999999999,2017-10-22,2017-10-22
384597,23810903,"13633 N 20th Ln, Phoenix, AZ 85029 ",85029,0.6792825520038605,209000,https://www.zillow.com/homedetails/13633-N-20th-Ln-Phoenix-AZ-85029/7749596_zpid/,33.61,-112.103,2017-10-27,2017-10-27
9023242,23825253,"8510 W Aster Dr, Peoria, AZ 85381 ",85381,0.678679746389389,240000,https://www.zillow.com/homedetails/8510-W-Aster-Dr-Peoria-AZ-85381/7914617_zpid/,33.6015,-112.243,2017-11-10,2017-11-10
428369,23828377,"6211 W Clarendon Ave, Phoenix, AZ 85033 ",85033,0.6776523232460022,219000,https://www.zillow.com/homedetails/6211-W-Clarendon-Ave-Phoenix-AZ-85033/7496532_zpid/,33.4914,-112.193,2017-10-31,2017-10-31
230822,23837058,"19206 N 4th St, Phoenix, AZ 85024 ",85024,0.6775296151638031,225000,https://www.zillow.com/homedetails/19206-N-4th-St-Phoenix-AZ-85024/7972304_zpid/,33.6605,-112.07,2017-11-16,2017-11-16
9023952,23835040,"3231 W Belmont Ave, Phoenix, AZ 85051 ",85051,0.677461463212967,214900,https://www.zillow.com/homedetails/3231-W-Belmont-Ave-Phoenix-AZ-85051/7758304_zpid/,33.55,-112.12899999999999,2017-11-16,2017-11-16
423289,23823760,"8613 N 53rd Ave, Glendale, AZ 85302 ",85302,0.6773805916309357,194900,https://www.zillow.com/homedetails/8613-N-53rd-Ave-Glendale-AZ-85302/7733929_zpid/,33.563,-112.17299999999999,2017-11-08,2017-11-08
1959564,23823575,"18402 N 30th Pl, Phoenix, AZ 85032 ",85032,0.6772015988826752,210000,https://www.zillow.com/homedetails/18402-N-30th-Pl-Phoenix-AZ-85032/7999245_zpid/,33.6532,-112.01799999999999,2017-11-08,2017-11-08
9018879,23808777,"4021 W Roosevelt St, Phoenix, AZ 85009 ",85009,0.6771562397480011,179990,https://www.zillow.com/homedetails/4021-W-Roosevelt-St-Phoenix-AZ-85009/2092569655_zpid/,33.4585,-112.147,2017-10-26,2017-10-26
9023260,23825739,"6913 W Beryl Ave, Peoria, AZ 85345 ",85345,0.6769163608551025,197000,https://www.zillow.com/homedetails/6913-W-Beryl-Ave-Peoria-AZ-85345/7701889_zpid/,33.5787,-112.208,2017-11-11,2017-11-11
390721,23808934,"4031 W North Ln, Phoenix, AZ 85051 ",85051,0.6768977522850037,184900,https://www.zillow.com/homedetails/4031-W-North-Ln-Phoenix-AZ-85051/7746050_zpid/,33.5813,-112.146,2017-10-26,2017-10-26
400671,23831009,"14003 N 54th Ave, Glendale, AZ 85306 ",85306,0.6765055596828461,120000,https://www.zillow.com/homedetails/14003-N-54th-Ave-Glendale-AZ-85306/8097997_zpid/,33.6132,-112.176,2017-11-14,2017-11-14
408192,23831066,"6114 W Mauna Loa Ln, Glendale, AZ 85306 ",85306,0.675942987203598,185000,https://www.zillow.com/homedetails/6114-W-Mauna-Loa-Ln-Glendale-AZ-85306/8098739_zpid/,33.6204,-112.19,2017-11-10,2017-11-10
255866,23833540,"501 W Beverly Ln, Phoenix, AZ 85023 ",85023,0.6759107828140258,205000,https://www.zillow.com/homedetails/501-W-Beverly-Ln-Phoenix-AZ-85023/7965501_zpid/,33.6333,-112.081,2017-11-12,2017-11-12
386720,23821733,"3706 W Palmaire Ave, Phoenix, AZ 85051 ",85051,0.6757088661193847,175000,https://www.zillow.com/homedetails/3706-W-Palmaire-Ave-Phoenix-AZ-85051/7756805_zpid/,33.5416,-112.139,2017-11-05,2017-11-05
7409762,23824228,"8709 W Diana Ave, Peoria, AZ 85345 ",85345,0.6756865620613098,244950,https://www.zillow.com/homedetails/8709-W-Diana-Ave-Peoria-AZ-85345/7683828_zpid/,33.5611,-112.24700000000001,2017-11-07,2017-11-07
384269,23819801,"13430 N 37th Ave, Phoenix, AZ 85029 ",85029,0.6756724059581757,209900,https://www.zillow.com/homedetails/13430-N-37th-Ave-Phoenix-AZ-85029/7741466_zpid/,33.6083,-112.139,2017-11-03,2017-11-03
348914,23822646,"3525 W Melvin St, Phoenix, AZ 85009 ",85009,0.6749033689498901,159900,https://www.zillow.com/homedetails/3525-W-Melvin-St-Phoenix-AZ-85009/7505973_zpid/,33.4521,-112.13600000000001,2017-11-07,2017-11-07
392885,23819817,"4216 W Royal Palm Rd, Phoenix, AZ 85051 ",85051,0.6746970355510712,215000,https://www.zillow.com/homedetails/4216-W-Royal-Palm-Rd-Phoenix-AZ-85051/7753122_zpid/,33.5558,-112.15,2017-11-03,2017-11-03
8970849,23830064,"3715 E Delcoa Dr, Phoenix, AZ 85032 ",85032,0.6746819317340851,225000,https://www.zillow.com/homedetails/3715-E-Delcoa-Dr-Phoenix-AZ-85032/7813615_zpid/,33.6109,-112.00200000000001,2017-10-25,2017-10-25
9020875,23833520,"319 W Utopia Rd, Phoenix, AZ 85027 ",85027,0.6745036542415619,238000,https://www.zillow.com/homedetails/319-W-Utopia-Rd-Phoenix-AZ-85027/7968688_zpid/,33.6617,-112.079,2017-11-15,2017-11-15
1095696,23832151,"856 W Monterey St, Chandler, AZ 85225 ",85225,0.6742402374744415,245900,https://www.zillow.com/homedetails/856-W-Monterey-St-Chandler-AZ-85225/8186284_zpid/,33.315,-111.85700000000001,2017-11-13,2017-11-13
9020725,23815067,"9537 W Sunnyslope Ln, Peoria, AZ 85345 ",85345,0.6735690891742706,224000,https://www.zillow.com/homedetails/9537-W-Sunnyslope-Ln-Peoria-AZ-85345/7697879_zpid/,33.5693,-112.265,2017-10-30,2017-10-30
827449,23813741,"2928 N 40th Dr, Phoenix, AZ 85019 ",85019,0.6733981788158416,174999,https://www.zillow.com/homedetails/2928-N-40th-Dr-Phoenix-AZ-85019/7509157_zpid/,33.4817,-112.146,2017-10-28,2017-10-28
9021889,23808090,"2926 E Charleston Ave, Phoenix, AZ 85032 ",85032,0.6733871221542358,175000,https://www.zillow.com/homedetails/2926-E-Charleston-Ave-Phoenix-AZ-85032/7998861_zpid/,33.6495,-112.01899999999999,2017-10-25,2017-10-25
416034,23808888,"4413 W Mission Ln, Glendale, AZ 85302 ",85302,0.673189902305603,184500,https://www.zillow.com/homedetails/4413-W-Mission-Ln-Glendale-AZ-85302/7729654_zpid/,33.5689,-112.155,2017-10-26,2017-10-26
391216,23805863,"3119 W Larkspur Dr, Phoenix, AZ 85029 ",85029,0.673060166835785,195000,https://www.zillow.com/homedetails/3119-W-Larkspur-Dr-Phoenix-AZ-85029/7747282_zpid/,33.5998,-112.126,2017-10-25,2017-10-25
524793,23853453,"9129 W Vernon Ave, Phoenix, AZ 85037 ",85037,0.6730331838130951,220000,https://www.zillow.com/homedetails/9129-W-Vernon-Ave-Phoenix-AZ-85037/67764435_zpid/,33.4726,-112.257,2017-11-18,2017-11-18
1885354,23821625,"4921 W Tonto Rd, Glendale, AZ 85308 ",85308,0.6727714121341706,235000,https://www.zillow.com/homedetails/4921-W-Tonto-Rd-Glendale-AZ-85308/7938037_zpid/,33.665,-112.166,2017-11-05,2017-11-05
355855,23833551,"702 E Rose Marie Ln, Phoenix, AZ 85022 ",85022,0.6723051130771637,247000,https://www.zillow.com/homedetails/702-E-Rose-Marie-Ln-Phoenix-AZ-85022/49942677_zpid/,33.6527,-112.065,2017-11-14,2017-11-14
391100,23830817,"3110 W Willow Ave, Phoenix, AZ 85029 ",85029,0.6721364378929138,195000,https://www.zillow.com/homedetails/3110-W-Willow-Ave-Phoenix-AZ-85029/7745069_zpid/,33.6072,-112.126,2017-11-09,2017-11-09
402127,23814880,"14638 N 62nd Ave, Glendale, AZ 85306 ",85306,0.671968150138855,230000,https://www.zillow.com/homedetails/14638-N-62nd-Ave-Glendale-AZ-85306/8098778_zpid/,33.6177,-112.191,2017-10-30,2017-10-30
9022111,23817234,"7629 N 44th Dr, Glendale, AZ 85301 ",85301,0.6717481315135956,195000,https://www.zillow.com/homedetails/7629-N-44th-Dr-Glendale-AZ-85301/7725279_zpid/,33.5492,-112.155,2017-11-01,2017-11-01
388342,23817469,"2312 W Laurel Ln, Phoenix, AZ 85029 ",85029,0.671309906244278,191000,https://www.zillow.com/homedetails/2312-W-Laurel-Ln-Phoenix-AZ-85029/7749464_zpid/,33.5944,-112.109,2017-11-01,2017-11-01
9012337,23837926,"3324 E Thunderbird Rd, Phoenix, AZ 85032 ",85032,0.6712323069572449,210000,https://www.zillow.com/homedetails/3324-E-Thunderbird-Rd-Phoenix-AZ-85032/8011849_zpid/,33.6116,-112.01100000000001,2017-11-16,2017-11-16
402667,23823693,"15234 N 51st Dr, Glendale, AZ 85306 ",85306,0.6711404860019684,245000,https://www.zillow.com/homedetails/15234-N-51st-Dr-Glendale-AZ-85306/7911002_zpid/,33.6236,-112.169,2017-11-06,2017-11-06
256392,23822269,"4228 W Hearn Rd, Phoenix, AZ 85053 ",85053,0.6710021197795868,229500,https://www.zillow.com/homedetails/4228-W-Hearn-Rd-Phoenix-AZ-85053/7944988_zpid/,33.6147,-112.15100000000001,2017-11-05,2017-11-05
9021439,23809744,"17630 N 33rd Ln, Phoenix, AZ 85053 ",85053,0.6708340466022491,224500,https://www.zillow.com/homedetails/17630-N-33rd-Ln-Phoenix-AZ-85053/7942069_zpid/,33.6462,-112.131,2017-10-26,2017-10-26
423069,23831999,"8502 N 54th Dr, Glendale, AZ 85302 ",85302,0.669984883069992,196900,https://www.zillow.com/homedetails/8502-N-54th-Dr-Glendale-AZ-85302/7733696_zpid/,33.5606,-112.177,2017-11-09,2017-11-09
1345978,23817191,"4812 W Sierra Vista Dr, Glendale, AZ 85301 ",85301,0.6698201060295105,179900,https://www.zillow.com/homedetails/4812-W-Sierra-Vista-Dr-Glendale-AZ-85301/7722682_zpid/,33.533,-112.163,2017-11-01,2017-11-01
831187,23815076,"3944 W Cavalier Dr, Phoenix, AZ 85019 ",85019,0.669755494594574,210000,https://www.zillow.com/homedetails/3944-W-Cavalier-Dr-Phoenix-AZ-85019/7760413_zpid/,33.5263,-112.145,2017-10-30,2017-10-30
408219,23834499,"6118 W Tierra Buena Ln, Glendale, AZ 85306 ",85306,0.6694919109344483,199000,https://www.zillow.com/homedetails/6118-W-Tierra-Buena-Ln-Glendale-AZ-85306/8096943_zpid/,33.6295,-112.18700000000001,2017-11-16,2017-11-16
8945930,23853014,"4216 N 79th Ln, Phoenix, AZ 85033 ",85033,0.6693792283535004,179900,https://www.zillow.com/homedetails/4216-N-79th-Ln-Phoenix-AZ-85033/7482042_zpid/,33.4968,-112.23100000000001,2017-11-11,2017-11-11
402249,23835195,"14811 N 52nd Ave, Glendale, AZ 85306 ",85306,0.669306069612503,204000,https://www.zillow.com/homedetails/14811-N-52nd-Ave-Glendale-AZ-85306/7910951_zpid/,33.6197,-112.171,2017-11-16,2017-11-16
391157,23822252,"3114 W Wethersfield Rd, Phoenix, AZ 85029 ",85029,0.6692259311676025,192000,https://www.zillow.com/homedetails/3114-W-Wethersfield-Rd-Phoenix-AZ-85029/7747401_zpid/,33.5974,-112.126,2017-11-06,2017-11-06
8998726,23831103,"7815 W Julie Dr, Glendale, AZ 85308 ",85308,0.6690583527088165,249900,https://www.zillow.com/homedetails/7815-W-Julie-Dr-Glendale-AZ-85308/7891965_zpid/,33.6539,-112.227,2017-11-13,2017-11-13
8982625,23797411,"6105 W Indianola Ave, Phoenix, AZ 85033 ",85033,0.6682092785835266,199900,https://www.zillow.com/homedetails/6105-W-Indianola-Ave-Phoenix-AZ-85033/7496565_zpid/,33.4922,-112.191,2017-10-24,2017-10-24
17802,23821964,"8338 W Bluefield Ave, Peoria, AZ 85382 ",85382,0.6680786550045014,225000,https://www.zillow.com/homedetails/8338-W-Bluefield-Ave-Peoria-AZ-85382/8129243_zpid/,33.6507,-112.23899999999999,2017-11-04,2017-11-04
424265,23822325,"9114 N 56th Ln, Glendale, AZ 85302 ",85302,0.6680079877376557,237990,https://www.zillow.com/homedetails/9114-N-56th-Ln-Glendale-AZ-85302/7734710_zpid/,33.5689,-112.181,2017-11-06,2017-11-06
9015636,23825624,"7118 W Sells Dr, Phoenix, AZ 85033 ",85033,0.6677696883678437,182900,https://www.zillow.com/homedetails/7118-W-Sells-Dr-Phoenix-AZ-85033/88889219_zpid/,33.5022,-112.213,2017-11-10,2017-11-10
415521,23831012,"10301 N 65th Dr, Glendale, AZ 85302 ",85302,0.6671579301357269,151500,https://www.zillow.com/homedetails/10301-N-65th-Dr-Glendale-AZ-85302/7706446_zpid/,33.5798,-112.199,2017-11-14,2017-11-14
8989019,22747254,"2049 N 77th Gln, Phoenix, AZ 85035 ",85035,0.6668928980827331,168250,https://www.zillow.com/homedetails/2049-N-77th-Gln-Phoenix-AZ-85035/95149994_zpid/,33.4706,-112.226,2017-10-05,2017-10-05
8945113,23759637,"7920 W Sweetwater Ave, Peoria, AZ 85381 ",85381,0.6662722051143646,229900,https://www.zillow.com/homedetails/7920-W-Sweetwater-Ave-Peoria-AZ-85381/8100881_zpid/,33.6029,-112.23,2017-10-19,2017-10-19
386285,23809974,"3631 W Caron St, Phoenix, AZ 85051 ",85051,0.6662432372570037,245000,https://www.zillow.com/homedetails/3631-W-Caron-St-Phoenix-AZ-85051/7746596_zpid/,33.5684,-112.13799999999999,2017-10-26,2017-10-26
343249,23831593,"2019 N 37th Ave, Phoenix, AZ 85009 ",85009,0.6662373244762421,145000,https://www.zillow.com/homedetails/2019-N-37th-Ave-Phoenix-AZ-85009/7511305_zpid/,33.4704,-112.139,2017-11-10,2017-11-10
1118623,23834612,"2101 N Tamarisk St, Chandler, AZ 85224 ",85224,0.6662021815776825,249900,https://www.zillow.com/homedetails/2101-N-Tamarisk-St-Chandler-AZ-85224/8192386_zpid/,33.3365,-111.881,2017-11-17,2017-11-17
9020650,23832106,"324 W Rosal Pl, Chandler, AZ 85225 ",85225,0.6661993026733398,215000,https://www.zillow.com/homedetails/324-W-Rosal-Pl-Chandler-AZ-85225/8177217_zpid/,33.3433,-111.848,2017-11-09,2017-11-09
1096718,23832148,"884 W Dublin St, Chandler, AZ 85225 ",85225,0.6661261737346649,235000,https://www.zillow.com/homedetails/884-W-Dublin-St-Chandler-AZ-85225/8186411_zpid/,33.3188,-111.85799999999999,2017-11-13,2017-11-13
395076,23835130,"3714 W Aster Dr, Phoenix, AZ 85029 ",85029,0.6658024728298187,192000,https://www.zillow.com/homedetails/3714-W-Aster-Dr-Phoenix-AZ-85029/7742826_zpid/,33.6025,-112.139,2017-11-15,2017-11-15
440456,23828490,"8111 W College Dr, Phoenix, AZ 85033 ",85033,0.6657272577285767,153000,https://www.zillow.com/homedetails/8111-W-College-Dr-Phoenix-AZ-85033/7482592_zpid/,33.5078,-112.234,2017-10-25,2017-10-25
8975652,23829621,"18232 N 26th Pl, Phoenix, AZ 85032 ",85032,0.6655315518379211,190000,https://www.zillow.com/homedetails/18232-N-26th-Pl-Phoenix-AZ-85032/8000048_zpid/,33.6526,-112.025,2017-11-11,2017-11-11
368437,23829034,"3430 E Renee Dr, Phoenix, AZ 85050 ",85050,0.6655179917812347,249000,https://www.zillow.com/homedetails/3430-E-Renee-Dr-Phoenix-AZ-85050/7993430_zpid/,33.6562,-112.008,2017-11-09,2017-11-09
252997,23822096,"3801 W Tierra Buena Ln, Phoenix, AZ 85053 ",85053,0.6651150465011597,245000,https://www.zillow.com/homedetails/3801-W-Tierra-Buena-Ln-Phoenix-AZ-85053/7945818_zpid/,33.6286,-112.14,2017-11-06,2017-11-06
9023951,23835138,"4206 W North Ln, Phoenix, AZ 85051 ",85051,0.6647550582885742,189000,https://www.zillow.com/homedetails/4206-W-North-Ln-Phoenix-AZ-85051/7746035_zpid/,33.5817,-112.149,2017-11-16,2017-11-16
9012276,23755797,"5861 W Grovers Ave, Glendale, AZ 85308 ",85308,0.6642906665802002,207000,https://www.zillow.com/homedetails/5861-W-Grovers-Ave-Glendale-AZ-85308/8099781_zpid/,33.6472,-112.186,2017-10-18,2017-10-18
1469883,23825764,"8507 W Oraibi Dr, Peoria, AZ 85382 ",85382,0.6642076015472412,237500,https://www.zillow.com/homedetails/8507-W-Oraibi-Dr-Peoria-AZ-85382/8105886_zpid/,33.6613,-112.242,2017-11-11,2017-11-11
408027,23819948,"6041 W Mary Jane Ln, Glendale, AZ 85306 ",85306,0.6641631364822388,234000,https://www.zillow.com/homedetails/6041-W-Mary-Jane-Ln-Glendale-AZ-85306/8097191_zpid/,33.6273,-112.19,2017-11-03,2017-11-03
448906,23821790,"8455 W Devonshire Ave, Phoenix, AZ 85037 ",85037,0.6636286854743958,164900,https://www.zillow.com/homedetails/8455-W-Devonshire-Ave-Phoenix-AZ-85037/7466636_zpid/,33.4958,-112.242,2017-11-03,2017-11-03
8954944,23798695,"2414 E Dahlia Dr, Phoenix, AZ 85032 ",85032,0.663592529296875,232000,https://www.zillow.com/homedetails/2414-E-Dahlia-Dr-Phoenix-AZ-85032/7820475_zpid/,33.6034,-112.03,2017-10-19,2017-10-19
386525,23810920,"2019 W Willow Ave, Phoenix, AZ 85029 ",85029,0.6635273575782776,189000,https://www.zillow.com/homedetails/2019-W-Willow-Ave-Phoenix-AZ-85029/7749707_zpid/,33.6066,-112.102,2017-10-27,2017-10-27
237867,23806247,"1650 W Muriel Dr, Phoenix, AZ 85023 ",85023,0.6635146379470825,195000,https://www.zillow.com/homedetails/1650-W-Muriel-Dr-Phoenix-AZ-85023/7958466_zpid/,33.646,-112.095,2017-10-25,2017-10-25
9019112,23821748,"4426 W Vogel Ave, Glendale, AZ 85302 ",85302,0.6630665600299835,219900,https://www.zillow.com/homedetails/4426-W-Vogel-Ave-Glendale-AZ-85302/7729451_zpid/,33.5722,-112.155,2017-11-05,2017-11-05
9021915,23829038,"3922 E Willow Ave, Phoenix, AZ 85032 ",85032,0.6629240930080413,235000,https://www.zillow.com/homedetails/3922-E-Willow-Ave-Phoenix-AZ-85032/7813935_zpid/,33.6083,-111.99700000000001,2017-11-14,2017-11-14
359220,23838114,"1816 S 84th Dr, Tolleson, AZ 85353 ",85353,0.6624711692333222,229999,https://www.zillow.com/homedetails/1816-S-84th-Dr-Tolleson-AZ-85353/59249294_zpid/,33.4304,-112.241,2017-11-21,2017-11-21
412977,23831072,"5721 W Altadena Ave, Glendale, AZ 85304 ",85304,0.6623977899551392,180000,https://www.zillow.com/homedetails/5721-W-Altadena-Ave-Glendale-AZ-85304/7737677_zpid/,33.5919,-112.18299999999999,2017-11-09,2017-11-09
556883,23809047,"2529 N 40th Ave, Phoenix, AZ 85009 ",85009,0.662187784910202,149899,https://www.zillow.com/homedetails/2529-N-40th-Ave-Phoenix-AZ-85009/88889007_zpid/,33.4758,-112.146,2017-10-26,2017-10-26
451103,23819909,"3210 N 48th Dr, Phoenix, AZ 85031 ",85031,0.6618082106113434,214900,https://www.zillow.com/homedetails/3210-N-48th-Dr-Phoenix-AZ-85031/7510048_zpid/,33.4863,-112.162,2017-11-03,2017-11-03
230962,23796591,"19225 N 13th St, Phoenix, AZ 85024 ",85024,0.6616565883159637,228000,https://www.zillow.com/homedetails/19225-N-13th-St-Phoenix-AZ-85024/7995445_zpid/,33.6614,-112.054,2017-10-23,2017-10-23
390742,23821739,"4033 W Eva St, Phoenix, AZ 85051 ",85051,0.6615657866001129,200000,https://www.zillow.com/homedetails/4033-W-Eva-St-Phoenix-AZ-85051/7746522_zpid/,33.5702,-112.146,2017-11-03,2017-11-03
8969477,23756066,"9324 W Mountain View Rd, Peoria, AZ 85345 ",85345,0.6614900171756745,214000,https://www.zillow.com/homedetails/9324-W-Mountain-View-Rd-Peoria-AZ-85345/7697441_zpid/,33.5733,-112.26100000000001,2017-10-18,2017-10-18
413890,23835252,"6209 W Bloomfield Rd, Glendale, AZ 85304 ",85304,0.6614268660545349,229999,https://www.zillow.com/homedetails/6209-W-Bloomfield-Rd-Glendale-AZ-85304/7912238_zpid/,33.5984,-112.19200000000001,2017-11-18,2017-11-18
481368,23814944,"2346 N 47th Ln, Phoenix, AZ 85035 ",85035,0.6609555602073669,174900,https://www.zillow.com/homedetails/2346-N-47th-Ln-Phoenix-AZ-85035/7499146_zpid/,33.4749,-112.162,2017-10-29,2017-10-29
359488,23526402,"2409 S 90th Gln, Tolleson, AZ 85353 ",85353,0.6609164893627166,204900,https://www.zillow.com/homedetails/2409-S-90th-Gln-Tolleson-AZ-85353/67772730_zpid/,33.425,-112.25399999999999,2017-10-11,2017-10-11
1356715,23831093,"7327 N 47th Ave, Glendale, AZ 85301 ",85301,0.6608734488487243,189500,https://www.zillow.com/homedetails/7327-N-47th-Ave-Glendale-AZ-85301/7725576_zpid/,33.545,-112.16,2017-11-10,2017-11-10
8850973,23814108,"2525 E Michigan Ave, Phoenix, AZ 85032 ",85032,0.6608017981052399,225000,https://www.zillow.com/homedetails/2525-E-Michigan-Ave-Phoenix-AZ-85032/7999906_zpid/,33.6507,-112.027,2017-10-29,2017-10-29
9019482,23822508,"8505 W Oraibi Dr, Peoria, AZ 85382 ",85382,0.660328483581543,240000,https://www.zillow.com/homedetails/8505-W-Oraibi-Dr-Peoria-AZ-85382/8105887_zpid/,33.6616,-112.242,2017-11-05,2017-11-05
9022874,23843166,"5728 W Villa Maria Dr, Glendale, AZ 85308 ",85308,0.6601000428199768,219000,https://www.zillow.com/homedetails/5728-W-Villa-Maria-Dr-Glendale-AZ-85308/7901229_zpid/,33.6509,-112.18299999999999,2017-11-23,2017-11-23
831318,23816388,"4008 W Citrus Way, Phoenix, AZ 85019 ",85019,0.6598368227481842,205000,https://www.zillow.com/homedetails/4008-W-Citrus-Way-Phoenix-AZ-85019/7761902_zpid/,33.5299,-112.145,2017-10-31,2017-10-31
8959430,23823810,"4054 W Northview Ave, Phoenix, AZ 85051 ",85051,0.6597198486328125,199500,https://www.zillow.com/homedetails/4054-W-Northview-Ave-Phoenix-AZ-85051/7757834_zpid/,33.5436,-112.147,2017-11-07,2017-11-07
497370,23828357,"6740 W Encanto Blvd, Phoenix, AZ 85035 ",85035,0.6591537594795227,195000,https://www.zillow.com/homedetails/6740-W-Encanto-Blvd-Phoenix-AZ-85035/7475724_zpid/,33.4737,-112.205,2017-10-17,2017-10-17
385123,23831496,"1543 W Pershing Ave, Phoenix, AZ 85029 ",85029,0.6587606549263001,238500,https://www.zillow.com/homedetails/1543-W-Pershing-Ave-Phoenix-AZ-85029/7784336_zpid/,33.6056,-112.09299999999999,2017-11-03,2017-11-03
249764,23834130,"3554 W Hearn Rd, Phoenix, AZ 85053 ",85053,0.6581529915332794,249900,https://www.zillow.com/homedetails/3554-W-Hearn-Rd-Phoenix-AZ-85053/7944500_zpid/,33.6149,-112.13600000000001,2017-11-10,2017-11-10
9024660,23847905,"20 Hillside Dr, Saint Johns, AZ 85936 ",85936,0.6579399347305298,69000,https://www.zillow.com/homedetails/20-Hillside-Dr-Saint-Johns-AZ-85936/7354311_zpid/,33.6469,-112.059,2017-11-22,2017-11-22
220078,23817452,"8352 N 3rd St, Phoenix, AZ 85020 ",85020,0.6577787101268768,200000,https://www.zillow.com/homedetails/8352-N-3rd-St-Phoenix-AZ-85020/7794017_zpid/,33.5605,-112.07,2017-11-01,2017-11-01
8456513,23825748,"7372 W Mescal St, Peoria, AZ 85345 ",85345,0.6575047612190247,199880,https://www.zillow.com/homedetails/7372-W-Mescal-St-Peoria-AZ-85345/7700861_zpid/,33.5857,-112.21799999999999,2017-11-11,2017-11-11
9023641,23853001,"4211 N 47th Dr, Phoenix, AZ 85031 ",85031,0.6573755860328674,119900,https://www.zillow.com/homedetails/4211-N-47th-Dr-Phoenix-AZ-85031/7721052_zpid/,33.4972,-112.161,2017-11-13,2017-11-13
392047,23835111,"3214 W Voltaire Ave, Phoenix, AZ 85029 ",85029,0.6570971369743347,229900,https://www.zillow.com/homedetails/3214-W-Voltaire-Ave-Phoenix-AZ-85029/7747954_zpid/,33.6091,-112.12799999999999,2017-11-18,2017-11-18
410715,23831026,"4923 W Becker Ln, Glendale, AZ 85304 ",85304,0.6570953249931335,199900,https://www.zillow.com/homedetails/4923-W-Becker-Ln-Glendale-AZ-85304/67083498_zpid/,33.5822,-112.166,2017-11-14,2017-11-14
395766,23830864,"3820 W Becker Ln, Phoenix, AZ 85029 ",85029,0.6570388674736023,215000,https://www.zillow.com/homedetails/3820-W-Becker-Ln-Phoenix-AZ-85029/7743633_zpid/,33.5831,-112.141,2017-11-10,2017-11-10
9021586,23838024,"8142 W Sweetwater Ave, Peoria, AZ 85381 ",85381,0.6569787442684174,240000,https://www.zillow.com/homedetails/8142-W-Sweetwater-Ave-Peoria-AZ-85381/7913307_zpid/,33.6028,-112.235,2017-11-16,2017-11-16
388700,23829780,"2353 W Cortez St, Phoenix, AZ 85029 ",85029,0.6562531948089599,173500,https://www.zillow.com/homedetails/2353-W-Cortez-St-Phoenix-AZ-85029/7749270_zpid/,33.5905,-112.11,2017-11-10,2017-11-10
226007,23837043,"1415 W Topeka Dr, Phoenix, AZ 85027 ",85027,0.6560332596302032,248000,https://www.zillow.com/homedetails/1415-W-Topeka-Dr-Phoenix-AZ-85027/7971784_zpid/,33.6594,-112.089,2017-11-16,2017-11-16
395412,23839216,"3742 W Altadena Ave, Phoenix, AZ 85029 ",85029,0.6559806108474732,214900,https://www.zillow.com/homedetails/3742-W-Altadena-Ave-Phoenix-AZ-85029/7743955_zpid/,33.5917,-112.14,2017-11-13,2017-11-13
9024164,23837246,"4664 N 77th Ave, Phoenix, AZ 85033 ",85033,0.6559738278388977,175000,https://www.zillow.com/homedetails/4664-N-77th-Ave-Phoenix-AZ-85033/7482279_zpid/,33.505,-112.226,2017-11-16,2017-11-16
1880517,23843270,"844 W Harrison St, Chandler, AZ 85225 ",85225,0.655878746509552,225000,https://www.zillow.com/homedetails/844-W-Harrison-St-Chandler-AZ-85225/8186376_zpid/,33.3168,-111.85600000000001,2017-11-20,2017-11-20
390056,23831704,"2917 W Aster Dr, Phoenix, AZ 85029 ",85029,0.6557825744152069,199750,https://www.zillow.com/homedetails/2917-W-Aster-Dr-Phoenix-AZ-85029/7741102_zpid/,33.6021,-112.12200000000001,2017-11-14,2017-11-14
9022117,23811077,"15145 N 86th Dr, Peoria, AZ 85381 ",85381,0.6553247153759003,209900,https://www.zillow.com/homedetails/15145-N-86th-Dr-Peoria-AZ-85381/7908510_zpid/,33.6217,-112.245,2017-10-27,2017-10-27
1935608,23825006,"3358 W Portland St, Phoenix, AZ 85009 ",85009,0.6548988103866578,120000,https://www.zillow.com/homedetails/3358-W-Portland-St-Phoenix-AZ-85009/7513257_zpid/,33.4599,-112.131,2017-11-09,2017-11-09
968057,23816718,"510 N Los Feliz Dr, Chandler, AZ 85226 ",85226,0.6545555830001831,199900,https://www.zillow.com/homedetails/510-N-Los-Feliz-Dr-Chandler-AZ-85226/8154966_zpid/,33.3119,-111.905,2017-11-01,2017-11-01
17301,23755286,"5852 W Orangewood Ave, Glendale, AZ 85301 ",85301,0.6545301854610444,179900,https://www.zillow.com/homedetails/5852-W-Orangewood-Ave-Glendale-AZ-85301/7726635_zpid/,33.5461,-112.186,2017-10-18,2017-10-18
1466624,23831203,"17462 N 92nd Gln, Peoria, AZ 85382 ",85382,0.6544439315795898,228000,https://www.zillow.com/homedetails/17462-N-92nd-Gln-Peoria-AZ-85382/95103614_zpid/,33.6425,-112.259,2017-11-14,2017-11-14
255668,23837407,"412 W Sandra Ter, Phoenix, AZ 85023 ",85023,0.6544065117835999,229999,https://www.zillow.com/homedetails/412-W-Sandra-Ter-Phoenix-AZ-85023/7965434_zpid/,33.6344,-112.08,2017-11-20,2017-11-20
435394,23853323,"7907 W Catalina Dr, Phoenix, AZ 85033 ",85033,0.6543583989143371,179900,https://www.zillow.com/homedetails/7907-W-Catalina-Dr-Phoenix-AZ-85033/7469386_zpid/,33.4811,-112.228,2017-11-16,2017-11-16
9018977,23810709,"4415 W Keating Cir, Glendale, AZ 85308 ",85308,0.6538777470588684,235000,https://www.zillow.com/homedetails/4415-W-Keating-Cir-Glendale-AZ-85308/7950373_zpid/,33.6423,-112.154,2017-10-26,2017-10-26
9021756,23800765,"8749 W Fullam St, Peoria, AZ 85382 ",85382,0.6538535594940186,199500,https://www.zillow.com/homedetails/8749-W-Fullam-St-Peoria-AZ-85382/7898649_zpid/,33.6501,-112.24799999999999,2017-10-24,2017-10-24
450658,23828592,"8740 W Earll Dr, Phoenix, AZ 85037 ",85037,0.6536346673965454,129999,https://www.zillow.com/homedetails/8740-W-Earll-Dr-Phoenix-AZ-85037/7479995_zpid/,33.4838,-112.249,2017-10-27,2017-10-27
412062,23570538,"5339 W Cholla St, Glendale, AZ 85304 ",85304,0.6535892367362977,209000,https://www.zillow.com/homedetails/5339-W-Cholla-St-Glendale-AZ-85304/7736846_zpid/,33.5891,-112.175,2017-10-12,2017-10-12
450692,23753402,"8742 W Edgemont Ave, Phoenix, AZ 85037 ",85037,0.6534435451030731,190000,https://www.zillow.com/homedetails/8742-W-Edgemont-Ave-Phoenix-AZ-85037/7473770_zpid/,33.4794,-112.249,2017-10-12,2017-10-12
231468,23814655,"1516 W Hartford Ave, Phoenix, AZ 85023 ",85023,0.653404951095581,150000,https://www.zillow.com/homedetails/1516-W-Hartford-Ave-Phoenix-AZ-85023/7965136_zpid/,33.6433,-112.09200000000001,2017-10-30,2017-10-30
416064,23818791,"4416 W Turquoise Ave, Glendale, AZ 85302 ",85302,0.6533472180366516,249900,https://www.zillow.com/homedetails/4416-W-Turquoise-Ave-Glendale-AZ-85302/7729268_zpid/,33.5757,-112.154,2017-11-02,2017-11-02
8959401,23821735,"3907 W Palm Ln, Phoenix, AZ 85009 ",85009,0.6532902002334595,144900,https://www.zillow.com/homedetails/3907-W-Palm-Ln-Phoenix-AZ-85009/7511764_zpid/,33.4696,-112.14399999999999,2017-11-03,2017-11-03
1356244,23823740,"6825 N 60th Ave, Glendale, AZ 85301 ",85301,0.6532118558883667,182000,https://www.zillow.com/homedetails/6825-N-60th-Ave-Glendale-AZ-85301/7707716_zpid/,33.5378,-112.189,2017-11-08,2017-11-08
392492,23818671,"3250 W Shangri La Rd, Phoenix, AZ 85029 ",85029,0.6528971314430236,224900,https://www.zillow.com/homedetails/3250-W-Shangri-La-Rd-Phoenix-AZ-85029/7740618_zpid/,33.5877,-112.13,2017-11-02,2017-11-02
829049,23814294,"3625 W San Juan Ave, Phoenix, AZ 85019 ",85019,0.6525861918926239,150000,https://www.zillow.com/homedetails/3625-W-San-Juan-Ave-Phoenix-AZ-85019/7719375_zpid/,33.5186,-112.13799999999999,2017-10-29,2017-10-29
9023875,23833720,"14623 N 38th St, Phoenix, AZ 85032 ",85032,0.6519655585289001,244900,https://www.zillow.com/homedetails/14623-N-38th-St-Phoenix-AZ-85032/8013505_zpid/,33.6199,-112.0,2017-11-15,2017-11-15
231524,23650293,"17459 N 28th Ave, Phoenix, AZ 85053 ",85053,0.6515780508518219,199000,https://www.zillow.com/homedetails/17459-N-28th-Ave-Phoenix-AZ-85053/7942436_zpid/,33.6449,-112.119,2017-10-14,2017-10-14
486075,23803976,"4735 W Hubbell St, Phoenix, AZ 85035 ",85035,0.6514550805091858,160000,https://www.zillow.com/homedetails/4735-W-Hubbell-St-Phoenix-AZ-85035/7494702_zpid/,33.4699,-112.162,2017-10-22,2017-10-22
9020028,23830547,"7509 W Sells Dr, Phoenix, AZ 85033 ",85033,0.6513207077980041,175000,https://www.zillow.com/homedetails/7509-W-Sells-Dr-Phoenix-AZ-85033/67081789_zpid/,33.5016,-112.221,2017-11-09,2017-11-09
830701,23830958,"3833 W Ocotillo Rd, Phoenix, AZ 85019 ",85019,0.6512584090232849,199900,https://www.zillow.com/homedetails/3833-W-Ocotillo-Rd-Phoenix-AZ-85019/7758511_zpid/,33.5346,-112.14200000000001,2017-11-12,2017-11-12
224397,23833473,"1244 E Sequoia Dr, Phoenix, AZ 85024 ",85024,0.6511760115623474,228500,https://www.zillow.com/homedetails/1244-E-Sequoia-Dr-Phoenix-AZ-85024/7995359_zpid/,33.6631,-112.055,2017-11-10,2017-11-10
453577,23828246,"4508 N 50th Ave, Phoenix, AZ 85031 ",85031,0.6509416222572326,155000,https://www.zillow.com/homedetails/4508-N-50th-Ave-Phoenix-AZ-85031/7720645_zpid/,33.5027,-112.167,2017-11-07,2017-11-07
9020415,23814144,"4822 N 64th Dr, Phoenix, AZ 85033 ",85033,0.650772112607956,225000,https://www.zillow.com/homedetails/4822-N-64th-Dr-Phoenix-AZ-85033/7712268_zpid/,33.5082,-112.198,2017-10-29,2017-10-29
557194,23828210,"2601 N 41st Ave, Phoenix, AZ 85009 ",85009,0.6505796194076539,150000,https://www.zillow.com/homedetails/2601-N-41st-Ave-Phoenix-AZ-85009/7512888_zpid/,33.477,-112.147,2017-11-12,2017-11-12
8988800,23830205,"4343 E Bluefield Ave, Phoenix, AZ 85032 ",85032,0.6504354178905487,214950,https://www.zillow.com/homedetails/4343-E-Bluefield-Ave-Phoenix-AZ-85032/8017922_zpid/,33.6531,-111.988,2017-11-09,2017-11-09
385922,23822262,"3614 W Echo Ln, Phoenix, AZ 85051 ",85051,0.6503948390483856,185000,https://www.zillow.com/homedetails/3614-W-Echo-Ln-Phoenix-AZ-85051/7754459_zpid/,33.5595,-112.137,2017-11-06,2017-11-06
224188,23754064,"14213 N 35th Dr, Phoenix, AZ 85053 ",85053,0.6500322878360748,200000,https://www.zillow.com/homedetails/14213-N-35th-Dr-Phoenix-AZ-85053/7944539_zpid/,33.6154,-112.135,2017-10-16,2017-10-16
1346962,23823701,"4935 W Lamar Rd, Glendale, AZ 85301 ",85301,0.6495195508003235,149900,https://www.zillow.com/homedetails/4935-W-Lamar-Rd-Glendale-AZ-85301/7722382_zpid/,33.5365,-112.166,2017-11-07,2017-11-07
389184,23830961,"3901 W Kaler Dr, Phoenix, AZ 85051 ",85051,0.6492965698242188,219000,https://www.zillow.com/homedetails/3901-W-Kaler-Dr-Phoenix-AZ-85051/7757975_zpid/,33.5485,-112.14299999999999,2017-11-13,2017-11-13
1372616,23837733,"8549 W Tuckey Ln, Glendale, AZ 85305 ",85305,0.6485456109046936,206000,https://www.zillow.com/homedetails/8549-W-Tuckey-Ln-Glendale-AZ-85305/7461499_zpid/,33.533,-112.245,2017-11-19,2017-11-19
386267,23830833,"3629 W Lawrence Ln, Phoenix, AZ 85051 ",85051,0.6481031060218811,199800,https://www.zillow.com/homedetails/3629-W-Lawrence-Ln-Phoenix-AZ-85051/7753974_zpid/,33.5645,-112.13799999999999,2017-11-08,2017-11-08
492013,23825600,"5635 W Cambridge Ave, Phoenix, AZ 85035 ",85035,0.6478962600231171,184900,https://www.zillow.com/homedetails/5635-W-Cambridge-Ave-Phoenix-AZ-85035/7492190_zpid/,33.4769,-112.182,2017-11-09,2017-11-09
388115,23831776,"3814 W Davidson Ln, Phoenix, AZ 85051 ",85051,0.6478213012218476,192000,https://www.zillow.com/homedetails/3814-W-Davidson-Ln-Phoenix-AZ-85051/7746767_zpid/,33.5701,-112.141,2017-11-07,2017-11-07
640201,23837467,"613 W Peralta Ave, Mesa, AZ 85210 ",85210,0.6469347715377808,229000,https://www.zillow.com/homedetails/613-W-Peralta-Ave-Mesa-AZ-85210/8190639_zpid/,33.3572,-111.84700000000001,2017-11-20,2017-11-20
246021,23837074,"2211 W Morrow Dr, Phoenix, AZ 85027 ",85027,0.6466489911079407,223500,https://www.zillow.com/homedetails/2211-W-Morrow-Dr-Phoenix-AZ-85027/7969868_zpid/,33.6564,-112.10700000000001,2017-11-17,2017-11-17
384150,23834117,"3417 W Diana Ave, Phoenix, AZ 85051 ",85051,0.6466457545757294,179900,https://www.zillow.com/homedetails/3417-W-Diana-Ave-Phoenix-AZ-85051/7753849_zpid/,33.5627,-112.133,2017-11-13,2017-11-13
229177,23837049,"16266 N 29th Dr, Phoenix, AZ 85053 ",85053,0.6466389536857605,230000,https://www.zillow.com/homedetails/16266-N-29th-Dr-Phoenix-AZ-85053/7954095_zpid/,33.6336,-112.12200000000001,2017-11-16,2017-11-16
422357,23752505,"6612 W Brown St, Glendale, AZ 85302 ",85302,0.6464035987854004,199000,https://www.zillow.com/homedetails/6612-W-Brown-St-Glendale-AZ-85302/7706362_zpid/,33.5783,-112.20100000000001,2017-10-14,2017-10-14
457725,23828275,"5216 W Mulberry Dr, Phoenix, AZ 85031 ",85031,0.6460979104042053,175000,https://www.zillow.com/homedetails/5216-W-Mulberry-Dr-Phoenix-AZ-85031/7497059_zpid/,33.4869,-112.17200000000001,2017-11-10,2017-11-10
9019399,23759454,"15032 N 26th St, Phoenix, AZ 85032 ",85032,0.6460644781589509,240000,https://www.zillow.com/homedetails/15032-N-26th-St-Phoenix-AZ-85032/8013907_zpid/,33.6237,-112.027,2017-10-20,2017-10-20
484013,23814956,"2801 N 65th Dr, Phoenix, AZ 85035 ",85035,0.6460084974765777,169900,https://www.zillow.com/homedetails/2801-N-65th-Dr-Phoenix-AZ-85035/7490127_zpid/,33.4789,-112.2,2017-10-30,2017-10-30
9022124,23839846,"8533 W Ruth Ave, Peoria, AZ 85345 ",85345,0.6458037853240967,200000,https://www.zillow.com/homedetails/8533-W-Ruth-Ave-Peoria-AZ-85345/7683557_zpid/,33.5621,-112.244,2017-11-21,2017-11-21
331533,23824354,"1101 E Michigan Ave, Phoenix, AZ 85022 ",85022,0.645347249507904,212000,https://www.zillow.com/homedetails/1101-E-Michigan-Ave-Phoenix-AZ-85022/8002507_zpid/,33.6513,-112.05799999999999,2017-11-09,2017-11-09
489939,23818555,"5411 W Palm Ln, Phoenix, AZ 85035 ",85035,0.6449946582317352,159900,https://www.zillow.com/homedetails/5411-W-Palm-Ln-Phoenix-AZ-85035/7493928_zpid/,33.4695,-112.176,2017-11-02,2017-11-02
434832,23841757,"2007 N 90th Ln, Phoenix, AZ 85037 ",85037,0.6445849895477295,179000,https://www.zillow.com/homedetails/2007-N-90th-Ln-Phoenix-AZ-85037/7487835_zpid/,33.4691,-112.25399999999999,2017-11-24,2017-11-24
1129854,23830354,"549 N Arrowhead Dr, Chandler, AZ 85224 ",85224,0.6445838212966919,209000,https://www.zillow.com/homedetails/549-N-Arrowhead-Dr-Chandler-AZ-85224/8185610_zpid/,33.3129,-111.867,2017-11-09,2017-11-09
379541,23831369,"11439 N 33rd Ave, Phoenix, AZ 85029 ",85029,0.644107323884964,214900,https://www.zillow.com/homedetails/11439-N-33rd-Ave-Phoenix-AZ-85029/7749169_zpid/,33.5913,-112.13,2017-11-10,2017-11-10
422023,23835263,"6461 W Ruth Ave, Glendale, AZ 85302 ",85302,0.6441005170345306,210000,https://www.zillow.com/homedetails/6461-W-Ruth-Ave-Glendale-AZ-85302/67790198_zpid/,33.5625,-112.198,2017-11-18,2017-11-18
9021871,23807926,"12120 N 89th Dr, Peoria, AZ 85345 ",85345,0.6437338471412659,249900,https://www.zillow.com/homedetails/12120-N-89th-Dr-Peoria-AZ-85345/7685583_zpid/,33.5947,-112.25200000000001,2017-10-25,2017-10-25
9011928,23753384,"7411 W Wolf St, Phoenix, AZ 85033 ",85033,0.6434348940849304,229900,https://www.zillow.com/homedetails/7411-W-Wolf-St-Phoenix-AZ-85033/95184996_zpid/,33.5059,-112.219,2017-10-12,2017-10-12
8948906,23828565,"7614 W Weldon Ave, Phoenix, AZ 85033 ",85033,0.6434034645557404,159900,https://www.zillow.com/homedetails/7614-W-Weldon-Ave-Phoenix-AZ-85033/7478212_zpid/,33.4914,-112.22399999999999,2017-10-24,2017-10-24
397462,23833776,"4040 W Desert Cove Ave, Phoenix, AZ 85029 ",85029,0.6433584570884705,227000,https://www.zillow.com/homedetails/4040-W-Desert-Cove-Ave-Phoenix-AZ-85029/7744743_zpid/,33.5857,-112.146,2017-11-15,2017-11-15
8990250,23821754,"507 S Rogers, Mesa, AZ 85202 ",85202,0.6432233512401581,224990,https://www.zillow.com/homedetails/507-S-Rogers-Mesa-AZ-85202/7604897_zpid/,33.4056,-111.863,2017-11-03,2017-11-03
383928,23818660,"13245 N 15th Dr, Phoenix, AZ 85029 ",85029,0.6429731130599976,230000,https://www.zillow.com/homedetails/13245-N-15th-Dr-Phoenix-AZ-85029/7784183_zpid/,33.6081,-112.09299999999999,2017-11-02,2017-11-02
347659,23821801,"9425 N 11th Ave, Phoenix, AZ 85021 ",85021,0.6426947355270386,127000,https://www.zillow.com/homedetails/9425-N-11th-Ave-Phoenix-AZ-85021/7782046_zpid/,33.5723,-112.086,2017-11-02,2017-11-02
386131,23834497,"1914 W Voltaire Ave, Phoenix, AZ 85029 ",85029,0.6426210403442383,199000,https://www.zillow.com/homedetails/1914-W-Voltaire-Ave-Phoenix-AZ-85029/7749583_zpid/,33.609,-112.1,2017-11-16,2017-11-16
1412762,23830526,"7238 W Bethany Home Rd, Glendale, AZ 85303 ",85303,0.6425277709960937,170000,https://www.zillow.com/homedetails/7238-W-Bethany-Home-Rd-Glendale-AZ-85303/7707005_zpid/,33.5235,-112.215,2017-11-10,2017-11-10
230933,23837060,"18608 N 17th Ave, Phoenix, AZ 85027 ",85027,0.642469048500061,219900,https://www.zillow.com/homedetails/18608-N-17th-Ave-Phoenix-AZ-85027/7969674_zpid/,33.6552,-112.096,2017-11-16,2017-11-16
441880,23831779,"3901 N 84th Ln, Phoenix, AZ 85037 ",85037,0.642286342382431,174000,https://www.zillow.com/homedetails/3901-N-84th-Ln-Phoenix-AZ-85037/67081706_zpid/,33.4925,-112.241,2017-11-13,2017-11-13
496823,23831910,"6622 W Virginia Ave, Phoenix, AZ 85035 ",85035,0.6421494305133819,163900,https://www.zillow.com/homedetails/6622-W-Virginia-Ave-Phoenix-AZ-85035/7490202_zpid/,33.4769,-112.20200000000001,2017-11-10,2017-11-10
410256,23810938,"4730 W Shaw Butte Dr, Glendale, AZ 85304 ",85304,0.6421492457389831,240000,https://www.zillow.com/homedetails/4730-W-Shaw-Butte-Dr-Glendale-AZ-85304/7727507_zpid/,33.5952,-112.161,2017-10-27,2017-10-27
424042,23835298,"9015 N 57th Ave, Glendale, AZ 85302 ",85302,0.6418343305587768,205000,https://www.zillow.com/homedetails/9015-N-57th-Ave-Glendale-AZ-85302/7734719_zpid/,33.5681,-112.182,2017-11-16,2017-11-16
7415543,23760080,"5627 W Mission Ln, Glendale, AZ 85302 ",85302,0.6417799234390259,223900,https://www.zillow.com/homedetails/5627-W-Mission-Ln-Glendale-AZ-85302/7734682_zpid/,33.569,-112.18,2017-10-20,2017-10-20
9001633,23837695,"4038 W Laurel Ln, Phoenix, AZ 85029 ",85029,0.6417115569114685,214900,https://www.zillow.com/homedetails/4038-W-Laurel-Ln-Phoenix-AZ-85029/7744075_zpid/,33.5946,-112.147,2017-11-20,2017-11-20
481614,23813543,"2502 N 47th Ln, Phoenix, AZ 85035 ",85035,0.6414358794689179,131900,https://www.zillow.com/homedetails/2502-N-47th-Ln-Phoenix-AZ-85035/7499147_zpid/,33.4751,-112.162,2017-10-28,2017-10-28
409707,23564615,"4513 W Sunnyside Ave, Glendale, AZ 85304 ",85304,0.641259902715683,239900,https://www.zillow.com/homedetails/4513-W-Sunnyside-Ave-Glendale-AZ-85304/7726914_zpid/,33.5922,-112.156,2017-10-13,2017-10-13
9001785,23834299,"6614 W Weldon Ave, Phoenix, AZ 85033 ",85033,0.6410312294960022,149000,https://www.zillow.com/homedetails/6614-W-Weldon-Ave-Phoenix-AZ-85033/7489041_zpid/,33.4907,-112.20200000000001,2017-11-11,2017-11-11
409622,23825573,"4447 W Mercer Ln, Glendale, AZ 85304 ",85304,0.6409013032913208,227000,https://www.zillow.com/homedetails/4447-W-Mercer-Ln-Glendale-AZ-85304/7727953_zpid/,33.5852,-112.156,2017-11-13,2017-11-13
9021757,23840669,"9008 W Charleston Ave, Peoria, AZ 85382 ",85382,0.6407422423362732,244900,https://www.zillow.com/homedetails/9008-W-Charleston-Ave-Peoria-AZ-85382/8105059_zpid/,33.6467,-112.25299999999999,2017-11-17,2017-11-17
352697,23823583,"2111 E Beck Ln, Phoenix, AZ 85022 ",85022,0.640529066324234,210000,https://www.zillow.com/homedetails/2111-E-Beck-Ln-Phoenix-AZ-85022/8008032_zpid/,33.6277,-112.038,2017-11-07,2017-11-07
385542,23830819,"1634 W Andorra Dr, Phoenix, AZ 85029 ",85029,0.6405268847942353,243000,https://www.zillow.com/homedetails/1634-W-Andorra-Dr-Phoenix-AZ-85029/7784245_zpid/,33.6066,-112.095,2017-11-11,2017-11-11
9007274,23825244,"8426 W Bluefield Ave, Peoria, AZ 85382 ",85382,0.6404035806655883,199000,https://www.zillow.com/homedetails/8426-W-Bluefield-Ave-Peoria-AZ-85382/8129054_zpid/,33.6509,-112.241,2017-11-09,2017-11-09
447466,23853329,"8314 W Avalon Dr, Phoenix, AZ 85037 ",85037,0.640347546339035,184900,https://www.zillow.com/homedetails/8314-W-Avalon-Dr-Phoenix-AZ-85037/55257045_zpid/,33.4824,-112.23899999999999,2017-11-15,2017-11-15
1466622,23825709,"17462 N 92nd Ave, Peoria, AZ 85382 ",85382,0.6401224136352539,245000,https://www.zillow.com/homedetails/17462-N-92nd-Ave-Peoria-AZ-85382/95087683_zpid/,33.6427,-112.258,2017-11-13,2017-11-13
221019,23830912,"9232 N 14th St, Phoenix, AZ 85020 ",85020,0.6398376643657684,149900,https://www.zillow.com/homedetails/9232-N-14th-St-Phoenix-AZ-85020/7787085_zpid/,33.5706,-112.053,2017-11-09,2017-11-09
8987564,23814063,"14067 N 35th St, Phoenix, AZ 85032 ",85032,0.639763480424881,215000,https://www.zillow.com/homedetails/14067-N-35th-St-Phoenix-AZ-85032/8011904_zpid/,33.6149,-112.007,2017-10-29,2017-10-29
8959309,23803780,"4201 W Mission Ln, Phoenix, AZ 85051 ",85051,0.6387570798397064,219000,https://www.zillow.com/homedetails/4201-W-Mission-Ln-Phoenix-AZ-85051/7746195_zpid/,33.5703,-112.149,2017-10-19,2017-10-19
9018953,23821610,"1515 W Utopia Rd, Phoenix, AZ 85027 ",85027,0.6386963129043579,210000,https://www.zillow.com/homedetails/1515-W-Utopia-Rd-Phoenix-AZ-85027/7969635_zpid/,33.6617,-112.09200000000001,2017-11-05,2017-11-05
433199,23828411,"7230 W Turney Ave, Phoenix, AZ 85033 ",85033,0.6385756671428681,178900,https://www.zillow.com/homedetails/7230-W-Turney-Ave-Phoenix-AZ-85033/7711378_zpid/,33.5008,-112.215,2017-10-26,2017-10-26
9020195,23820290,"8638 W Laurel Ln, Peoria, AZ 85345 ",85345,0.6385491251945495,247700,https://www.zillow.com/homedetails/8638-W-Laurel-Ln-Peoria-AZ-85345/7685468_zpid/,33.5934,-112.245,2017-11-03,2017-11-03
478899,23821673,"1835 N 46th Ave, Phoenix, AZ 85035 ",85035,0.6383427143096924,155000,https://www.zillow.com/homedetails/1835-N-46th-Ave-Phoenix-AZ-85035/7495019_zpid/,33.4693,-112.15799999999999,2017-11-01,2017-11-01
240200,23815565,"17428 N 13th Ave, Phoenix, AZ 85023 ",85023,0.6383313477039337,225000,https://www.zillow.com/homedetails/17428-N-13th-Ave-Phoenix-AZ-85023/7963349_zpid/,33.6448,-112.089,2017-10-31,2017-10-31
469895,23526992,"3401 W Tuckey Ln, Phoenix, AZ 85017 ",85017,0.6375407457351685,169000,https://www.zillow.com/homedetails/3401-W-Tuckey-Ln-Phoenix-AZ-85017/7760733_zpid/,33.5332,-112.132,2017-10-11,2017-10-11
440855,23821789,"8208 W Fairmount Ave, Phoenix, AZ 85033 ",85033,0.637505030632019,159995,https://www.zillow.com/homedetails/8208-W-Fairmount-Ave-Phoenix-AZ-85033/7478788_zpid/,33.4907,-112.236,2017-11-03,2017-11-03
1109968,23827087,"1231 W Tulsa St, Chandler, AZ 85224 ",85224,0.6374837160110474,245000,https://www.zillow.com/homedetails/1231-W-Tulsa-St-Chandler-AZ-85224/8185626_zpid/,33.3123,-111.865,2017-11-11,2017-11-11
349796,23814409,"3702 W Tonto St, Phoenix, AZ 85009 ",85009,0.637269777059555,148800,https://www.zillow.com/homedetails/3702-W-Tonto-St-Phoenix-AZ-85009/7506279_zpid/,33.4394,-112.139,2017-10-29,2017-10-29
389548,23813548,"2610 W Corrine Dr, Phoenix, AZ 85029 ",85029,0.6371015310287476,189900,https://www.zillow.com/homedetails/2610-W-Corrine-Dr-Phoenix-AZ-85029/7748242_zpid/,33.601,-112.115,2017-10-26,2017-10-26
9023953,23835041,"3306 W Pierson St, Phoenix, AZ 85017 ",85017,0.6369743108749389,159000,https://www.zillow.com/homedetails/3306-W-Pierson-St-Phoenix-AZ-85017/7766533_zpid/,33.507,-112.13,2017-11-14,2017-11-14
454219,23822272,"4602 N 50th Dr, Phoenix, AZ 85031 ",85031,0.636880075931549,229900,https://www.zillow.com/homedetails/4602-N-50th-Dr-Phoenix-AZ-85031/7720623_zpid/,33.5044,-112.16799999999999,2017-11-06,2017-11-06
220117,23821501,"840 E Butler Dr, Phoenix, AZ 85020 ",85020,0.6368665397167206,249900,https://www.zillow.com/homedetails/840-E-Butler-Dr-Phoenix-AZ-85020/7789512_zpid/,33.5607,-112.06200000000001,2017-11-05,2017-11-05
392024,23756985,"4134 W Linger Ln, Phoenix, AZ 85051 ",85051,0.6361876487731933,235000,https://www.zillow.com/homedetails/4134-W-Linger-Ln-Phoenix-AZ-85051/7755387_zpid/,33.5528,-112.148,2017-10-19,2017-10-19
236870,23834077,"2935 W Port Royale Ln, Phoenix, AZ 85053 ",85053,0.6359231233596802,224999,https://www.zillow.com/homedetails/2935-W-Port-Royale-Ln-Phoenix-AZ-85053/7952708_zpid/,33.6219,-112.12200000000001,2017-11-14,2017-11-14
448532,23828597,"8415 W Granada Rd, Phoenix, AZ 85037 ",85037,0.6359005987644195,149900,https://www.zillow.com/homedetails/8415-W-Granada-Rd-Phoenix-AZ-85037/7487944_zpid/,33.4684,-112.241,2017-10-24,2017-10-24
502086,23820771,"3630 N 48th Ave, Phoenix, AZ 85031 ",85031,0.6357294619083405,199900,https://www.zillow.com/homedetails/3630-N-48th-Ave-Phoenix-AZ-85031/7508649_zpid/,33.4913,-112.163,2017-11-03,2017-11-03
388107,23830843,"3813 W Townley Ave, Phoenix, AZ 85051 ",85051,0.6354828715324402,225000,https://www.zillow.com/homedetails/3813-W-Townley-Ave-Phoenix-AZ-85051/7754216_zpid/,33.5645,-112.141,2017-11-10,2017-11-10
9021305,23830839,"3713 W Eva St, Phoenix, AZ 85051 ",85051,0.6354474902153016,218400,https://www.zillow.com/homedetails/3713-W-Eva-St-Phoenix-AZ-85051/7746745_zpid/,33.5705,-112.139,2017-11-14,2017-11-14
333549,23831460,"1415 W Cinnabar Ave, Phoenix, AZ 85021 ",85021,0.6349979758262634,215000,https://www.zillow.com/homedetails/1415-W-Cinnabar-Ave-Phoenix-AZ-85021/7781704_zpid/,33.5764,-112.09100000000001,2017-11-09,2017-11-09
9023880,23833725,"3454 E Libby St, Phoenix, AZ 85032 ",85032,0.6346615314483642,233000,https://www.zillow.com/homedetails/3454-E-Libby-St-Phoenix-AZ-85032/92349104_zpid/,33.6476,-112.005,2017-11-15,2017-11-15
432213,23839643,"6944 W Campbell Ave, Phoenix, AZ 85033 ",85033,0.6345812737941742,194900,https://www.zillow.com/homedetails/6944-W-Campbell-Ave-Phoenix-AZ-85033/7716997_zpid/,33.5026,-112.209,2017-11-09,2017-11-09
522141,23828650,"9008 W Roma Ave, Phoenix, AZ 85037 ",85037,0.634520810842514,164900,https://www.zillow.com/homedetails/9008-W-Roma-Ave-Phoenix-AZ-85037/7467364_zpid/,33.5003,-112.25299999999999,2017-11-02,2017-11-02
828576,23818644,"3555 W Coolidge St, Phoenix, AZ 85019 ",85019,0.6344496846199036,185900,https://www.zillow.com/homedetails/3555-W-Coolidge-St-Phoenix-AZ-85019/7506892_zpid/,33.5051,-112.13600000000001,2017-11-02,2017-11-02
379250,23806503,"2622 W Northview Ave, Phoenix, AZ 85051 ",85051,0.6338690757751465,169900,https://www.zillow.com/homedetails/2622-W-Northview-Ave-Phoenix-AZ-85051/7779483_zpid/,33.5439,-112.115,2017-10-25,2017-10-25
450587,23832013,"8735 W Catalina Dr, Phoenix, AZ 85037 ",85037,0.6335666656494141,164000,https://www.zillow.com/homedetails/8735-W-Catalina-Dr-Phoenix-AZ-85037/7479803_zpid/,33.4815,-112.24799999999999,2017-11-04,2017-11-04
336868,23820918,"2122 W Glendale Ave, Phoenix, AZ 85021 ",85021,0.6335544288158417,208400,https://www.zillow.com/homedetails/2122-W-Glendale-Ave-Phoenix-AZ-85021/7778952_zpid/,33.5389,-112.105,2017-11-03,2017-11-03
233478,23794869,"19046 N 15th Ave, Phoenix, AZ 85027 ",85027,0.6335222840309143,229900,https://www.zillow.com/homedetails/19046-N-15th-Ave-Phoenix-AZ-85027/7969522_zpid/,33.6598,-112.09200000000001,2017-10-22,2017-10-22
21687,23821796,"8810 N 6th Pl, Phoenix, AZ 85020 ",85020,0.633381474018097,200000,https://www.zillow.com/homedetails/8810-N-6th-Pl-Phoenix-AZ-85020/7793867_zpid/,33.5646,-112.066,2017-11-03,2017-11-03
9023848,23853058,"4413 N 67th Dr, Phoenix, AZ 85033 ",85033,0.6332823038101196,155000,https://www.zillow.com/homedetails/4413-N-67th-Dr-Phoenix-AZ-85033/7717116_zpid/,33.5007,-112.204,2017-11-15,2017-11-15
9023664,23829104,"3719 E Eugie Ave, Phoenix, AZ 85032 ",85032,0.6330960750579834,249000,https://www.zillow.com/homedetails/3719-E-Eugie-Ave-Phoenix-AZ-85032/7813758_zpid/,33.6096,-112.00200000000001,2017-11-12,2017-11-12
9023645,23828731,"7328 W Heatherbrae Dr, Phoenix, AZ 85033 ",85033,0.6329783141613007,174900,https://www.zillow.com/homedetails/7328-W-Heatherbrae-Dr-Phoenix-AZ-85033/7711026_zpid/,33.4977,-112.21700000000001,2017-11-06,2017-11-06
9023068,23823620,"15224 N 30th St, Phoenix, AZ 85032 ",85032,0.6326127588748932,229000,https://www.zillow.com/homedetails/15224-N-30th-St-Phoenix-AZ-85032/8011594_zpid/,33.6253,-112.01799999999999,2017-11-07,2017-11-07
9020420,23834264,"6001 W Indianola Ave, Phoenix, AZ 85033 ",85033,0.6325235009193421,176000,https://www.zillow.com/homedetails/6001-W-Indianola-Ave-Phoenix-AZ-85033/7496673_zpid/,33.4922,-112.189,2017-11-08,2017-11-08
9021845,23828309,"6123 W Indianola Ave, Phoenix, AZ 85033 ",85033,0.6325033962726593,184900,https://www.zillow.com/homedetails/6123-W-Indianola-Ave-Phoenix-AZ-85033/7496562_zpid/,33.4921,-112.19200000000001,2017-10-25,2017-10-25
390304,23830829,"3005 W Sierra St, Phoenix, AZ 85029 ",85029,0.6318302571773529,198750,https://www.zillow.com/homedetails/3005-W-Sierra-St-Phoenix-AZ-85029/7739931_zpid/,33.5915,-112.124,2017-11-09,2017-11-09
354125,22802972,"2231 E Everett Dr, Phoenix, AZ 85022 ",85022,0.6317469716072083,206900,https://www.zillow.com/homedetails/2231-E-Everett-Dr-Phoenix-AZ-85022/8014080_zpid/,33.6195,-112.03399999999999,2017-10-10,2017-10-10
435965,23838336,"2237 N 94th Ave, Phoenix, AZ 85037 ",85037,0.6316318392753602,229900,https://www.zillow.com/homedetails/2237-N-94th-Ave-Phoenix-AZ-85037/67773064_zpid/,33.4752,-112.26100000000001,2017-11-21,2017-11-21
234163,23837062,"1923 W Kristal Way, Phoenix, AZ 85027 ",85027,0.6314062416553498,220000,https://www.zillow.com/homedetails/1923-W-Kristal-Way-Phoenix-AZ-85027/7969934_zpid/,33.6606,-112.101,2017-11-16,2017-11-16
8998472,23817219,"6708 W Highland Ave, Phoenix, AZ 85033 ",85033,0.6304562985897064,168500,https://www.zillow.com/homedetails/6708-W-Highland-Ave-Phoenix-AZ-85033/7716706_zpid/,33.5065,-112.204,2017-11-01,2017-11-01
440945,23828568,"8220 W Trafalgar Ave, Phoenix, AZ 85033 ",85033,0.6301419138908386,190000,https://www.zillow.com/homedetails/8220-W-Trafalgar-Ave-Phoenix-AZ-85033/7478822_zpid/,33.4912,-112.236,2017-11-09,2017-11-09
555448,23821996,"2310 W Washington St, Phoenix, AZ 85009 ",85009,0.63009592294693,169900,https://www.zillow.com/homedetails/2310-W-Washington-St-Phoenix-AZ-85009/7515224_zpid/,33.4483,-112.109,2017-11-06,2017-11-06
1412767,23846610,"7238 W Ocotillo Rd, Glendale, AZ 85303 ",85303,0.6300855278968811,245000,https://www.zillow.com/homedetails/7238-W-Ocotillo-Rd-Glendale-AZ-85303/67800379_zpid/,33.5344,-112.215,2017-11-30,2017-11-30
454952,23752844,"4630 W Indianola Ave, Phoenix, AZ 85031 ",85031,0.6299886465072632,159000,https://www.zillow.com/homedetails/4630-W-Indianola-Ave-Phoenix-AZ-85031/7508079_zpid/,33.4927,-112.15899999999999,2017-10-15,2017-10-15
9023639,23828239,"3202 N 64th Dr, Phoenix, AZ 85033 ",85033,0.6299811184406281,193000,https://www.zillow.com/homedetails/3202-N-64th-Dr-Phoenix-AZ-85033/7498616_zpid/,33.4854,-112.199,2017-11-10,2017-11-10
9024363,23841767,"3147 N 77TH Ln, Phoenix, AZ 85033 ",85033,0.6297162294387817,154900,https://www.zillow.com/homedetails/3147-N-77th-Ln-Phoenix-AZ-85033/7469330_zpid/,33.4853,-112.226,2017-11-22,2017-11-22
9021060,23754387,"3522 W Michelle Dr, Glendale, AZ 85308 ",85308,0.6293944478034973,232500,https://www.zillow.com/homedetails/3522-W-Michelle-Dr-Glendale-AZ-85308/7947823_zpid/,33.6498,-112.135,2017-10-16,2017-10-16
335242,23814162,"6803 N 19th Dr, Phoenix, AZ 85015 ",85015,0.6293776214122773,159900,https://www.zillow.com/homedetails/6803-N-19th-Dr-Phoenix-AZ-85015/7773475_zpid/,33.5368,-112.1,2017-10-28,2017-10-28
328410,23830937,"2203 W Marlette Ave, Phoenix, AZ 85015 ",85015,0.6292451858520508,229900,https://www.zillow.com/homedetails/2203-W-Marlette-Ave-Phoenix-AZ-85015/7773094_zpid/,33.5291,-112.10600000000001,2017-11-13,2017-11-13
343418,23811515,"2029 W Wilshire Dr, Phoenix, AZ 85009 ",85009,0.6291661918163299,215000,https://www.zillow.com/homedetails/2029-W-Wilshire-Dr-Phoenix-AZ-85009/7519525_zpid/,33.476,-112.104,2017-10-28,2017-10-28
215717,23823649,"1509 E Mountain View Rd, Phoenix, AZ 85020 ",85020,0.6290278434753418,205000,https://www.zillow.com/homedetails/1509-E-Mountain-View-Rd-Phoenix-AZ-85020/7786813_zpid/,33.5746,-112.05,2017-11-08,2017-11-08
477121,23838363,"1623 N 77th Dr, Phoenix, AZ 85035 ",85035,0.6284478604793549,179000,https://www.zillow.com/homedetails/1623-N-77th-Dr-Phoenix-AZ-85035/81991207_zpid/,33.4664,-112.225,2017-11-20,2017-11-20
410753,23759090,"4934 W Becker Ln, Glendale, AZ 85304 ",85304,0.6282624542713166,238500,https://www.zillow.com/homedetails/4934-W-Becker-Ln-Glendale-AZ-85304/67083499_zpid/,33.5826,-112.166,2017-10-20,2017-10-20
9023142,23824279,"9820 N 90th Ln, Peoria, AZ 85345 ",85345,0.6281787693500519,205000,https://www.zillow.com/homedetails/9820-N-90th-Ln-Peoria-AZ-85345/7684197_zpid/,33.574,-112.255,2017-11-08,2017-11-08
8969572,23828388,"6331 W Whitton Ave, Phoenix, AZ 85033 ",85033,0.6279325366020203,126499,https://www.zillow.com/homedetails/6331-W-Whitton-Ave-Phoenix-AZ-85033/7489157_zpid/,33.4896,-112.196,2017-10-27,2017-10-27
501068,23853288,"7426 W Monte Vista Rd, Phoenix, AZ 85035 ",85035,0.627842926979065,155000,https://www.zillow.com/homedetails/7426-W-Monte-Vista-Rd-Phoenix-AZ-85035/7474922_zpid/,33.471,-112.22,2017-11-15,2017-11-15
41734,23815416,"637 N 69th Ave, Phoenix, AZ 85043 ",85043,0.6276773154735565,169900,https://www.zillow.com/homedetails/637-N-69th-Ave-Phoenix-AZ-85043/7476326_zpid/,33.4562,-112.208,2017-10-31,2017-10-31
832728,23830962,"4250 W Cavalier Dr, Phoenix, AZ 85019 ",85019,0.6275604128837585,188000,https://www.zillow.com/homedetails/4250-W-Cavalier-Dr-Phoenix-AZ-85019/7760522_zpid/,33.5263,-112.15100000000001,2017-11-14,2017-11-14
226063,23841398,"1510 E Taro Ln, Phoenix, AZ 85024 ",85024,0.6273980736732483,220000,https://www.zillow.com/homedetails/1510-E-Taro-Ln-Phoenix-AZ-85024/7995792_zpid/,33.6596,-112.04899999999999,2017-11-22,2017-11-22
227027,23824339,"1401 W Grovers Ave, Phoenix, AZ 85023 ",85023,0.6272685527801514,179990,https://www.zillow.com/homedetails/1401-W-Grovers-Ave-Phoenix-AZ-85023/7963298_zpid/,33.6472,-112.09100000000001,2017-11-09,2017-11-09
8996166,23838042,"8901 W Malapai Dr, Peoria, AZ 85345 ",85345,0.6271979331970214,194000,https://www.zillow.com/homedetails/8901-W-Malapai-Dr-Peoria-AZ-85345/7684242_zpid/,33.5749,-112.251,2017-11-16,2017-11-16
329115,23755232,"2335 W Campus Dr, Phoenix, AZ 85015 ",85015,0.6270400524139405,212800,https://www.zillow.com/homedetails/2335-W-Campus-Dr-Phoenix-AZ-85015/7518987_zpid/,33.484,-112.11,2017-10-17,2017-10-17
227625,23837409,"1412 W Villa Theresa Dr, Phoenix, AZ 85023 ",85023,0.6270058274269104,224900,https://www.zillow.com/homedetails/1412-W-Villa-Theresa-Dr-Phoenix-AZ-85023/7956817_zpid/,33.6543,-112.09100000000001,2017-11-20,2017-11-20
441252,23831710,"3001 N 86th Ln, Phoenix, AZ 85037 ",85037,0.62683966755867,227500,https://www.zillow.com/homedetails/3001-N-86th-Ln-Phoenix-AZ-85037/7480278_zpid/,33.4814,-112.245,2017-11-10,2017-11-10
9019057,23796416,"3122 N 63rd Ave, Phoenix, AZ 85033 ",85033,0.6267075538635254,160000,https://www.zillow.com/homedetails/3122-N-63rd-Ave-Phoenix-AZ-85033/7498587_zpid/,33.4849,-112.195,2017-10-23,2017-10-23
8952003,23825700,"11625 N 80th Dr, Peoria, AZ 85345 ",85345,0.6264726638793945,175000,https://www.zillow.com/homedetails/11625-N-80th-Dr-Peoria-AZ-85345/7681012_zpid/,33.5904,-112.23200000000001,2017-11-11,2017-11-11
9023680,23830959,"2112 W Cactus Wren Dr, Phoenix, AZ 85021 ",85021,0.6257729232311249,180000,https://www.zillow.com/homedetails/2112-W-Cactus-Wren-Dr-Phoenix-AZ-85021/7778988_zpid/,33.5396,-112.105,2017-11-14,2017-11-14
522232,23840964,"9009 W Windsor Ave, Phoenix, AZ 85037 ",85037,0.6257576107978821,193000,https://www.zillow.com/homedetails/9009-W-Windsor-Ave-Phoenix-AZ-85037/7474216_zpid/,33.4762,-112.25399999999999,2017-11-23,2017-11-23
8997758,23843208,"7132 W Cholla St, Peoria, AZ 85345 ",85345,0.6242679059505463,239000,https://www.zillow.com/homedetails/7132-W-Cholla-St-Peoria-AZ-85345/7700503_zpid/,33.5888,-112.213,2017-11-17,2017-11-17
640835,22743106,"622 W Portobello Ave, Mesa, AZ 85210 ",85210,0.6241091668605805,240000,https://www.zillow.com/homedetails/622-W-Portobello-Ave-Mesa-AZ-85210/8190949_zpid/,33.3608,-111.84700000000001,2017-10-06,2017-10-06
411159,23837722,"5131 W Corrine Dr, Glendale, AZ 85304 ",85304,0.6238072156906128,235000,https://www.zillow.com/homedetails/5131-W-Corrine-Dr-Glendale-AZ-85304/7911511_zpid/,33.6005,-112.171,2017-11-20,2017-11-20
1883226,23838013,"7717 W Wethersfield Rd, Peoria, AZ 85381 ",85381,0.6235799789428711,214900,https://www.zillow.com/homedetails/7717-W-Wethersfield-Rd-Peoria-AZ-85381/7913409_zpid/,33.5963,-112.225,2017-11-17,2017-11-17
9023662,23829114,"3222 E Roveen Ave, Phoenix, AZ 85032 ",85032,0.6233194947242737,220000,https://www.zillow.com/homedetails/3222-E-Roveen-Ave-Phoenix-AZ-85032/7819469_zpid/,33.6059,-112.012,2017-11-14,2017-11-14
455626,23813601,"4732 N 54th Dr, Phoenix, AZ 85031 ",85031,0.6232749223709106,169000,https://www.zillow.com/homedetails/4732-N-54th-Dr-Phoenix-AZ-85031/7713824_zpid/,33.5068,-112.177,2017-10-27,2017-10-27
9012867,23821644,"13235 N 31st Way, Phoenix, AZ 85032 ",85032,0.6231795907020569,239900,https://www.zillow.com/homedetails/13235-N-31st-Way-Phoenix-AZ-85032/50188569_zpid/,33.6073,-112.014,2017-11-01,2017-11-01
8992548,23569558,"4746 W Nicolet Ave, Glendale, AZ 85301 ",85301,0.6231779754161835,157900,https://www.zillow.com/homedetails/4746-W-Nicolet-Ave-Glendale-AZ-85301/7725721_zpid/,33.5426,-112.162,2017-10-13,2017-10-13
490976,23837976,"5531 W Edgemont Ave, Phoenix, AZ 85035 ",85035,0.6226636886596679,156999,https://www.zillow.com/homedetails/5531-W-Edgemont-Ave-Phoenix-AZ-85035/7491827_zpid/,33.4795,-112.179,2017-11-16,2017-11-16
353592,23843404,"7913 W Whyman Ave, Phoenix, AZ 85043 ",85043,0.6225416243076325,229900,https://www.zillow.com/homedetails/7913-W-Whyman-Ave-Phoenix-AZ-85043/23725365_zpid/,33.4271,-112.23100000000001,2017-11-29,2017-11-29
449105,23843274,"8515 W College Dr, Phoenix, AZ 85037 ",85037,0.6224340617656707,160750,https://www.zillow.com/homedetails/8515-W-College-Dr-Phoenix-AZ-85037/7483595_zpid/,33.5081,-112.243,2017-11-17,2017-11-17
395883,23835126,"3830 W Sharon Ave, Phoenix, AZ 85029 ",85029,0.6217545926570892,179900,https://www.zillow.com/homedetails/3830-W-Sharon-Ave-Phoenix-AZ-85029/7741516_zpid/,33.6095,-112.14200000000001,2017-11-17,2017-11-17
9023277,23826824,"2149 W 1st Pl, Mesa, AZ 85201 ",85201,0.6216416299343109,200000,https://www.zillow.com/homedetails/2149-W-1st-Pl-Mesa-AZ-85201/7610570_zpid/,33.4178,-111.87799999999999,2017-11-10,2017-11-10
9020041,23831664,"2528 E Blanche Dr, Phoenix, AZ 85032 ",85032,0.6215559720993042,249900,https://www.zillow.com/homedetails/2528-E-Blanche-Dr-Phoenix-AZ-85032/8013905_zpid/,33.6237,-112.027,2017-11-11,2017-11-11
440994,23821180,"8228 W Fairmount Ave, Phoenix, AZ 85033 ",85033,0.6213502168655396,167000,https://www.zillow.com/homedetails/8228-W-Fairmount-Ave-Phoenix-AZ-85033/7478785_zpid/,33.4907,-112.23700000000001,2017-11-04,2017-11-04
427431,23828376,"6026 W Cheery Lynn Rd, Phoenix, AZ 85033 ",85033,0.6208814978599548,175000,https://www.zillow.com/homedetails/6026-W-Cheery-Lynn-Rd-Phoenix-AZ-85033/7497968_zpid/,33.4849,-112.189,2017-11-09,2017-11-09
1885773,23853073,"4339 N 63rd Dr, Phoenix, AZ 85033 ",85033,0.6208624064922332,215000,https://www.zillow.com/homedetails/4339-N-63rd-Dr-Phoenix-AZ-85033/7717229_zpid/,33.5005,-112.196,2017-11-14,2017-11-14
397538,23846476,"4046 W Cactus Rd, Phoenix, AZ 85029 ",85029,0.6207658767700195,215000,https://www.zillow.com/homedetails/4046-W-Cactus-Rd-Phoenix-AZ-85029/7742480_zpid/,33.5968,-112.146,2017-11-29,2017-11-29
453594,23828247,"4510 N 56th Ave, Phoenix, AZ 85031 ",85031,0.6206806719303131,189000,https://www.zillow.com/homedetails/4510-N-56th-Ave-Phoenix-AZ-85031/7713627_zpid/,33.5028,-112.18,2017-11-09,2017-11-09
523313,23853404,"9025 W Mulberry Dr, Phoenix, AZ 85037 ",85037,0.6206551551818847,185000,https://www.zillow.com/homedetails/9025-W-Mulberry-Dr-Phoenix-AZ-85037/92351474_zpid/,33.486,-112.25399999999999,2017-11-17,2017-11-17
380026,23830832,"2815 W Echo Ln, Phoenix, AZ 85051 ",85051,0.6204127311706543,179900,https://www.zillow.com/homedetails/2815-W-Echo-Ln-Phoenix-AZ-85051/7750984_zpid/,33.5592,-112.12,2017-11-14,2017-11-14
238285,23837083,"3015 W Villa Rita Dr, Phoenix, AZ 85053 ",85053,0.6202602386474609,225000,https://www.zillow.com/homedetails/3015-W-Villa-Rita-Dr-Phoenix-AZ-85053/7940712_zpid/,33.65,-112.124,2017-11-16,2017-11-16
455748,23815976,"4741 N 53rd Ave, Phoenix, AZ 85031 ",85031,0.6195047318935394,189500,https://www.zillow.com/homedetails/4741-N-53rd-Ave-Phoenix-AZ-85031/7712648_zpid/,33.5074,-112.17299999999999,2017-10-30,2017-10-30
9023081,23823763,"7727 W Julie Dr, Glendale, AZ 85308 ",85308,0.6192076981067658,185000,https://www.zillow.com/homedetails/7727-W-Julie-Dr-Glendale-AZ-85308/7891914_zpid/,33.6539,-112.226,2017-11-06,2017-11-06
8992552,23527037,"6029 W Mary Jane Ln, Glendale, AZ 85306 ",85306,0.6182131350040436,239000,https://www.zillow.com/homedetails/6029-W-Mary-Jane-Ln-Glendale-AZ-85306/8097193_zpid/,33.6273,-112.189,2017-10-11,2017-10-11
378956,23753283,"11206 N 37th Ave, Phoenix, AZ 85029 ",85029,0.6175683259963989,224900,https://www.zillow.com/homedetails/11206-N-37th-Ave-Phoenix-AZ-85029/7743882_zpid/,33.5877,-112.139,2017-10-11,2017-10-11
380897,23810921,"2920 W Townley Ave, Phoenix, AZ 85051 ",85051,0.6171161711215973,155000,https://www.zillow.com/homedetails/2920-W-Townley-Ave-Phoenix-AZ-85051/7750513_zpid/,33.5653,-112.12200000000001,2017-10-27,2017-10-27
339837,23825426,"15615 N 23rd Pl, Phoenix, AZ 85022 ",85022,0.6167849838733673,189500,https://www.zillow.com/homedetails/15615-N-23rd-Pl-Phoenix-AZ-85022/55267932_zpid/,33.6285,-112.03200000000001,2017-11-09,2017-11-09
830040,23835035,"3735 W Cavalier Dr, Phoenix, AZ 85019 ",85019,0.6165848195552825,189900,https://www.zillow.com/homedetails/3735-W-Cavalier-Dr-Phoenix-AZ-85019/7758958_zpid/,33.525999999999996,-112.14,2017-11-16,2017-11-16
342843,23840815,"1701 S 65th Dr, Phoenix, AZ 85043 ",85043,0.6164135962724686,176000,https://www.zillow.com/homedetails/1701-S-65th-Dr-Phoenix-AZ-85043/52621334_zpid/,33.4331,-112.2,2017-11-24,2017-11-24
326650,23796634,"1822 W Turney Ave, Phoenix, AZ 85015 ",85015,0.6158758640289307,199900,https://www.zillow.com/homedetails/1822-W-Turney-Ave-Phoenix-AZ-85015/7772298_zpid/,33.5007,-112.09899999999999,2017-10-23,2017-10-23
221514,23819824,"9826 N 1st St, Phoenix, AZ 85020 ",85020,0.6155631005764007,229890,https://www.zillow.com/homedetails/9826-N-1st-St-Phoenix-AZ-85020/7788481_zpid/,33.5762,-112.073,2017-11-03,2017-11-03
9023689,23831075,"5604 W Grovers Ave, Glendale, AZ 85308 ",85308,0.6153272032737732,195000,https://www.zillow.com/homedetails/5604-W-Grovers-Ave-Glendale-AZ-85308/7900778_zpid/,33.6469,-112.18,2017-11-09,2017-11-09
9020722,23840670,"8826 W Diana Ave, Peoria, AZ 85345 ",85345,0.6151171445846557,212500,https://www.zillow.com/homedetails/8826-W-Diana-Ave-Peoria-AZ-85345/7683842_zpid/,33.5613,-112.25,2017-11-17,2017-11-17
9022258,23835030,"3023 W Krall St, Phoenix, AZ 85017 ",85017,0.6145765542984009,249900,https://www.zillow.com/homedetails/3023-W-Krall-St-Phoenix-AZ-85017/7759497_zpid/,33.534,-112.125,2017-11-17,2017-11-17
1416084,23849882,"7583 W Krall St, Glendale, AZ 85303 ",85303,0.6142845332622529,220000,https://www.zillow.com/homedetails/7583-W-Krall-St-Glendale-AZ-85303/7463213_zpid/,33.5346,-112.22200000000001,2017-12-07,2017-12-07
1347860,22924091,"5172 W Morten Ave, Glendale, AZ 85301 ",85301,0.6141524136066436,239000,https://www.zillow.com/homedetails/5172-W-Morten-Ave-Glendale-AZ-85301/52425448_zpid/,33.5473,-112.17,2017-10-10,2017-10-10
1354557,23800556,"6504 N 61st Ave, Glendale, AZ 85301 ",85301,0.6141084671020508,125000,https://www.zillow.com/homedetails/6504-N-61st-Ave-Glendale-AZ-85301/7707995_zpid/,33.5315,-112.191,2017-10-24,2017-10-24
312249,23814876,"1433 S 14th Ave, Phoenix, AZ 85007 ",85007,0.6141043901443481,174900,https://www.zillow.com/homedetails/1433-S-14th-Ave-Phoenix-AZ-85007/7500688_zpid/,33.4338,-112.09,2017-10-29,2017-10-29
527842,23846678,"9515 W Monte Vista Rd, Phoenix, AZ 85037 ",85037,0.6140288889408112,226000,https://www.zillow.com/homedetails/9515-W-Monte-Vista-Rd-Phoenix-AZ-85037/60974977_zpid/,33.4699,-112.265,2017-11-30,2017-11-30
482075,23837218,"2525 N 61st Dr, Phoenix, AZ 85035 ",85035,0.6132913053035736,159900,https://www.zillow.com/homedetails/2525-N-61st-Dr-Phoenix-AZ-85035/7491502_zpid/,33.4755,-112.19200000000001,2017-11-18,2017-11-18
454353,23828267,"4611 N 49th Ave, Phoenix, AZ 85031 ",85031,0.6132355511188508,155000,https://www.zillow.com/homedetails/4611-N-49th-Ave-Phoenix-AZ-85031/7720499_zpid/,33.5047,-112.164,2017-11-09,2017-11-09
9021799,23827252,"13014 N Lakeforest Dr, Sun City, AZ 85351 ",85351,0.6130494564771652,240079,https://www.zillow.com/homedetails/13014-N-Lakeforest-Dr-Sun-City-AZ-85351/8095961_zpid/,33.6035,-112.26899999999999,2017-11-11,2017-11-11
9023846,23852947,"3711 W Catalina Dr, Phoenix, AZ 85019 ",85019,0.6129296302795411,169900,https://www.zillow.com/homedetails/3711-W-Catalina-Dr-Phoenix-AZ-85019/7507461_zpid/,33.4821,-112.139,2017-11-15,2017-11-15
9023935,23834938,"18241 N 31st St, Phoenix, AZ 85032 ",85032,0.6120446443557739,225000,https://www.zillow.com/homedetails/18241-N-31st-St-Phoenix-AZ-85032/7999264_zpid/,33.6531,-112.016,2017-11-17,2017-11-17
359603,23846101,"2538 S 88th Ln, Tolleson, AZ 85353 ",85353,0.6120217919349671,199900,https://www.zillow.com/homedetails/2538-S-88th-Ln-Tolleson-AZ-85353/67772866_zpid/,33.4242,-112.251,2017-12-01,2017-12-01
483037,23837219,"2614 N 46th Ave, Phoenix, AZ 85035 ",85035,0.6119583487510681,170000,https://www.zillow.com/homedetails/2614-N-46th-Ave-Phoenix-AZ-85035/7499348_zpid/,33.4774,-112.15799999999999,2017-11-16,2017-11-16
7419652,23752910,"4450 N 37TH Ave, Phoenix, AZ 85019 ",85019,0.6118826329708099,240000,https://www.zillow.com/homedetails/4450-N-37TH-Ave-Phoenix-AZ-85019/95137035_zpid/,33.5016,-112.139,2017-10-15,2017-10-15
319525,23824915,"2238 N 22nd St, Phoenix, AZ 85006 ",85006,0.6118593037128448,249900,https://www.zillow.com/homedetails/2238-N-22nd-St-Phoenix-AZ-85006/7531630_zpid/,33.4726,-112.035,2017-11-09,2017-11-09
9024435,23852960,"3638 N 72nd Ln, Phoenix, AZ 85033 ",85033,0.6117838323116302,159500,https://www.zillow.com/homedetails/3638-N-72nd-Ln-Phoenix-AZ-85033/7468943_zpid/,33.4909,-112.21600000000001,2017-11-28,2017-11-28
527019,22747540,"9424 W Pierson St, Phoenix, AZ 85037 ",85037,0.6116190969944,212000,https://www.zillow.com/homedetails/9424-W-Pierson-St-Phoenix-AZ-85037/52423672_zpid/,33.5071,-112.26299999999999,2017-10-10,2017-10-10
9024609,23847387,"18048 N 50th Ave, Glendale, AZ 85308 ",85308,0.6114067524671555,220000,https://www.zillow.com/homedetails/18048-N-50th-Ave-Glendale-AZ-85308/67085136_zpid/,33.6505,-112.169,2017-12-04,2017-12-04
9023241,23843236,"7710 W Cheryl Dr, Peoria, AZ 85345 ",85345,0.6111376762390137,194900,https://www.zillow.com/homedetails/7710-W-Cheryl-Dr-Peoria-AZ-85345/7682371_zpid/,33.5776,-112.225,2017-11-26,2017-11-26
559806,23849557,"1320 W Pecos Ave, Mesa, AZ 85202 ",85202,0.610751074552536,235000,https://www.zillow.com/homedetails/1320-W-Pecos-Ave-Mesa-AZ-85202/8171833_zpid/,33.36,-111.861,2017-12-07,2017-12-07
9022191,23824622,"3728 E Yale St, Phoenix, AZ 85008 ",85008,0.6103169977664947,239999,https://www.zillow.com/homedetails/3728-E-Yale-St-Phoenix-AZ-85008/7541377_zpid/,33.4759,-112.00399999999999,2017-11-09,2017-11-09
422815,23843266,"8324 N 56th Ln, Glendale, AZ 85302 ",85302,0.6098743140697479,240000,https://www.zillow.com/homedetails/8324-N-56th-Ln-Glendale-AZ-85302/7732897_zpid/,33.5576,-112.181,2017-11-28,2017-11-28
1880865,23823728,"6344 W Tuckey Ln, Glendale, AZ 85301 ",85301,0.609848701953888,199900,https://www.zillow.com/homedetails/6344-W-Tuckey-Ln-Glendale-AZ-85301/7708037_zpid/,33.5341,-112.197,2017-11-08,2017-11-08
976591,23840164,"803 N Laveen Dr, Chandler, AZ 85226 ",85226,0.6097472310066223,240000,https://www.zillow.com/homedetails/803-N-Laveen-Dr-Chandler-AZ-85226/8264997_zpid/,33.3165,-111.91,2017-11-22,2017-11-22
8950821,23840949,"7245 W Brown St, Peoria, AZ 85345 ",85345,0.6096546888351441,199999,https://www.zillow.com/homedetails/7245-W-Brown-St-Peoria-AZ-85345/7701411_zpid/,33.5771,-112.215,2017-11-24,2017-11-24
1412890,23846613,"7253 W Aurelius Ave, Glendale, AZ 85303 ",85303,0.6094774007797241,219900,https://www.zillow.com/homedetails/7253-W-Aurelius-Ave-Glendale-AZ-85303/95170805_zpid/,33.5399,-112.214,2017-11-30,2017-11-30
9021304,23756946,"2800 E Danbury Rd, Phoenix, AZ 85032 ",85032,0.6094629466533661,185000,https://www.zillow.com/homedetails/2800-E-Danbury-Rd-Phoenix-AZ-85032/7999387_zpid/,33.6418,-112.022,2017-10-19,2017-10-19
9023655,23829023,"14631 N 36th St, Phoenix, AZ 85032 ",85032,0.6094070672988892,214000,https://www.zillow.com/homedetails/14631-N-36th-St-Phoenix-AZ-85032/8013016_zpid/,33.6203,-112.00399999999999,2017-11-12,2017-11-12
246567,22745687,"3407 W Port Au Prince Ln, Phoenix, AZ 85053 ",85053,0.6090821623802185,175000,https://www.zillow.com/homedetails/3407-W-Port-Au-Prince-Ln-Phoenix-AZ-85053/7943671_zpid/,33.6229,-112.132,2017-10-09,2017-10-09
9023942,23834986,"3552 E Le Marche Ave, Phoenix, AZ 85032 ",85032,0.608837366104126,205000,https://www.zillow.com/homedetails/3552-E-Le-Marche-Ave-Phoenix-AZ-85032/8007139_zpid/,33.6329,-112.005,2017-11-17,2017-11-17
450315,23853354,"8717 W Windsor Ave, Phoenix, AZ 85037 ",85037,0.6087391912937165,197000,https://www.zillow.com/homedetails/8717-W-Windsor-Ave-Phoenix-AZ-85037/7473659_zpid/,33.4777,-112.24799999999999,2017-11-22,2017-11-22
436097,23849120,"2311 N 91st Gln, Phoenix, AZ 85037 ",85037,0.6085409492254257,225150,https://www.zillow.com/homedetails/2311-N-91st-Gln-Phoenix-AZ-85037/60974969_zpid/,33.4747,-112.257,2017-12-06,2017-12-06
831005,23835037,"3920 W Krall St, Phoenix, AZ 85019 ",85019,0.6083271920680999,159900,https://www.zillow.com/homedetails/3920-W-Krall-St-Phoenix-AZ-85019/7762416_zpid/,33.5343,-112.14399999999999,2017-11-16,2017-11-16
225855,23847348,"1461 E Renee Dr, Phoenix, AZ 85024 ",85024,0.6082823038101196,249000,https://www.zillow.com/homedetails/1461-E-Renee-Dr-Phoenix-AZ-85024/7996071_zpid/,33.6554,-112.05,2017-12-02,2017-12-02
470397,23842202,"3425 W Citrus Way, Phoenix, AZ 85017 ",85017,0.6078219413757324,147000,https://www.zillow.com/homedetails/3425-W-Citrus-Way-Phoenix-AZ-85017/7758679_zpid/,33.5297,-112.133,2017-11-27,2017-11-27
403477,23842141,"12447 N 50th Ln, Glendale, AZ 85304 ",85304,0.60751513838768,209900,https://www.zillow.com/homedetails/12447-N-50th-Ln-Glendale-AZ-85304/7954648_zpid/,33.5997,-112.16799999999999,2017-11-27,2017-11-27
