property_id,transaction_id,address,zipcode,any_sell,good_sell,bayesian,list,url,lat,long,date_listed,transaction_date
353592,23843404,"7913 W Whyman Ave, Phoenix, AZ 85043 ",85043,0.902577817440033,0.9350740909576416,0.843977132161271,229900,https://www.zillow.com/homedetails/7913-W-Whyman-Ave-Phoenix-AZ-85043/23725365_zpid/,33.4271,-112.23100000000001,6542,2017-11-29
434601,23841755,"1838 N 83rd Ln, Phoenix, AZ 85037 ",85037,0.8931603729724884,0.9202859401702881,0.8219629335638317,195000,https://www.zillow.com/homedetails/1838-N-83rd-Ln-Phoenix-AZ-85037/7487940_zpid/,33.4683,-112.24,6536,2017-11-23
342843,23840815,"1701 S 65th Dr, Phoenix, AZ 85043 ",85043,0.8931915760040283,0.9190003275871277,0.8208433509457649,176000,https://www.zillow.com/homedetails/1701-S-65th-Dr-Phoenix-AZ-85043/52621334_zpid/,33.4331,-112.2,6537,2017-11-24
415297,23835189,"10114 N 66th Ln, Glendale, AZ 85302 ",85302,0.8961333632469177,0.9113222062587738,0.8166662336962762,197500,https://www.zillow.com/homedetails/10114-N-66th-Ln-Glendale-AZ-85302/67083300_zpid/,33.5779,-112.20299999999999,6528,2017-11-15
255668,23837407,"412 W Sandra Ter, Phoenix, AZ 85023 ",85023,0.9021049737930298,0.9052278399467468,0.816610536831881,229999,https://www.zillow.com/homedetails/412-W-Sandra-Ter-Phoenix-AZ-85023/7965434_zpid/,33.6344,-112.08,6533,2017-11-20
1421352,23835289,"8016 W Sierra Vista Dr, Glendale, AZ 85303 ",85303,0.8952364921569824,0.9095184504985809,0.8142341071764037,235000,https://www.zillow.com/homedetails/8016-W-Sierra-Vista-Dr-Glendale-AZ-85303/7462651_zpid/,33.5314,-112.23299999999999,6528,2017-11-15
1409866,23835277,"7017 N 77th Dr, Glendale, AZ 85303 ",85303,0.8953952491283417,0.9066124558448792,0.8117764857640832,215000,https://www.zillow.com/homedetails/7017-N-77th-Dr-Glendale-AZ-85303/55260208_zpid/,33.5385,-112.225,6529,2017-11-16
976591,23840164,"803 N Laveen Dr, Chandler, AZ 85226 ",85226,0.8849484622478485,0.9125836789608002,0.8075895233688444,240000,https://www.zillow.com/homedetails/803-N-Laveen-Dr-Chandler-AZ-85226/8264997_zpid/,33.3165,-111.91,6535,2017-11-22
445578,23843131,"4653 N 99th Dr, Phoenix, AZ 85037 ",85037,0.9011220037937164,0.8955467939376831,0.8069969214441635,200000,https://www.zillow.com/homedetails/4653-N-99th-Dr-Phoenix-AZ-85037/7484444_zpid/,33.5037,-112.273,6534,2017-11-21
434776,23840609,"7725 W Clayton Dr, Phoenix, AZ 85033 ",85033,0.8919771015644073,0.90470290184021,0.806974272160339,177999,https://www.zillow.com/homedetails/7725-W-Clayton-Dr-Phoenix-AZ-85033/7482121_zpid/,33.5014,-112.227,6535,2017-11-22
447466,23853329,"8314 W Avalon Dr, Phoenix, AZ 85037 ",85037,0.8955696523189545,0.9006673395633698,0.8066103361478048,184900,https://www.zillow.com/homedetails/8314-W-Avalon-Dr-Phoenix-AZ-85037/55257045_zpid/,33.4824,-112.23899999999999,6528,2017-11-15
230822,23837058,"19206 N 4th St, Phoenix, AZ 85024 ",85024,0.8997174203395844,0.895340085029602,0.8055530716294577,225000,https://www.zillow.com/homedetails/19206-N-4th-St-Phoenix-AZ-85024/7972304_zpid/,33.6605,-112.07,6529,2017-11-16
9024486,23843769,"6743 W Roma Ave, Phoenix, AZ 85033 ",85033,0.8954136669635773,0.8995353281497955,0.8054562267418932,135000,https://www.zillow.com/homedetails/6743-W-Roma-Ave-Phoenix-AZ-85033/7717104_zpid/,33.5015,-112.205,6542,2017-11-29
9004345,23843195,"6818 W Highland Ave, Phoenix, AZ 85033 ",85033,0.8944949507713318,0.9003689587116241,0.8053754873987895,179900,https://www.zillow.com/homedetails/6818-W-Highland-Ave-Phoenix-AZ-85033/7716694_zpid/,33.5063,-112.206,6541,2017-11-28
434089,23853304,"7601 W Earll Dr, Phoenix, AZ 85033 ",85033,0.8844951093196869,0.9077726900577545,0.8029205047300598,165000,https://www.zillow.com/homedetails/7601-W-Earll-Dr-Phoenix-AZ-85033/7469553_zpid/,33.4836,-112.22200000000001,6534,2017-11-21
9024363,23841767,"3147 N 77TH Ln, Phoenix, AZ 85033 ",85033,0.8840527236461639,0.9072341024875641,0.8020427792888141,154900,https://www.zillow.com/homedetails/3147-N-77th-Ln-Phoenix-AZ-85033/7469330_zpid/,33.4853,-112.226,6535,2017-11-22
1372616,23837733,"8549 W Tuckey Ln, Glendale, AZ 85305 ",85305,0.890932023525238,0.899910569190979,0.8017591444010677,206000,https://www.zillow.com/homedetails/8549-W-Tuckey-Ln-Glendale-AZ-85305/7461499_zpid/,33.533,-112.245,6532,2017-11-19
1373662,23843286,"8771 W Ocotillo Rd, Glendale, AZ 85305 ",85305,0.8953857421875,0.8954183459281921,0.8017448202372179,185000,https://www.zillow.com/homedetails/8771-W-Ocotillo-Rd-Glendale-AZ-85305/7461673_zpid/,33.5332,-112.25,6540,2017-11-27
501068,23853288,"7426 W Monte Vista Rd, Phoenix, AZ 85035 ",85035,0.8892466127872467,0.9014017283916473,0.8015684337328421,155000,https://www.zillow.com/homedetails/7426-W-Monte-Vista-Rd-Phoenix-AZ-85035/7474922_zpid/,33.471,-112.22,6528,2017-11-15
8984109,23843223,"7426 W Carol Ave, Peoria, AZ 85345 ",85345,0.8859148621559143,0.9042460322380066,0.801084999005166,195000,https://www.zillow.com/homedetails/7426-W-Carol-Ave-Peoria-AZ-85345/7702134_zpid/,33.5726,-112.219,6537,2017-11-24
352271,23842122,"6938 W Villa St, Phoenix, AZ 85043 ",85043,0.8825771510601044,0.9073079228401184,0.8007692416744927,165000,https://www.zillow.com/homedetails/6938-W-Villa-St-Phoenix-AZ-85043/7476296_zpid/,33.455999999999996,-112.209,6540,2017-11-27
411159,23837722,"5131 W Corrine Dr, Glendale, AZ 85304 ",85304,0.8902222812175751,0.8992942869663239,0.8005718116290934,235000,https://www.zillow.com/homedetails/5131-W-Corrine-Dr-Glendale-AZ-85304/7911511_zpid/,33.6005,-112.171,6533,2017-11-20
448988,23831998,"8504 W College Dr, Phoenix, AZ 85037 ",85037,0.8696715235710144,0.9192757904529572,0.7994679772651718,184900,https://www.zillow.com/homedetails/8504-W-College-Dr-Phoenix-AZ-85037/7483600_zpid/,33.5084,-112.243,6526,2017-11-13
9024040,23847794,"2215 S 99th Ln, Tolleson, AZ 85353 ",85353,0.8581047058105469,0.9316432476043701,0.7994474549059305,224000,https://www.zillow.com/homedetails/2215-S-99th-Ln-Tolleson-AZ-85353/95076703_zpid/,33.4261,-112.273,6547,2017-12-04
403477,23842141,"12447 N 50th Ln, Glendale, AZ 85304 ",85304,0.8902222812175751,0.8974266350269318,0.7989091862590874,209900,https://www.zillow.com/homedetails/12447-N-50th-Ln-Glendale-AZ-85304/7954648_zpid/,33.5997,-112.16799999999999,6540,2017-11-27
433435,23843217,"7318 W Glenrosa Ave, Phoenix, AZ 85033 ",85033,0.8933117389678955,0.8936581909656525,0.7983153526144307,154999,https://www.zillow.com/homedetails/7318-W-Glenrosa-Ave-Phoenix-AZ-85033/7711188_zpid/,33.4994,-112.21700000000001,6541,2017-11-28
359281,23846977,"2013 S 86th Ave, Tolleson, AZ 85353 ",85353,0.8621242940425873,0.9256714582443237,0.7980438524542599,215000,https://www.zillow.com/homedetails/2013-S-86th-Ave-Tolleson-AZ-85353/59271375_zpid/,33.4287,-112.244,6546,2017-12-03
1091154,23858452,"668 W Shawnee Dr, Chandler, AZ 85225 ",85225,0.8825198113918304,0.9023702144622803,0.7963595914728572,239900,https://www.zillow.com/homedetails/668-W-Shawnee-Dr-Chandler-AZ-85225/8200509_zpid/,33.3448,-111.852,6535,2017-11-22
8996051,23841761,"3410 N 67TH Dr, Phoenix, AZ 85033 ",85033,0.8908831477165222,0.8937444984912872,0.7962219120702425,220000,https://www.zillow.com/homedetails/3410-N-67th-Dr-Phoenix-AZ-85033/7485764_zpid/,33.4878,-112.204,6537,2017-11-24
525075,23853525,"9142 W Palm Ln, Phoenix, AZ 85037 ",85037,0.8617172539234161,0.9238986372947693,0.7961393966332349,204000,https://www.zillow.com/homedetails/9142-W-Palm-Ln-Phoenix-AZ-85037/60047154_zpid/,33.4689,-112.257,6548,2017-12-05
404082,23831516,"16245 N 43rd Dr, Glendale, AZ 85306 ",85306,0.9016741812229156,0.8824979066848755,0.7957255774410221,244900,https://www.zillow.com/homedetails/16245-N-43rd-Dr-Glendale-AZ-85306/7950704_zpid/,33.6339,-112.152,6527,2017-11-14
9019224,23831968,"8005 W Shaw Butte Dr, Peoria, AZ 85345 ",85345,0.8830085098743439,0.9009286165237427,0.7955276351797842,225500,https://www.zillow.com/homedetails/8005-W-Shaw-Butte-Dr-Peoria-AZ-85345/7680677_zpid/,33.5951,-112.23100000000001,6527,2017-11-14
527415,23853531,"9437 W Terri Lee Dr, Phoenix, AZ 85037 ",85037,0.8829619884490967,0.9009031653404236,0.7954632502690657,205000,https://www.zillow.com/homedetails/9437-W-Terri-Lee-Dr-Phoenix-AZ-85037/67764458_zpid/,33.4667,-112.264,6539,2017-11-26
42777,23846103,"7112 W Watkins St, Phoenix, AZ 85043 ",85043,0.8597180247306824,0.9252485036849976,0.7954528159730856,205000,https://www.zillow.com/homedetails/7112-W-Watkins-St-Phoenix-AZ-85043/52424087_zpid/,33.4264,-112.213,6543,2017-11-30
9026004,23861172,"7312 W Eugie Ave, Peoria, AZ 85381 ",85381,0.8997186720371246,0.8835470080375671,0.7949437407539346,195000,https://www.zillow.com/homedetails/7312-W-Eugie-Ave-Peoria-AZ-85381/7925183_zpid/,33.6082,-112.21600000000001,6531,2017-11-18
435965,23838336,"2237 N 94th Ave, Phoenix, AZ 85037 ",85037,0.8822341561317444,0.9002650678157806,0.7942445923993429,229900,https://www.zillow.com/homedetails/2237-N-94th-Ave-Phoenix-AZ-85037/67773064_zpid/,33.4752,-112.26100000000001,6534,2017-11-21
1410407,23835273,"7080 W Glenn Dr, Glendale, AZ 85303 ",85303,0.8973086476325989,0.8845668733119965,0.793729504832184,234900,https://www.zillow.com/homedetails/7080-W-Glenn-Dr-Glendale-AZ-85303/55173602_zpid/,33.5399,-112.211,6528,2017-11-15
9022517,23843319,"9918 W Oakstone Dr, Sun City, AZ 85351 ",85351,0.890403687953949,0.8912399113178253,0.7935633038891421,205000,https://www.zillow.com/homedetails/9918-W-Oakstone-Dr-Sun-City-AZ-85351/7907984_zpid/,33.6152,-112.26899999999999,6541,2017-11-28
460344,23843171,"5811 W Cheery Lynn Rd, Phoenix, AZ 85031 ",85031,0.8827147781848907,0.8984066247940063,0.7930368045248777,139900,https://www.zillow.com/homedetails/5811-W-Cheery-Lynn-Rd-Phoenix-AZ-85031/7497530_zpid/,33.4852,-112.184,6541,2017-11-28
9005709,23843235,"7738 W Monterey Way, Phoenix, AZ 85033 ",85033,0.8866999745368958,0.894280344247818,0.7929583584733866,161000,https://www.zillow.com/homedetails/7738-W-Monterey-Way-Phoenix-AZ-85033/7469325_zpid/,33.4849,-112.226,6540,2017-11-27
342960,23847789,"1722 S 64th Ave, Phoenix, AZ 85043 ",85043,0.8605321049690247,0.9205396771430969,0.7921539460794556,175000,https://www.zillow.com/homedetails/1722-S-64th-Ave-Phoenix-AZ-85043/55257220_zpid/,33.4323,-112.198,6548,2017-12-05
9025900,23860183,"7635 W Desert Cove Ave, Peoria, AZ 85345 ",85345,0.8860061168670654,0.8940116763114929,0.7920998137625617,178000,https://www.zillow.com/homedetails/7635-W-Desert-Cove-Ave-Peoria-AZ-85345/7681678_zpid/,33.5849,-112.22399999999999,6537,2017-11-24
470397,23842202,"3425 W Citrus Way, Phoenix, AZ 85017 ",85017,0.8825146853923798,0.8959939181804657,0.7907277908165193,147000,https://www.zillow.com/homedetails/3425-W-Citrus-Way-Phoenix-AZ-85017/7758679_zpid/,33.5297,-112.133,6540,2017-11-27
422210,23835261,"6538 W Vogel Ave, Glendale, AZ 85302 ",85302,0.8831431567668915,0.8951741755008698,0.7905669472080374,209000,https://www.zillow.com/homedetails/6538-W-Vogel-Ave-Glendale-AZ-85302/7703283_zpid/,33.5724,-112.20100000000001,6529,2017-11-16
359220,23854837,"1816 S 84th Dr, Tolleson, AZ 85353 ",85353,0.8629469275474548,0.9157209992408752,0.7902186227855985,225000,https://www.zillow.com/homedetails/1816-S-84th-Dr-Tolleson-AZ-85353/59249294_zpid/,33.4304,-112.241,6557,2017-12-14
424042,23835298,"9015 N 57th Ave, Glendale, AZ 85302 ",85302,0.8816471993923187,0.8962534666061401,0.7901793587789605,205000,https://www.zillow.com/homedetails/9015-N-57th-Ave-Glendale-AZ-85302/7734719_zpid/,33.5681,-112.182,6529,2017-11-16
9024556,23846751,"8422 W Sonora St, Tolleson, AZ 85353 ",85353,0.8596707582473755,0.9183200895786285,0.7894529277218574,183000,https://www.zillow.com/homedetails/8422-W-Sonora-St-Tolleson-AZ-85353/57688731_zpid/,33.4336,-112.243,6545,2017-12-02
244451,23841407,"1933 W Davis Rd, Phoenix, AZ 85023 ",85023,0.8947775065898895,0.8818626403808594,0.7890708545147618,200000,https://www.zillow.com/homedetails/1933-W-Davis-Rd-Phoenix-AZ-85023/81995109_zpid/,33.6318,-112.101,6537,2017-11-24
832330,23845531,"4148 W Maryland Ave, Phoenix, AZ 85019 ",85019,0.879768043756485,0.8961694240570068,0.7884212210770087,178500,https://www.zillow.com/homedetails/4148-W-Maryland-Ave-Phoenix-AZ-85019/7762142_zpid/,33.5312,-112.149,6541,2017-11-28
433071,23853324,"7217 W Sunderland Ave, Phoenix, AZ 85033 ",85033,0.8619271814823151,0.914564847946167,0.7882883016730418,182000,https://www.zillow.com/homedetails/7217-W-Sunderland-Ave-Phoenix-AZ-85033/55257159_zpid/,33.4887,-112.215,6551,2017-12-08
8991893,23837557,"9352 W Jefferson St, Tolleson, AZ 85353 ",85353,0.8763228356838226,0.8985939025878906,0.787458356844013,229900,https://www.zillow.com/homedetails/9352-W-Jefferson-St-Tolleson-AZ-85353/7460100_zpid/,33.4464,-112.26100000000001,6533,2017-11-20
834633,23845436,"3526 W Ocotillo Rd, Phoenix, AZ 85019 ",85019,0.8783762454986572,0.8964684307575226,0.7874365744168657,220000,https://www.zillow.com/homedetails/3526-W-Ocotillo-Rd-Phoenix-AZ-85019/7761449_zpid/,33.535,-112.13600000000001,6537,2017-11-24
9022548,23847697,"6803 W Cherry Hills Dr, Peoria, AZ 85345 ",85345,0.8631148040294647,0.9122102558612823,0.7873421762213786,220000,https://www.zillow.com/homedetails/6803-W-Cherry-Hills-Dr-Peoria-AZ-85345/7700208_zpid/,33.5936,-112.205,6547,2017-12-04
420303,23834253,"5729 W Purdue Cir, Glendale, AZ 85302 ",85302,0.8807487189769745,0.8938418626785278,0.7872500755221061,220000,https://www.zillow.com/homedetails/5729-W-Purdue-Cir-Glendale-AZ-85302/7734981_zpid/,33.5741,-112.18299999999999,6528,2017-11-15
1410517,23856547,"7108 N 73rd Dr, Glendale, AZ 85303 ",85303,0.8797531127929688,0.8947960734367371,0.7871996309208953,222000,https://www.zillow.com/homedetails/7108-N-73rd-Dr-Glendale-AZ-85303/82823489_zpid/,33.5387,-112.21700000000001,6532,2017-11-19
415049,23846150,"10006 N 66th Ave, Glendale, AZ 85302 ",85302,0.8582560420036316,0.9166183769702911,0.7866932602463148,199000,https://www.zillow.com/homedetails/10006-N-66th-Ave-Glendale-AZ-85302/7706542_zpid/,33.5765,-112.20100000000001,6544,2017-12-01
9021586,23838024,"8142 W Sweetwater Ave, Peoria, AZ 85381 ",85381,0.8848386406898499,0.889056533575058,0.7866715746649842,240000,https://www.zillow.com/homedetails/8142-W-Sweetwater-Ave-Peoria-AZ-85381/7913307_zpid/,33.6028,-112.235,6529,2017-11-16
225855,23847348,"1461 E Renee Dr, Phoenix, AZ 85024 ",85024,0.8662467896938324,0.9079801738262177,0.786534910682609,249000,https://www.zillow.com/homedetails/1461-E-Renee-Dr-Phoenix-AZ-85024/7996071_zpid/,33.6554,-112.05,6545,2017-12-02
416538,23843127,"4527 W Cochise Dr, Glendale, AZ 85302 ",85302,0.8907355666160583,0.8830070793628693,0.7865258111622762,219900,https://www.zillow.com/homedetails/4527-W-Cochise-Dr-Glendale-AZ-85302/7729060_zpid/,33.5803,-112.15799999999999,6541,2017-11-28
701826,23841957,"2733 W Jacinto Cir, Mesa, AZ 85202 ",85202,0.8958879113197327,0.8777872323989868,0.7863989702170571,200000,https://www.zillow.com/homedetails/2733-W-Jacinto-Cir-Mesa-AZ-85202/8250117_zpid/,33.3796,-111.891,6535,2017-11-22
359302,23814410,"2021 S 83RD Dr, Tolleson, AZ 85353 ",85353,0.8512153923511505,0.9233652949333191,0.785982751810101,197900,https://www.zillow.com/homedetails/2021-S-83rd-Dr-Tolleson-AZ-85353/59271300_zpid/,33.4288,-112.23899999999999,6511,2017-10-29
9022216,23813716,"8333 W Watkins St, Tolleson, AZ 85353 ",85353,0.8479664623737335,0.9261250495910645,0.7853229820174334,194900,https://www.zillow.com/homedetails/8333-W-Watkins-St-Tolleson-AZ-85353/54886336_zpid/,33.4265,-112.24,6510,2017-10-28
361380,23818137,"8601 W Flavia Hvn, Tolleson, AZ 85353 ",85353,0.8512153923511505,0.9224505126476288,0.7852040750478713,245000,https://www.zillow.com/homedetails/8601-W-Flavia-Hvn-Tolleson-AZ-85353/59271170_zpid/,33.4241,-112.245,6515,2017-11-02
523313,23853404,"9025 W Mulberry Dr, Phoenix, AZ 85037 ",85037,0.8871958553791046,0.8849431276321411,0.7851178750814576,185000,https://www.zillow.com/homedetails/9025-W-Mulberry-Dr-Phoenix-AZ-85037/92351474_zpid/,33.486,-112.25399999999999,6530,2017-11-17
393150,23840514,"4228 W Vista Ave, Phoenix, AZ 85051 ",85051,0.8860803842544556,0.8860484063625336,0.7851101123777617,172400,https://www.zillow.com/homedetails/4228-W-Vista-Ave-Phoenix-AZ-85051/7758035_zpid/,33.5467,-112.15,6534,2017-11-21
456345,23853137,"4838 W Elm St, Phoenix, AZ 85031 ",85031,0.8855920732021332,0.8864905536174774,0.7850690072522086,169900,https://www.zillow.com/homedetails/4838-W-Elm-St-Phoenix-AZ-85031/7720354_zpid/,33.5068,-112.163,6528,2017-11-15
9021527,23824183,"7384 W Greer Ave, Peoria, AZ 85345 ",85345,0.8684552609920502,0.9035842716693878,0.7847225144809498,209900,https://www.zillow.com/homedetails/7384-W-Greer-Ave-Peoria-AZ-85345/7701234_zpid/,33.5882,-112.21799999999999,6522,2017-11-09
406281,23859189,"5202 W Banff Ln, Glendale, AZ 85306 ",85306,0.8697291314601898,0.9021589756011963,0.784633942288643,208000,https://www.zillow.com/homedetails/5202-W-Banff-Ln-Glendale-AZ-85306/7911062_zpid/,33.6195,-112.171,6548,2017-12-05
450133,23853376,"8659 W Palm Ln, Phoenix, AZ 85037 ",85037,0.859844833612442,0.9122510254383087,0.7843943311807822,179900,https://www.zillow.com/homedetails/8659-W-Palm-Ln-Phoenix-AZ-85037/7487502_zpid/,33.47,-112.244,6552,2017-12-09
410268,23845604,"4731 W Shaw Butte Dr, Glendale, AZ 85304 ",85304,0.8902222812175751,0.8809770941734314,0.7842654384755026,227900,https://www.zillow.com/homedetails/4731-W-Shaw-Butte-Dr-Glendale-AZ-85304/7727518_zpid/,33.5947,-112.161,6536,2017-11-23
256906,23848601,"609 W Beverly Ln, Phoenix, AZ 85023 ",85023,0.8671000003814697,0.9041671454906464,0.7840033321998519,224900,https://www.zillow.com/homedetails/609-W-Beverly-Ln-Phoenix-AZ-85023/7965493_zpid/,33.6333,-112.08200000000001,6547,2017-12-04
9026097,23861966,"8850 W Greenbrian Dr, Peoria, AZ 85382 ",85382,0.8604419231414795,0.9111573696136475,0.7839979993948987,185000,https://www.zillow.com/homedetails/8850-W-Greenbrian-Dr-Peoria-AZ-85382/7898281_zpid/,33.6434,-112.25,6548,2017-12-05
9023077,23849850,"5810 W Saint John Rd, Glendale, AZ 85308 ",85308,0.8674614727497101,0.9037814438343048,0.7839955823123654,238000,https://www.zillow.com/homedetails/5810-W-Saint-John-Rd-Glendale-AZ-85308/8099795_zpid/,33.6464,-112.184,6548,2017-12-05
1118623,23834612,"2101 N Tamarisk St, Chandler, AZ 85224 ",85224,0.8832604289054871,0.8875041007995605,0.7838972527275985,249900,https://www.zillow.com/homedetails/2101-N-Tamarisk-St-Chandler-AZ-85224/8192386_zpid/,33.3365,-111.881,6530,2017-11-17
9017511,23846619,"7346 W Coolidge St, Phoenix, AZ 85033 ",85033,0.8638667166233063,0.9071925580501556,0.7836934564678861,199900,https://www.zillow.com/homedetails/7346-W-Coolidge-St-Phoenix-AZ-85033/7710836_zpid/,33.5042,-112.21799999999999,6544,2017-12-01
9024207,23837704,"3545 W Gardenia Ave, Phoenix, AZ 85051 ",85051,0.8808926939964294,0.8895946443080902,0.783637422789349,224500,https://www.zillow.com/homedetails/3545-W-Gardenia-Ave-Phoenix-AZ-85051/7756303_zpid/,33.5441,-112.13600000000001,6533,2017-11-20
457686,23843149,"5202 W Catalina Dr, Phoenix, AZ 85031 ",85031,0.8746036887168884,0.8959032595157623,0.7835602955059695,169850,https://www.zillow.com/homedetails/5202-W-Catalina-Dr-Phoenix-AZ-85031/7497373_zpid/,33.4829,-112.171,6535,2017-11-22
244488,23837399,"1935 W Davis Rd, Phoenix, AZ 85023 ",85023,0.8947775065898895,0.8755699396133423,0.7834402874122866,199500,https://www.zillow.com/homedetails/1935-W-Davis-Rd-Phoenix-AZ-85023/81978440_zpid/,33.632,-112.101,6533,2017-11-20
450725,23853431,"8746 W Granada Rd, Phoenix, AZ 85037 ",85037,0.862975686788559,0.9078252911567688,0.783431154120036,209900,https://www.zillow.com/homedetails/8746-W-Granada-Rd-Phoenix-AZ-85037/7487519_zpid/,33.4683,-112.249,6551,2017-12-08
445188,23853143,"4627 N 91st Dr, Phoenix, AZ 85037 ",85037,0.8663100600242615,0.9040376245975494,0.7831768888292938,240000,https://www.zillow.com/homedetails/4627-N-91st-Dr-Phoenix-AZ-85037/7466477_zpid/,33.5051,-112.256,6551,2017-12-08
9019302,23841992,"4718 W Nicolet Ave, Glendale, AZ 85301 ",85301,0.8826911747455597,0.8872573971748352,0.7831742742139429,159999,https://www.zillow.com/homedetails/4718-W-Nicolet-Ave-Glendale-AZ-85301/7725715_zpid/,33.5429,-112.161,6535,2017-11-22
413798,23850402,"6136 W Sierra St, Glendale, AZ 85304 ",85304,0.8683907985687256,0.9016433954238892,0.7829788281763683,239899,https://www.zillow.com/homedetails/6136-W-Sierra-St-Glendale-AZ-85304/7698235_zpid/,33.5914,-112.19200000000001,6551,2017-12-08
9024480,23843715,"17622 N 18th Dr, Phoenix, AZ 85023 ",85023,0.8828541934490204,0.8868220150470734,0.782934534827219,219000,https://www.zillow.com/homedetails/17622-N-18th-Dr-Phoenix-AZ-85023/7958450_zpid/,33.6465,-112.098,6541,2017-11-28
1373435,23850162,"8759 W Peppertree Ln, Glendale, AZ 85305 ",85305,0.861419677734375,0.9088151156902313,0.7828712240780078,249850,https://www.zillow.com/homedetails/8759-W-Peppertree-Ln-Glendale-AZ-85305/95158696_zpid/,33.5368,-112.24700000000001,6551,2017-12-08
491289,23853212,"5551 W Wilshire Dr, Phoenix, AZ 85035 ",85035,0.8772011399269104,0.8923430442810059,0.7827643356491478,187900,https://www.zillow.com/homedetails/5551-W-Wilshire-Dr-Phoenix-AZ-85035/7491935_zpid/,33.4756,-112.18,6538,2017-11-25
240300,23837052,"17433 N 14th Ave, Phoenix, AZ 85023 ",85023,0.8894515037536621,0.8795123994350433,0.7822836262474908,185984,https://www.zillow.com/homedetails/17433-N-14th-Ave-Phoenix-AZ-85023/7963338_zpid/,33.6446,-112.09,6530,2017-11-17
227559,23843808,"15221 N 28th Dr, Phoenix, AZ 85053 ",85053,0.8977387845516205,0.8712390065193176,0.7821450467666136,209900,https://www.zillow.com/homedetails/15221-N-28th-Dr-Phoenix-AZ-85053/7942595_zpid/,33.6243,-112.119,6542,2017-11-29
440855,23854416,"8208 W Fairmount Ave, Phoenix, AZ 85033 ",85033,0.8650499284267426,0.9038466215133667,0.7818724552488909,159990,https://www.zillow.com/homedetails/8208-W-Fairmount-Ave-Phoenix-AZ-85033/7478788_zpid/,33.4907,-112.236,6551,2017-12-08
400713,23840251,"10843 N 45th Ln, Glendale, AZ 85304 ",85304,0.8907355666160583,0.8777057826519012,0.7818037576326322,220000,https://www.zillow.com/homedetails/10843-N-45th-Ln-Glendale-AZ-85304/7727914_zpid/,33.5861,-112.156,6534,2017-11-21
8990554,23839230,"3845 N 59th Ave, Phoenix, AZ 85033 ",85033,0.8890295624732971,0.8790150582790375,0.7814703726692525,176000,https://www.zillow.com/homedetails/3845-N-59th-Ave-Phoenix-AZ-85033/7496809_zpid/,33.493,-112.186,6531,2017-11-18
408604,23849215,"6301 W Port Royale Ln, Glendale, AZ 85306 ",85306,0.8621600270271301,0.9057624042034149,0.7809121388881746,249500,https://www.zillow.com/homedetails/6301-W-Port-Royale-Ln-Glendale-AZ-85306/8099500_zpid/,33.6208,-112.196,6549,2017-12-06
9021795,23854390,"747 W Rosal Pl, Chandler, AZ 85225 ",85225,0.860857218503952,0.9070849716663361,0.7808706456554182,244800,https://www.zillow.com/homedetails/747-W-Rosal-Pl-Chandler-AZ-85225/8177685_zpid/,33.3412,-111.855,6551,2017-12-08
8977160,23825434,"16231 N 91st Dr, Peoria, AZ 85382 ",85382,0.8624963462352753,0.9052804112434387,0.7808010470158333,233000,https://www.zillow.com/homedetails/16231-N-91st-Dr-Peoria-AZ-85382/2123153916_zpid/,33.6316,-112.25200000000001,6526,2017-11-13
409973,23835214,"4617 W Christy Dr, Glendale, AZ 85304 ",85304,0.8927262723445892,0.8741971254348755,0.7804187410838317,230000,https://www.zillow.com/homedetails/4617-W-Christy-Dr-Glendale-AZ-85304/7727674_zpid/,33.5841,-112.15899999999999,6530,2017-11-17
1166,23837694,"8039 N 29th Ave, Phoenix, AZ 85051 ",85051,0.8814833760261536,0.8852072954177856,0.7802955152478503,180000,https://www.zillow.com/homedetails/8039-N-29th-Ave-Phoenix-AZ-85051/7751052_zpid/,33.5545,-112.12100000000001,6533,2017-11-20
8988082,23849229,"6914 W Sierra St, Peoria, AZ 85345 ",85345,0.8631148040294647,0.9040331542491913,0.7802843987659296,198900,https://www.zillow.com/homedetails/6914-W-Sierra-St-Peoria-AZ-85345/7699742_zpid/,33.5904,-112.208,6548,2017-12-05
391579,23862941,"4119 W Las Palmaritas Dr, Phoenix, AZ 85051 ",85051,0.8670552670955658,0.899735301733017,0.7801202323594305,199900,https://www.zillow.com/homedetails/4119-W-Las-Palmaritas-Dr-Phoenix-AZ-85051/7752798_zpid/,33.5576,-112.148,6552,2017-12-09
394074,23843087,"3521 W Mercer Ln, Phoenix, AZ 85029 ",85029,0.8806404173374176,0.8858062326908112,0.7800767704369216,205900,https://www.zillow.com/homedetails/3521-W-Mercer-Ln-Phoenix-AZ-85029/7743575_zpid/,33.585,-112.135,6541,2017-11-28
234163,23837062,"1923 W Kristal Way, Phoenix, AZ 85027 ",85027,0.8917486667633057,0.8745116889476776,0.7798446326880182,220000,https://www.zillow.com/homedetails/1923-W-Kristal-Way-Phoenix-AZ-85027/7969934_zpid/,33.6606,-112.101,6529,2017-11-16
237433,23843870,"2957 W Michelle Dr, Phoenix, AZ 85053 ",85053,0.8851740062236786,0.8808849155902863,0.7797364297550606,225000,https://www.zillow.com/homedetails/2957-W-Michelle-Dr-Phoenix-AZ-85053/7940747_zpid/,33.6492,-112.124,6542,2017-11-29
9025707,23857419,"7108 W Palo Verde Ave, Peoria, AZ 85345 ",85345,0.8596866428852081,0.9069728553295135,0.779712449186241,215000,https://www.zillow.com/homedetails/7108-W-Palo-Verde-Ave-Peoria-AZ-85345/7702387_zpid/,33.5728,-112.212,6546,2017-12-03
477931,23837214,"1802 N 66th Ave, Phoenix, AZ 85035 ",85035,0.8872758150100708,0.878686934709549,0.7796376661331159,150000,https://www.zillow.com/homedetails/1802-N-66th-Ave-Phoenix-AZ-85035/7490498_zpid/,33.4678,-112.20200000000001,6531,2017-11-18
1404612,23855827,"6124 N 71st Dr, Glendale, AZ 85303 ",85303,0.8632670044898987,0.9030475318431854,0.7795711377262631,181000,https://www.zillow.com/homedetails/6124-N-71st-Dr-Glendale-AZ-85303/7707087_zpid/,33.5261,-112.213,6551,2017-12-08
226007,23837043,"1415 W Topeka Dr, Phoenix, AZ 85027 ",85027,0.8828350007534027,0.882940262556076,0.779490567358903,248000,https://www.zillow.com/homedetails/1415-W-Topeka-Dr-Phoenix-AZ-85027/7971784_zpid/,33.6594,-112.089,6529,2017-11-16
395883,23835126,"3830 W Sharon Ave, Phoenix, AZ 85029 ",85029,0.8898549973964691,0.8754819631576538,0.7790520000463097,179900,https://www.zillow.com/homedetails/3830-W-Sharon-Ave-Phoenix-AZ-85029/7741516_zpid/,33.6095,-112.14200000000001,6530,2017-11-17
1844940,23839763,"7728 W Crittenden Ln, Phoenix, AZ 85033 ",85033,0.883514940738678,0.8816071152687073,0.7789130582014288,165500,https://www.zillow.com/homedetails/7728-W-Crittenden-Ln-Phoenix-AZ-85033/7478567_zpid/,33.4884,-112.226,6530,2017-11-17
8977168,23856014,"8979 W Bremen St, Peoria, AZ 85382 ",85382,0.8622432053089142,0.9032306671142578,0.7788045055459065,220000,https://www.zillow.com/homedetails/8979-W-Bremen-St-Peoria-AZ-85382/67802266_zpid/,33.6443,-112.25200000000001,6554,2017-12-11
431375,23855856,"6744 W Pierson St, Phoenix, AZ 85033 ",85033,0.8629062473773956,0.9024329781532288,0.7787150546878099,141900,https://www.zillow.com/homedetails/6744-W-Pierson-St-Phoenix-AZ-85033/7716621_zpid/,33.508,-112.205,6555,2017-12-12
9025872,23860172,"15168 N 90th Ln, Peoria, AZ 85381 ",85381,0.8610054552555084,0.9042300283908844,0.7785469872503947,218700,https://www.zillow.com/homedetails/15168-N-90th-Ln-Peoria-AZ-85381/7908827_zpid/,33.6229,-112.25399999999999,6546,2017-12-03
355855,23833551,"702 E Rose Marie Ln, Phoenix, AZ 85022 ",85022,0.8825236558914185,0.8819175660610199,0.7783131145950328,247000,https://www.zillow.com/homedetails/702-E-Rose-Marie-Ln-Phoenix-AZ-85022/49942677_zpid/,33.6527,-112.065,6527,2017-11-14
419880,23856292,"5616 W Brown St, Glendale, AZ 85302 ",85302,0.8658222258090973,0.8989115059375763,0.7782975608762799,196500,https://www.zillow.com/homedetails/5616-W-Brown-St-Glendale-AZ-85302/7735264_zpid/,33.5783,-112.18,6558,2017-12-15
629569,23853723,"1645 W Peralta Ave, Mesa, AZ 85202 ",85202,0.8664194941520691,0.8982461392879486,0.7782579656259134,222900,https://www.zillow.com/homedetails/1645-W-Peralta-Ave-Mesa-AZ-85202/8191627_zpid/,33.3572,-111.87,6553,2017-12-10
230933,23837060,"18608 N 17th Ave, Phoenix, AZ 85027 ",85027,0.8917486667633057,0.8726822733879089,0.7782132538016384,219900,https://www.zillow.com/homedetails/18608-N-17th-Ave-Phoenix-AZ-85027/7969674_zpid/,33.6552,-112.096,6529,2017-11-16
9022274,23854949,"5736 W Libby St, Glendale, AZ 85308 ",85308,0.8698423802852631,0.894493967294693,0.778068761662424,235000,https://www.zillow.com/homedetails/5736-W-Libby-St-Glendale-AZ-85308/7900965_zpid/,33.6479,-112.18299999999999,6551,2017-12-08
650458,23850182,"2419 W Naranja Ave, Mesa, AZ 85202 ",85202,0.8610438406467438,0.903567373752594,0.7780111217790253,235000,https://www.zillow.com/homedetails/2419-W-Naranja-Ave-Mesa-AZ-85202/8251330_zpid/,33.3643,-111.88600000000001,6551,2017-12-08
425299,23848687,"3031 N 81st Ave, Phoenix, AZ 85033 ",85033,0.8592246174812317,0.9052843749523163,0.7778426207801399,184900,https://www.zillow.com/homedetails/3031-N-81st-Ave-Phoenix-AZ-85033/7479465_zpid/,33.4829,-112.23299999999999,6543,2017-11-30
9024755,23848698,"3026 N 75th Dr, Phoenix, AZ 85033 ",85033,0.8602438271045685,0.9039997756481171,0.7776602267052075,174000,https://www.zillow.com/homedetails/3026-N-75th-Dr-Phoenix-AZ-85033/7469531_zpid/,33.4832,-112.221,6544,2017-12-01
9012842,23849895,"8008 W Corrine Dr, Peoria, AZ 85381 ",85381,0.862822949886322,0.900811493396759,0.7772408300240947,210000,https://www.zillow.com/homedetails/8008-W-Corrine-Dr-Peoria-AZ-85381/8101079_zpid/,33.6,-112.23200000000001,6550,2017-12-07
43395,23752723,"7911 W Hilton Ave, Phoenix, AZ 85043 ",85043,0.8512153923511505,0.9123749434947968,0.7766275954982822,232000,https://www.zillow.com/homedetails/7911-W-Hilton-Ave-Phoenix-AZ-85043/50893343_zpid/,33.4289,-112.23,6497,2017-10-15
9024760,23853016,"4016 N 75th Dr, Phoenix, AZ 85033 ",85033,0.8595284223556519,0.9033965170383453,0.7764949830515597,165000,https://www.zillow.com/homedetails/4016-N-75th-Dr-Phoenix-AZ-85033/7478126_zpid/,33.4933,-112.223,6543,2017-11-30
250907,23854160,"232 W Michigan Ave, Phoenix, AZ 85023 ",85023,0.8678754568099976,0.8943076729774475,0.7761476802139882,240000,https://www.zillow.com/homedetails/232-W-Michigan-Ave-Phoenix-AZ-85023/7956192_zpid/,33.6511,-112.07799999999999,6551,2017-12-08
238285,23837083,"3015 W Villa Rita Dr, Phoenix, AZ 85053 ",85053,0.8870654404163361,0.8749466240406036,0.7761349123953645,225000,https://www.zillow.com/homedetails/3015-W-Villa-Rita-Dr-Phoenix-AZ-85053/7940712_zpid/,33.65,-112.124,6529,2017-11-16
400817,23856413,"11004 N 58th Dr, Glendale, AZ 85304 ",85304,0.8634721338748932,0.8987202048301697,0.7760198530211877,215000,https://www.zillow.com/homedetails/11004-N-58th-Dr-Glendale-AZ-85304/7736132_zpid/,33.5857,-112.186,6550,2017-12-07
837297,23835058,"6553 N 41st Ave, Phoenix, AZ 85019 ",85019,0.8818318247795105,0.8799869418144226,0.7760004906823532,199999,https://www.zillow.com/homedetails/6553-N-41st-Ave-Phoenix-AZ-85019/7762442_zpid/,33.5332,-112.147,6531,2017-11-18
404277,23846221,"13213 N 55th Ave, Glendale, AZ 85304 ",85304,0.8626286089420319,0.8986925184726715,0.7752378770766919,214900,https://www.zillow.com/homedetails/13213-N-55th-Ave-Glendale-AZ-85304/7911876_zpid/,33.6045,-112.177,6544,2017-12-01
481915,23852927,"2518 N 67th Dr, Phoenix, AZ 85035 ",85035,0.8657217025756836,0.8953919410705566,0.7751602356961484,145000,https://www.zillow.com/homedetails/2518-N-67th-Dr-Phoenix-AZ-85035/7475839_zpid/,33.4762,-112.204,6551,2017-12-08
8970322,23833063,"3323 N 63rd Ave, Phoenix, AZ 85033 ",85033,0.8833185732364655,0.8775359690189362,0.7751438201174858,165000,https://www.zillow.com/homedetails/3323-N-63rd-Ave-Phoenix-AZ-85033/7498361_zpid/,33.4857,-112.195,6528,2017-11-15
255987,23850390,"506 W Beverly Ln, Phoenix, AZ 85023 ",85023,0.8691973388195038,0.8917804956436157,0.7751332336245689,229900,https://www.zillow.com/homedetails/506-W-Beverly-Ln-Phoenix-AZ-85023/7965481_zpid/,33.6337,-112.081,6552,2017-12-09
9020887,23849868,"6702 W Roma Ave, Phoenix, AZ 85033 ",85033,0.8596080541610718,0.9017086327075958,0.775116003182017,159000,https://www.zillow.com/homedetails/6702-W-Roma-Ave-Phoenix-AZ-85033/7717096_zpid/,33.5019,-112.204,6550,2017-12-07
9025492,23853460,"4815 N 69th Dr, Phoenix, AZ 85033 ",85033,0.8626943826675415,0.8984742760658264,0.7751087109332744,165000,https://www.zillow.com/homedetails/4815-N-69th-Dr-Phoenix-AZ-85033/7716502_zpid/,33.508,-112.208,6550,2017-12-07
9025891,23860135,"8837 W Paradise Dr, Peoria, AZ 85345 ",85345,0.8582687675952911,0.9029366075992584,0.7749622894208885,229950,https://www.zillow.com/homedetails/8837-W-Paradise-Dr-Peoria-AZ-85345/7685700_zpid/,33.5941,-112.25,6558,2017-12-15
419676,23859179,"5520 W Golden Ln, Glendale, AZ 85302 ",85302,0.8563744127750397,0.9045951068401337,0.7746721034193937,199500,https://www.zillow.com/homedetails/5520-W-Golden-Ln-Glendale-AZ-85302/7733492_zpid/,33.5652,-112.179,6551,2017-12-08
250889,23830838,"3634 W Banff Ln, Phoenix, AZ 85053 ",85053,0.8849737048149109,0.8752244710922241,0.7745506427271565,243000,https://www.zillow.com/homedetails/3634-W-Banff-Ln-Phoenix-AZ-85053/7944164_zpid/,33.621,-112.137,6527,2017-11-14
386131,23834497,"1914 W Voltaire Ave, Phoenix, AZ 85029 ",85029,0.8915352821350098,0.868646502494812,0.7744290046773017,199000,https://www.zillow.com/homedetails/1914-W-Voltaire-Ave-Phoenix-AZ-85029/7749583_zpid/,33.609,-112.1,6529,2017-11-16
479661,23852926,"2215 N 56TH Ave, Phoenix, AZ 85035 ",85035,0.8650306463241577,0.8950027525424957,0.7742048094937353,172000,https://www.zillow.com/homedetails/2215-N-56th-Ave-Phoenix-AZ-85035/7492559_zpid/,33.472,-112.18,6553,2017-12-10
9024048,23836145,"9411 W Glen Oaks Cir, Sun City, AZ 85351 ",85351,0.8987618386745453,0.8612746894359589,0.7740808234813104,140000,https://www.zillow.com/homedetails/9411-W-Glen-Oaks-Cir-Sun-City-AZ-85351/7922837_zpid/,33.6297,-112.26299999999999,6530,2017-11-17
356416,23858282,"830 E Michelle Dr, Phoenix, AZ 85022 ",85022,0.8706166446208954,0.8889574110507965,0.7739411184199225,193500,https://www.zillow.com/homedetails/830-E-Michelle-Dr-Phoenix-AZ-85022/8002212_zpid/,33.6507,-112.06200000000001,6551,2017-12-08
450270,23853373,"8713 W Wilshire Dr, Phoenix, AZ 85037 ",85037,0.8579504191875458,0.9018684923648834,0.7737584510764917,200000,https://www.zillow.com/homedetails/8713-W-Wilshire-Dr-Phoenix-AZ-85037/7473941_zpid/,33.4756,-112.24700000000001,6526,2017-11-13
449130,23853327,"8517 W Fairmount Ave, Phoenix, AZ 85037 ",85037,0.8609825968742371,0.8985976874828339,0.7736769705141544,198500,https://www.zillow.com/homedetails/8517-W-Fairmount-Ave-Phoenix-AZ-85037/7469756_zpid/,33.4915,-112.243,6543,2017-11-30
9023951,23835138,"4206 W North Ln, Phoenix, AZ 85051 ",85051,0.8899523615837097,0.8688822984695435,0.7732638534612519,189000,https://www.zillow.com/homedetails/4206-W-North-Ln-Phoenix-AZ-85051/7746035_zpid/,33.5817,-112.149,6529,2017-11-16
453580,23853046,"4508 N 57th Ave, Phoenix, AZ 85031 ",85031,0.8795391917228699,0.8791408538818359,0.7732388360337836,189950,https://www.zillow.com/homedetails/4508-N-57th-Ave-Phoenix-AZ-85031/7713228_zpid/,33.5028,-112.182,6537,2017-11-24
9023935,23834938,"18241 N 31st St, Phoenix, AZ 85032 ",85032,0.8957913517951965,0.8630417883396149,0.7731053702324875,225000,https://www.zillow.com/homedetails/18241-N-31st-St-Phoenix-AZ-85032/7999264_zpid/,33.6531,-112.016,6530,2017-11-17
9023875,23833720,"14623 N 38th St, Phoenix, AZ 85032 ",85032,0.8888638019561768,0.86956787109375,0.7729274039593292,244900,https://www.zillow.com/homedetails/14623-N-38th-St-Phoenix-AZ-85032/8013505_zpid/,33.6199,-112.0,6528,2017-11-15
413653,23822290,"6114 W Shaw Butte Dr, Glendale, AZ 85304 ",85304,0.8657456934452057,0.8920932114124298,0.7723258559320145,249999,https://www.zillow.com/homedetails/6114-W-Shaw-Butte-Dr-Glendale-AZ-85304/7698065_zpid/,33.596,-112.191,6519,2017-11-06
1075269,23849641,"1803 N Cheri Lynn Dr, Chandler, AZ 85225 ",85225,0.8575035333633423,0.9006320238113403,0.7722951426784022,229900,https://www.zillow.com/homedetails/1803-N-Cheri-Lynn-Dr-Chandler-AZ-85225/8183501_zpid/,33.3321,-111.853,6550,2017-12-07
9023958,23844516,"5637 W Wagoner Rd, Glendale, AZ 85308 ",85308,0.8664599657058716,0.8910726606845856,0.7720787870182058,239000,https://www.zillow.com/homedetails/5637-W-Wagoner-Rd-Glendale-AZ-85308/7901184_zpid/,33.6525,-112.181,6543,2017-11-30
499623,23853309,"7113 W Holly St, Phoenix, AZ 85035 ",85035,0.8617172539234161,0.8959498107433319,0.7720554105669484,135000,https://www.zillow.com/homedetails/7113-W-Holly-St-Phoenix-AZ-85035/7475387_zpid/,33.4699,-112.213,6548,2017-12-05
639679,23857945,"606 W Laguna Azul Ave, Mesa, AZ 85210 ",85210,0.8646657168865204,0.8927038311958313,0.7718903981682868,234900,https://www.zillow.com/homedetails/606-W-Laguna-Azul-Ave-Mesa-AZ-85210/8170728_zpid/,33.3729,-111.84700000000001,6553,2017-12-10
222394,23848564,"1010 W Campo Bello Dr, Phoenix, AZ 85023 ",85023,0.8657428026199341,0.8915453851222992,0.7718490003786478,199900,https://www.zillow.com/homedetails/1010-W-Campo-Bello-Dr-Phoenix-AZ-85023/7963596_zpid/,33.644,-112.087,6549,2017-12-06
830565,23856396,"3823 W Cavalier Dr, Phoenix, AZ 85019 ",85019,0.8586612641811371,0.8984742164611816,0.7714850065407148,170000,https://www.zillow.com/homedetails/3823-W-Cavalier-Dr-Phoenix-AZ-85019/7758965_zpid/,33.525999999999996,-112.14200000000001,6548,2017-12-05
8977481,23842943,"17255 N 55th Dr, Glendale, AZ 85308 ",85308,0.8906692862510681,0.8658289909362793,0.7711672893726984,249000,https://www.zillow.com/homedetails/17255-N-55th-Dr-Glendale-AZ-85308/8099562_zpid/,33.6425,-112.179,6541,2017-11-28
398630,23849176,"4215 W Surrey Ave, Phoenix, AZ 85029 ",85029,0.8641181886196136,0.8920302391052246,0.7708195544095275,248000,https://www.zillow.com/homedetails/4215-W-Surrey-Ave-Phoenix-AZ-85029/7741797_zpid/,33.6049,-112.15,6548,2017-12-05
15301,23861388,"9312 W Madison St, Tolleson, AZ 85353 ",85353,0.8589645028114319,0.8973124027252197,0.7707595018733997,164900,https://www.zillow.com/homedetails/9312-W-Madison-St-Tolleson-AZ-85353/7460113_zpid/,33.4457,-112.26100000000001,6553,2017-12-10
9015636,23825624,"7118 W Sells Dr, Phoenix, AZ 85033 ",85033,0.8622975945472717,0.8936884701251984,0.7706254180635899,182900,https://www.zillow.com/homedetails/7118-W-Sells-Dr-Phoenix-AZ-85033/88889219_zpid/,33.5022,-112.213,6523,2017-11-10
383721,23857056,"3333 W Frier Dr, Phoenix, AZ 85051 ",85051,0.8627505004405975,0.8932191133499146,0.7706252370457456,195000,https://www.zillow.com/homedetails/3333-W-Frier-Dr-Phoenix-AZ-85051/7755139_zpid/,33.5489,-112.131,6548,2017-12-05
9023953,23835041,"3306 W Pierson St, Phoenix, AZ 85017 ",85017,0.8855870068073273,0.8700463473796844,0.7705017405596228,159000,https://www.zillow.com/homedetails/3306-W-Pierson-St-Phoenix-AZ-85017/7766533_zpid/,33.507,-112.13,6527,2017-11-14
243942,23854107,"18463 N 5th Ave, Phoenix, AZ 85023 ",85023,0.8655448853969574,0.890074610710144,0.7703995269218531,249000,https://www.zillow.com/homedetails/18463-N-5th-Ave-Phoenix-AZ-85023/7956457_zpid/,33.6543,-112.08,6552,2017-12-09
8967228,23853266,"6308 W Avalon Dr, Phoenix, AZ 85033 ",85033,0.8653597831726074,0.8896380662918091,0.7698570041483777,198900,https://www.zillow.com/homedetails/6308-W-Avalon-Dr-Phoenix-AZ-85033/7498672_zpid/,33.4836,-112.196,6551,2017-12-08
9023880,23833725,"3454 E Libby St, Phoenix, AZ 85032 ",85032,0.9046396613121033,0.8509500324726105,0.7698031491695456,233000,https://www.zillow.com/homedetails/3454-E-Libby-St-Phoenix-AZ-85032/92349104_zpid/,33.6476,-112.005,6528,2017-11-15
1878732,23856317,"8133 W Larkspur Dr, Peoria, AZ 85381 ",85381,0.8631984293460846,0.8916200995445251,0.7696450695002337,237500,https://www.zillow.com/homedetails/8133-W-Larkspur-Dr-Peoria-AZ-85381/8100861_zpid/,33.5992,-112.235,6558,2017-12-15
9021767,23840851,"1139 W Auburn St, Mesa, AZ 85201 ",85201,0.8757441639900208,0.8787983059883118,0.7696024877935805,215000,https://www.zillow.com/homedetails/1139-W-Auburn-St-Mesa-AZ-85201/81997574_zpid/,33.4176,-111.85600000000001,6536,2017-11-23
230590,23848573,"1832 W Wescott Dr, Phoenix, AZ 85027 ",85027,0.8676044344902039,0.886828601360321,0.7694164271729598,229000,https://www.zillow.com/homedetails/1832-W-Wescott-Dr-Phoenix-AZ-85027/7969386_zpid/,33.6586,-112.09899999999999,6549,2017-12-06
8982670,23842974,"1934 N Iowa St, Chandler, AZ 85225 ",85225,0.8816679120063782,0.8724846541881561,0.7692417233156785,212500,https://www.zillow.com/homedetails/1934-N-Iowa-St-Chandler-AZ-85225/8182675_zpid/,33.3331,-111.85,6540,2017-11-27
9025869,23860030,"11848 N 79th Dr, Peoria, AZ 85345 ",85345,0.8631984293460846,0.8910305202007294,0.7691361455366943,215000,https://www.zillow.com/homedetails/11848-N-79th-Dr-Peoria-AZ-85345/2091778016_zpid/,33.5928,-112.23,6557,2017-12-14
9026095,23861947,"7014 W Canterbury Dr, Peoria, AZ 85345 ",85345,0.8643532991409302,0.8890463411808014,0.7684501380887987,179000,https://www.zillow.com/homedetails/7014-W-Canterbury-Dr-Peoria-AZ-85345/7699778_zpid/,33.5911,-112.21,6556,2017-12-13
9023942,23834986,"3552 E Le Marche Ave, Phoenix, AZ 85032 ",85032,0.8959758281707764,0.8576111197471619,0.7683988332639302,205000,https://www.zillow.com/homedetails/3552-E-Le-Marche-Ave-Phoenix-AZ-85032/8007139_zpid/,33.6329,-112.005,6530,2017-11-17
395893,23850367,"3831 W Columbine Dr, Phoenix, AZ 85029 ",85029,0.8676741123199463,0.8852319121360779,0.7680928135599601,232900,https://www.zillow.com/homedetails/3831-W-Columbine-Dr-Phoenix-AZ-85029/7743215_zpid/,33.5988,-112.14200000000001,6552,2017-12-09
397286,23862957,"8437 N 36th Ave, Phoenix, AZ 85051 ",85051,0.8576929569244385,0.8954010903835297,0.767979208844416,187000,https://www.zillow.com/homedetails/8437-N-36th-Ave-Phoenix-AZ-85051/7754435_zpid/,33.5599,-112.137,6550,2017-12-07
495569,23848756,"6318 W Granada Rd, Phoenix, AZ 85035 ",85035,0.8617172539234161,0.8911966681480408,0.7679595455822277,144999,https://www.zillow.com/homedetails/6318-W-Granada-Rd-Phoenix-AZ-85035/7490661_zpid/,33.4691,-112.196,6546,2017-12-03
411351,23831053,"5194 W Paradise Dr, Glendale, AZ 85304 ",85304,0.8669409453868866,0.8857142925262451,0.7678619861053804,214900,https://www.zillow.com/homedetails/5194-W-Paradise-Dr-Glendale-AZ-85304/60978690_zpid/,33.5953,-112.171,6526,2017-11-13
9024756,23848729,"3002 N 70TH Ave, Phoenix, AZ 85033 ",85033,0.8625499904155731,0.8901352286338806,0.7677861329267177,164900,https://www.zillow.com/homedetails/3002-N-70TH-Ave-Phoenix-AZ-85033/7468637_zpid/,33.4816,-112.211,6548,2017-12-05
390175,23845317,"2929 W Sunnyside Dr, Phoenix, AZ 85029 ",85029,0.8871369957923889,0.8652287125587463,0.7675764007326826,179000,https://www.zillow.com/homedetails/2929-W-Sunnyside-Dr-Phoenix-AZ-85029/7741010_zpid/,33.593,-112.12299999999999,6541,2017-11-28
1412767,23846610,"7238 W Ocotillo Rd, Glendale, AZ 85303 ",85303,0.857833743095398,0.8943174481391907,0.7671756840527664,245000,https://www.zillow.com/homedetails/7238-W-Ocotillo-Rd-Glendale-AZ-85303/67800379_zpid/,33.5344,-112.215,6543,2017-11-30
227870,23854036,"1420 W Michelle Dr, Phoenix, AZ 85023 ",85023,0.8668903410434723,0.8843792974948883,0.7666598708171302,247900,https://www.zillow.com/homedetails/1420-W-Michelle-Dr-Phoenix-AZ-85023/7956946_zpid/,33.6498,-112.09100000000001,6551,2017-12-08
9023033,23823351,"437 E Wescott Dr, Phoenix, AZ 85024 ",85024,0.8640485107898712,0.8871889114379883,0.7665742577172807,225000,https://www.zillow.com/homedetails/437-E-Wescott-Dr-Phoenix-AZ-85024/2092120604_zpid/,33.6585,-112.068,6521,2017-11-08
258487,23844522,"619 W Wescott Dr, Phoenix, AZ 85027 ",85027,0.863895446062088,0.8873176574707031,0.7665496834994201,239900,https://www.zillow.com/homedetails/619-W-Wescott-Dr-Phoenix-AZ-85027/7968519_zpid/,33.6581,-112.08200000000001,6543,2017-11-30
460325,23853200,"5810 W Avalon Dr, Phoenix, AZ 85031 ",85031,0.8547291457653046,0.8966651856899261,0.7664058682022388,150000,https://www.zillow.com/homedetails/5810-W-Avalon-Dr-Phoenix-AZ-85031/7490070_zpid/,33.484,-112.185,6551,2017-12-08
410068,23846510,"4632 W Mescal St, Glendale, AZ 85304 ",85304,0.8623470962047577,0.8885063529014587,0.7662008733840526,202900,https://www.zillow.com/homedetails/4632-W-Mescal-St-Glendale-AZ-85304/7727760_zpid/,33.5869,-112.16,6544,2017-12-01
1863393,23849248,"8223 W Poinsettia Dr, Peoria, AZ 85345 ",85345,0.8617172539234161,0.8891081511974335,0.7661598344907778,229900,https://www.zillow.com/homedetails/8223-W-Poinsettia-Dr-Peoria-AZ-85345/7680859_zpid/,33.5929,-112.236,6548,2017-12-05
327239,23840117,"2012 W Solano Dr, Phoenix, AZ 85015 ",85015,0.8938456177711487,0.8570643067359924,0.7660831747240344,204500,https://www.zillow.com/homedetails/2012-W-Solano-Dr-Phoenix-AZ-85015/7763332_zpid/,33.5212,-112.103,6534,2017-11-21
225687,23849553,"1306 W Charleston Ave, Phoenix, AZ 85023 ",85023,0.8633506894111633,0.8871976435184479,0.7659626971756115,245000,https://www.zillow.com/homedetails/1306-W-Charleston-Ave-Phoenix-AZ-85023/7956977_zpid/,33.6491,-112.09,6550,2017-12-07
446458,23845609,"4811 N 84th Ln, Phoenix, AZ 85037 ",85037,0.8614615499973297,0.8890008628368378,0.7658400612483858,155000,https://www.zillow.com/homedetails/4811-N-84th-Ln-Phoenix-AZ-85037/7481137_zpid/,33.5075,-112.242,6543,2017-11-30
231524,23856223,"17459 N 28th Ave, Phoenix, AZ 85053 ",85053,0.8672517240047455,0.8830599784851074,0.7658352887408029,206995,https://www.zillow.com/homedetails/17459-N-28th-Ave-Phoenix-AZ-85053/7942436_zpid/,33.6449,-112.119,6558,2017-12-15
836722,23830966,"5221 N 41st Dr, Phoenix, AZ 85019 ",85019,0.8617960810661316,0.8886459469795227,0.765831594562254,179000,https://www.zillow.com/homedetails/5221-N-41st-Dr-Phoenix-AZ-85019/67083438_zpid/,33.5124,-112.148,6526,2017-11-13
396990,23849167,"4008 W Windrose Dr, Phoenix, AZ 85029 ",85029,0.86369189620018,0.8865615129470825,0.7657159942153662,194500,https://www.zillow.com/homedetails/4008-W-Windrose-Dr-Phoenix-AZ-85029/7742420_zpid/,33.6012,-112.146,6547,2017-12-04
647631,23846351,"2312 W Plata Ave, Mesa, AZ 85202 ",85202,0.8573247492313385,0.8929083049297333,0.7655123886104631,214900,https://www.zillow.com/homedetails/2312-W-Plata-Ave-Mesa-AZ-85202/8170881_zpid/,33.3605,-111.883,6544,2017-12-01
405768,23846514,"4845 W Evans Dr, Glendale, AZ 85306 ",85306,0.8675335645675659,0.8823829889297485,0.7654968597000078,192900,https://www.zillow.com/homedetails/4845-W-Evans-Dr-Glendale-AZ-85306/7952529_zpid/,33.6169,-112.164,6544,2017-12-01
1119338,23856054,"2144 N College Ct, Chandler, AZ 85224 ",85224,0.8640171587467194,0.8857118189334869,0.7652702092633001,240000,https://www.zillow.com/homedetails/2144-N-College-Ct-Chandler-AZ-85224/8199700_zpid/,33.3387,-111.874,6557,2017-12-14
400129,23859177,"13807 N 52nd Ave, Glendale, AZ 85306 ",85306,0.8672627508640289,0.882329910993576,0.7652118657779026,219900,https://www.zillow.com/homedetails/13807-N-52nd-Ave-Glendale-AZ-85306/8097449_zpid/,33.6112,-112.171,6557,2017-12-14
9023645,23828731,"7328 W Heatherbrae Dr, Phoenix, AZ 85033 ",85033,0.8604424893856049,0.8892489075660706,0.7651475437095794,174900,https://www.zillow.com/homedetails/7328-W-Heatherbrae-Dr-Phoenix-AZ-85033/7711026_zpid/,33.4977,-112.21700000000001,6519,2017-11-06
476880,23852925,"1615 N 54th Ave, Phoenix, AZ 85035 ",85035,0.8596866428852081,0.8895754218101501,0.7647561079691609,190000,https://www.zillow.com/homedetails/1615-N-54th-Ave-Phoenix-AZ-85035/7493812_zpid/,33.4668,-112.176,6550,2017-12-07
9012841,23819608,"8121 W Hatcher Rd, Peoria, AZ 85345 ",85345,0.8473430573940277,0.9021964967250824,0.7644699379052122,239000,https://www.zillow.com/homedetails/8121-W-Hatcher-Rd-Peoria-AZ-85345/7682649_zpid/,33.57,-112.234,6515,2017-11-02
502206,23852964,"3820 N 55th Ave, Phoenix, AZ 85031 ",85031,0.8529574275016785,0.8961702585220337,0.764395078312468,179900,https://www.zillow.com/homedetails/3820-N-55th-Ave-Phoenix-AZ-85031/7489554_zpid/,33.4923,-112.178,6548,2017-12-05
453411,23853062,"4450 N 50th Ave, Phoenix, AZ 85031 ",85031,0.8813775777816772,0.8672513365745544,0.7643758823580029,149800,https://www.zillow.com/homedetails/4450-N-50th-Ave-Phoenix-AZ-85031/7720779_zpid/,33.501999999999995,-112.167,6533,2017-11-20
43124,23755414,"7301 W Payson Rd, Phoenix, AZ 85043 ",85043,0.8439112305641174,0.9057047367095947,0.7643343988843441,195000,https://www.zillow.com/homedetails/7301-W-Payson-Rd-Phoenix-AZ-85043/60975135_zpid/,33.4225,-112.21700000000001,6500,2017-10-18
1349332,23855797,"5601 N 61st Ln, Glendale, AZ 85301 ",85301,0.8547291457653046,0.8942325115203857,0.7643265906873822,164000,https://www.zillow.com/homedetails/5601-N-61st-Ln-Glendale-AZ-85301/7714491_zpid/,33.5189,-112.193,6551,2017-12-08
9024615,23850383,"4345 W Morrow Dr, Glendale, AZ 85308 ",85308,0.8674139380455017,0.8811536133289337,0.7643249257606737,245000,https://www.zillow.com/homedetails/4345-W-Morrow-Dr-Glendale-AZ-85308/7938791_zpid/,33.6569,-112.154,6552,2017-12-09
221575,23843969,"9841 N 11th St, Phoenix, AZ 85020 ",85020,0.8843749761581421,0.8642111420631409,0.764286708157691,169900,https://www.zillow.com/homedetails/9841-N-11th-St-Phoenix-AZ-85020/7787496_zpid/,33.5764,-112.059,6542,2017-11-29
417043,23856423,"4658 W Caron St, Glendale, AZ 85302 ",85302,0.8679204881191254,0.8805271983146667,0.7642275957634315,169900,https://www.zillow.com/homedetails/4658-W-Caron-St-Glendale-AZ-85302/7729693_zpid/,33.5681,-112.16,6557,2017-12-14
837022,23855805,"5743 N 38th Dr, Phoenix, AZ 85019 ",85019,0.8593572974205017,0.8890603184700012,0.7640204725241908,184900,https://www.zillow.com/homedetails/5743-N-38th-Dr-Phoenix-AZ-85019/7719105_zpid/,33.5219,-112.141,6554,2017-12-11
9012337,23837926,"3324 E Thunderbird Rd, Phoenix, AZ 85032 ",85032,0.8854641616344452,0.8627972602844238,0.7639760527382435,210000,https://www.zillow.com/homedetails/3324-E-Thunderbird-Rd-Phoenix-AZ-85032/8011849_zpid/,33.6116,-112.01100000000001,6529,2017-11-16
976127,23846057,"734 N Tangerine Dr, Chandler, AZ 85226 ",85226,0.8537063598632812,0.8948546648025513,0.7639431184952628,204900,https://www.zillow.com/homedetails/734-N-Tangerine-Dr-Chandler-AZ-85226/8156625_zpid/,33.3162,-111.928,6544,2017-12-01
9021200,23846457,"3819 N 63rd Ave, Phoenix, AZ 85033 ",85033,0.8628133237361908,0.885401040315628,0.7639358144342081,164900,https://www.zillow.com/homedetails/3819-N-63rd-Ave-Phoenix-AZ-85033/7496525_zpid/,33.4925,-112.195,6543,2017-11-30
9025493,23853409,"5955 W Mitchell Dr, Phoenix, AZ 85033 ",85033,0.8517390489578247,0.8968257308006287,0.7638614950330336,165000,https://www.zillow.com/homedetails/5955-W-Mitchell-Dr-Phoenix-AZ-85033/7489271_zpid/,33.4883,-112.189,6550,2017-12-07
8980323,23845343,"3044 W Christy Dr, Phoenix, AZ 85029 ",85029,0.8829910159111023,0.8649665415287018,0.763757685233541,223000,https://www.zillow.com/homedetails/3044-W-Christy-Dr-Phoenix-AZ-85029/7739771_zpid/,33.5847,-112.125,6538,2017-11-25
388499,23854247,"3827 W Glendale Ave, Phoenix, AZ 85051 ",85051,0.8622682988643646,0.8857180774211884,0.7637266198913837,149900,https://www.zillow.com/homedetails/3827-W-Glendale-Ave-Phoenix-AZ-85051/7758350_zpid/,33.5383,-112.14200000000001,6555,2017-12-12
410719,23854939,"4923 W Larkspur Dr, Glendale, AZ 85304 ",85304,0.8640852868556976,0.8838373422622681,0.7637108434224693,236000,https://www.zillow.com/homedetails/4923-W-Larkspur-Dr-Glendale-AZ-85304/7954371_zpid/,33.5993,-112.165,6557,2017-12-14
633870,23848061,"1763 W Natal Ave, Mesa, AZ 85202 ",85202,0.8632531762123108,0.8842662274837494,0.7633456294926244,245000,https://www.zillow.com/homedetails/1763-W-Natal-Ave-Mesa-AZ-85202/8251610_zpid/,33.3665,-111.87200000000001,6544,2017-12-01
232170,23847359,"17834 N 33rd Dr, Phoenix, AZ 85053 ",85053,0.8632100820541382,0.8837831020355225,0.7628904840261441,249999,https://www.zillow.com/homedetails/17834-N-33rd-Dr-Phoenix-AZ-85053/7941287_zpid/,33.6484,-112.131,6543,2017-11-30
9023848,23854287,"4413 N 67th Dr, Phoenix, AZ 85033 ",85033,0.8622722923755646,0.8846694231033325,0.7628259314538788,154900,https://www.zillow.com/homedetails/4413-N-67th-Dr-Phoenix-AZ-85033/7717116_zpid/,33.5007,-112.204,6554,2017-12-11
17574,23841802,"2016 W Whitton Ave, Phoenix, AZ 85015 ",85015,0.8902734220027924,0.8567835688591003,0.7627716397639563,249900,https://www.zillow.com/homedetails/2016-W-Whitton-Ave-Phoenix-AZ-85015/7517122_zpid/,33.4898,-112.103,6537,2017-11-24
441880,23831779,"3901 N 84th Ln, Phoenix, AZ 85037 ",85037,0.8564264178276062,0.8905790746212006,0.7627154466700592,174000,https://www.zillow.com/homedetails/3901-N-84th-Ln-Phoenix-AZ-85037/67081706_zpid/,33.4925,-112.241,6526,2017-11-13
337751,23859119,"14407 N 23rd St, Phoenix, AZ 85022 ",85022,0.8677912056446075,0.8788321316242218,0.7626427950614039,225000,https://www.zillow.com/homedetails/14407-N-23rd-St-Phoenix-AZ-85022/8010507_zpid/,33.618,-112.03399999999999,6550,2017-12-07
9021585,23824122,"12612 N 79th Ave, Peoria, AZ 85381 ",85381,0.8552175462245941,0.8917344510555267,0.762626949115643,225000,https://www.zillow.com/homedetails/12612-N-79th-Ave-Peoria-AZ-85381/8101178_zpid/,33.5997,-112.229,6522,2017-11-09
234034,23855362,"18447 N 31st Ave, Phoenix, AZ 85053 ",85053,0.8686692714691162,0.8776640594005585,0.7623997990741103,209000,https://www.zillow.com/homedetails/18447-N-31st-Ave-Phoenix-AZ-85053/7940519_zpid/,33.6544,-112.126,6551,2017-12-08
429014,23853279,"6313 W Osborn Rd, Phoenix, AZ 85033 ",85033,0.8603587746620178,0.8860730528831482,0.7623407260395787,160000,https://www.zillow.com/homedetails/6313-W-Osborn-Rd-Phoenix-AZ-85033/7498492_zpid/,33.4875,-112.196,6553,2017-12-10
9011928,23753384,"7411 W Wolf St, Phoenix, AZ 85033 ",85033,0.8512166440486908,0.8953839540481567,0.7621657244999192,229900,https://www.zillow.com/homedetails/7411-W-Wolf-St-Phoenix-AZ-85033/95184996_zpid/,33.5059,-112.219,6494,2017-10-12
9007274,23854421,"8426 W Bluefield Ave, Peoria, AZ 85382 ",85382,0.8641449809074402,0.8818679749965668,0.7620617844162911,229000,https://www.zillow.com/homedetails/8426-W-Bluefield-Ave-Peoria-AZ-85382/8129054_zpid/,33.6509,-112.241,6552,2017-12-09
456948,23848755,"4931 W Cheery Lynn Rd, Phoenix, AZ 85031 ",85031,0.8534721732139587,0.8928695619106293,0.76203932540046,169950,https://www.zillow.com/homedetails/4931-W-Cheery-Lynn-Rd-Phoenix-AZ-85031/7509876_zpid/,33.485,-112.165,6547,2017-12-04
225614,23844378,"1303 W Michelle Dr, Phoenix, AZ 85023 ",85023,0.8614506423473358,0.8845151662826538,0.7619661581601527,249900,https://www.zillow.com/homedetails/1303-W-Michelle-Dr-Phoenix-AZ-85023/7956957_zpid/,33.6494,-112.09,6543,2017-11-30
9021871,23807926,"12120 N 89th Dr, Peoria, AZ 85345 ",85345,0.8466273248195648,0.8999422490596771,0.761915698813497,249900,https://www.zillow.com/homedetails/12120-N-89th-Dr-Peoria-AZ-85345/7685583_zpid/,33.5947,-112.25200000000001,6507,2017-10-25
502152,23852968,"3805 N 51st Ave, Phoenix, AZ 85031 ",85031,0.8532015383243561,0.8929588198661804,0.7618738387701267,165000,https://www.zillow.com/homedetails/3805-N-51st-Ave-Phoenix-AZ-85031/7508895_zpid/,33.4919,-112.169,6543,2017-11-30
237449,23848566,"1633 W Michigan Ave, Phoenix, AZ 85023 ",85023,0.8676044344902039,0.8779346942901611,0.7617000339589453,202900,https://www.zillow.com/homedetails/1633-W-Michigan-Ave-Phoenix-AZ-85023/7957245_zpid/,33.6508,-112.095,6548,2017-12-05
828507,23855608,"3542 W Rovey Ave, Phoenix, AZ 85019 ",85019,0.8589668869972229,0.8865662813186646,0.7615310787809975,235000,https://www.zillow.com/homedetails/3542-W-Rovey-Ave-Phoenix-AZ-85019/7759119_zpid/,33.5255,-112.13600000000001,6547,2017-12-04
9020875,23856264,"319 W Utopia Rd, Phoenix, AZ 85027 ",85027,0.8678754568099976,0.8774383664131165,0.7615072230734015,229900,https://www.zillow.com/homedetails/319-W-Utopia-Rd-Phoenix-AZ-85027/7968688_zpid/,33.6617,-112.079,6558,2017-12-15
9019728,23843826,"17413 N 8th Ave, Phoenix, AZ 85023 ",85023,0.8882715702056885,0.8571712672710419,0.7614008675140482,184500,https://www.zillow.com/homedetails/17413-N-8th-Ave-Phoenix-AZ-85023/7963487_zpid/,33.6445,-112.085,6542,2017-11-29
231244,23855222,"15036 N 22nd Ln, Phoenix, AZ 85023 ",85023,0.8680469989776611,0.8769477903842926,0.7612318977031762,240000,https://www.zillow.com/homedetails/15036-N-22nd-Ln-Phoenix-AZ-85023/7961910_zpid/,33.6224,-112.109,6544,2017-12-01
423250,23854422,"8602 N 55TH Ave, Glendale, AZ 85302 ",85302,0.8542207777500153,0.8909925222396851,0.7611043253170315,229900,https://www.zillow.com/homedetails/8602-N-55th-Ave-Glendale-AZ-85302/7733439_zpid/,33.5627,-112.178,6554,2017-12-11
416554,23856417,"4528 W Sanna St, Glendale, AZ 85302 ",85302,0.863475114107132,0.8811533153057098,0.7608539594794754,161500,https://www.zillow.com/homedetails/4528-W-Sanna-St-Glendale-AZ-85302/7729871_zpid/,33.5705,-112.15799999999999,6553,2017-12-10
1469883,23825764,"8507 W Oraibi Dr, Peoria, AZ 85382 ",85382,0.8698024749755859,0.8737974464893341,0.7600311815837699,237500,https://www.zillow.com/homedetails/8507-W-Oraibi-Dr-Peoria-AZ-85382/8105886_zpid/,33.6613,-112.242,6524,2017-11-11
333228,23843165,"5702 N 19th Dr, Phoenix, AZ 85015 ",85015,0.8910904228687286,0.8529034554958344,0.7600141008239829,222000,https://www.zillow.com/homedetails/5702-N-19th-Dr-Phoenix-AZ-85015/7763351_zpid/,33.5212,-112.101,6540,2017-11-27
232395,23858251,"19615 N 6th Pl, Phoenix, AZ 85024 ",85024,0.8678754568099976,0.8756834864616394,0.7599842058338666,179990,https://www.zillow.com/homedetails/19615-N-6th-Pl-Phoenix-AZ-85024/7967758_zpid/,33.6645,-112.066,6553,2017-12-10
9024754,23854119,"2007 N 70th Dr, Phoenix, AZ 85035 ",85035,0.863953024148941,0.8795301616191864,0.759872742961103,166900,https://www.zillow.com/homedetails/2007-N-70th-Dr-Phoenix-AZ-85035/92350230_zpid/,33.4701,-112.211,6556,2017-12-13
402730,23831013,"15243 N 66th Dr, Glendale, AZ 85306 ",85306,0.858628660440445,0.8849347829818726,0.7598303672888811,239900,https://www.zillow.com/homedetails/15243-N-66th-Dr-Glendale-AZ-85306/8100497_zpid/,33.6248,-112.20100000000001,6524,2017-11-11
386006,23854095,"1749 W Surrey Ave, Phoenix, AZ 85029 ",85029,0.8618698418140411,0.8815959393978119,0.7598209528326931,220000,https://www.zillow.com/homedetails/1749-W-Surrey-Ave-Phoenix-AZ-85029/7784365_zpid/,33.6053,-112.098,6555,2017-12-12
432541,22734473,"7113 W Sheila Ln, Phoenix, AZ 85033 ",85033,0.8447604179382324,0.8994201719760895,0.7597945603805982,189000,https://www.zillow.com/homedetails/7113-W-Sheila-Ln-Phoenix-AZ-85033/55257199_zpid/,33.4878,-112.213,6485,2017-10-03
8979893,23855921,"7619 W Brown St, Peoria, AZ 85345 ",85345,0.8629205822944641,0.8801974058151245,0.759540457960064,235000,https://www.zillow.com/homedetails/7619-W-Brown-St-Peoria-AZ-85345/7682142_zpid/,33.5769,-112.223,6557,2017-12-14
493050,23849853,"5901 W Cypress St, Phoenix, AZ 85035 ",85035,0.862822949886322,0.8801603317260742,0.7594225337928151,184500,https://www.zillow.com/homedetails/5901-W-Cypress-St-Phoenix-AZ-85035/7491471_zpid/,33.4723,-112.18700000000001,6550,2017-12-07
9022258,23835030,"3023 W Krall St, Phoenix, AZ 85017 ",85017,0.8838094472885132,0.859100729227066,0.7592813406633319,249900,https://www.zillow.com/homedetails/3023-W-Krall-St-Phoenix-AZ-85017/7759497_zpid/,33.534,-112.125,6530,2017-11-17
476328,23852937,"3110 N 45th Dr, Phoenix, AZ 85031 ",85031,0.8559121787548065,0.8868665397167206,0.7590798722736745,210000,https://www.zillow.com/homedetails/3110-N-45th-Dr-Phoenix-AZ-85031/7509435_zpid/,33.4852,-112.15700000000001,6553,2017-12-10
460843,23849726,"2901 N 55th Ave, Phoenix, AZ 85031 ",85031,0.8522599339485168,0.8905364274978638,0.7589685168780775,159000,https://www.zillow.com/homedetails/2901-N-55th-Ave-Phoenix-AZ-85031/7497233_zpid/,33.4808,-112.178,6550,2017-12-07
247778,23854227,"3436 W Acoma Dr, Phoenix, AZ 85053 ",85053,0.8683638870716095,0.8740187585353851,0.7589663265352895,224900,https://www.zillow.com/homedetails/3436-W-Acoma-Dr-Phoenix-AZ-85053/7943333_zpid/,33.6178,-112.133,6556,2017-12-13
1346544,23849829,"4852 W Frier Dr, Glendale, AZ 85301 ",85301,0.8544556498527527,0.8882080018520355,0.758934345426896,229900,https://www.zillow.com/homedetails/4852-W-Frier-Dr-Glendale-AZ-85301/7724567_zpid/,33.5494,-112.164,6550,2017-12-07
8969477,23756066,"9324 W Mountain View Rd, Peoria, AZ 85345 ",85345,0.8452759385108948,0.8978220820426941,0.7589074030144438,214000,https://www.zillow.com/homedetails/9324-W-Mountain-View-Rd-Peoria-AZ-85345/7697441_zpid/,33.5733,-112.26100000000001,6500,2017-10-18
350131,22705127,"6405 W Preston Ln, Phoenix, AZ 85043 ",85043,0.8512153923511505,0.8913539052009583,0.7587341641393639,187000,https://www.zillow.com/homedetails/6405-W-Preston-Ln-Phoenix-AZ-85043/55257428_zpid/,33.4235,-112.198,6474,2017-09-22
9026144,23863524,"19230 N 20th Dr, Phoenix, AZ 85027 ",85027,0.8679590225219727,0.8739932775497437,0.7585903508728506,239900,https://www.zillow.com/homedetails/19230-N-20th-Dr-Phoenix-AZ-85027/7970085_zpid/,33.6605,-112.104,6557,2017-12-14
830401,23849161,"3811 W Flower St, Phoenix, AZ 85019 ",85019,0.8583897352218628,0.8836167752742767,0.7584875697652826,148000,https://www.zillow.com/homedetails/3811-W-Flower-St-Phoenix-AZ-85019/7507570_zpid/,33.4861,-112.14200000000001,6549,2017-12-06
1356244,23823740,"6825 N 60th Ave, Glendale, AZ 85301 ",85301,0.8534728586673737,0.8886397480964661,0.7584299061333457,182000,https://www.zillow.com/homedetails/6825-N-60th-Ave-Glendale-AZ-85301/7707716_zpid/,33.5378,-112.189,6521,2017-11-08
1412762,23830526,"7238 W Bethany Home Rd, Glendale, AZ 85303 ",85303,0.845062643289566,0.8974069654941559,0.7583651023669598,170000,https://www.zillow.com/homedetails/7238-W-Bethany-Home-Rd-Glendale-AZ-85303/7707005_zpid/,33.5235,-112.215,6523,2017-11-10
409622,23825573,"4447 W Mercer Ln, Glendale, AZ 85304 ",85304,0.8678423762321472,0.8735864758491516,0.758135363045195,227000,https://www.zillow.com/homedetails/4447-W-Mercer-Ln-Glendale-AZ-85304/7727953_zpid/,33.5852,-112.156,6526,2017-11-13
1350982,23846551,"5854 W Morten Ave, Glendale, AZ 85301 ",85301,0.8555035889148712,0.8856911957263947,0.7577119966142343,179000,https://www.zillow.com/homedetails/5854-W-Morten-Ave-Glendale-AZ-85301/7726731_zpid/,33.5479,-112.186,6544,2017-12-01
495290,23854344,"6237 W Monte Vista Rd, Phoenix, AZ 85035 ",85035,0.863953024148941,0.8769906759262085,0.7576787466168717,178900,https://www.zillow.com/homedetails/6237-W-Monte-Vista-Rd-Phoenix-AZ-85035/7491037_zpid/,33.4705,-112.194,6554,2017-12-11
9024757,23848700,"3126 N 43rd Ave, Phoenix, AZ 85031 ",85031,0.8534721732139587,0.8876376152038574,0.7575740044744919,175000,https://www.zillow.com/homedetails/3126-N-43rd-Ave-Phoenix-AZ-85031/7509773_zpid/,33.4851,-112.152,6547,2017-12-04
646338,23847131,"2249 W Portobello Ave, Mesa, AZ 85202 ",85202,0.8575843274593353,0.8833445608615875,0.7575424511413464,215000,https://www.zillow.com/homedetails/2249-W-Portobello-Ave-Mesa-AZ-85202/8170991_zpid/,33.3591,-111.882,6546,2017-12-03
1421999,23820040,"8134 W Mclellan Rd, Glendale, AZ 85303 ",85303,0.8438377380371094,0.8975448310375214,0.7573822000096015,222500,https://www.zillow.com/homedetails/8134-W-Mclellan-Rd-Glendale-AZ-85303/7462575_zpid/,33.5326,-112.235,6516,2017-11-03
9023943,23835011,"3643 E Winchcomb Dr, Phoenix, AZ 85032 ",85032,0.8884152173995972,0.8525044918060303,0.7573779634219875,248000,https://www.zillow.com/homedetails/3643-E-Winchcomb-Dr-Phoenix-AZ-85032/8012851_zpid/,33.6168,-112.00299999999999,6530,2017-11-17
379293,23843863,"2626 W Northview Ave, Phoenix, AZ 85051 ",85051,0.8857888579368591,0.8548052906990051,0.7571770022066566,134900,https://www.zillow.com/homedetails/2626-W-Northview-Ave-Phoenix-AZ-85051/7779482_zpid/,33.5439,-112.116,6542,2017-11-29
1090459,23810641,"631 W Caroline Ln, Chandler, AZ 85225 ",85225,0.8400776386260986,0.9010752737522125,0.7569731881981241,230000,https://www.zillow.com/homedetails/631-W-Caroline-Ln-Chandler-AZ-85225/8183658_zpid/,33.3304,-111.851,6509,2017-10-27
384150,23834117,"3417 W Diana Ave, Phoenix, AZ 85051 ",85051,0.8551012277603149,0.8852030634880066,0.7569382264057865,179900,https://www.zillow.com/homedetails/3417-W-Diana-Ave-Phoenix-AZ-85051/7753849_zpid/,33.5627,-112.133,6526,2017-11-13
9024051,23836152,"9867 N Balboa Dr, Sun City, AZ 85351 ",85351,0.8954624235630035,0.8451474010944366,0.7567977400519981,140000,https://www.zillow.com/homedetails/9867-N-Balboa-Dr-Sun-City-AZ-85351/7695490_zpid/,33.5723,-112.273,6528,2017-11-15
9023482,23827286,"15606 N 99th Dr, Sun City, AZ 85351 ",85351,0.8614047169685364,0.8781836032867432,0.7564714982356264,192500,https://www.zillow.com/homedetails/15606-N-99th-Dr-Sun-City-AZ-85351/2092083796_zpid/,33.6257,-112.271,6526,2017-11-13
410898,23823665,"5031 W Windrose Dr, Glendale, AZ 85304 ",85304,0.8646024167537689,0.8746079206466675,0.7561881219030973,229000,https://www.zillow.com/homedetails/5031-W-Windrose-Dr-Glendale-AZ-85304/7954728_zpid/,33.6006,-112.167,6521,2017-11-08
419496,23846538,"5437 W Orchid Ln, Glendale, AZ 85302 ",85302,0.8560582399368286,0.8830050230026245,0.7559037258470056,238000,https://www.zillow.com/homedetails/5437-W-Orchid-Ln-Glendale-AZ-85302/7733771_zpid/,33.5625,-112.177,6544,2017-12-01
9023486,23827318,"9908 W Crosby Cir N, Sun City, AZ 85351 ",85351,0.878662109375,0.8601010143756866,0.755738171566918,140000,https://www.zillow.com/homedetails/9908-W-Crosby-Cir-N-Sun-City-AZ-85351/7694583_zpid/,33.5838,-112.273,6526,2017-11-13
9023660,23829074,"3140 E Michigan Ave, Phoenix, AZ 85032 ",85032,0.8590254485607147,0.8794205784797668,0.7554446569021049,205000,https://www.zillow.com/homedetails/3140-E-Michigan-Ave-Phoenix-AZ-85032/7999282_zpid/,33.652,-112.014,6523,2017-11-10
378692,23849012,"10228 N 36th Ave, Phoenix, AZ 85051 ",85051,0.860409289598465,0.8778969347476959,0.755350677966935,210000,https://www.zillow.com/homedetails/10228-N-36th-Ave-Phoenix-AZ-85051/7745264_zpid/,33.5794,-112.13600000000001,6548,2017-12-05
8456513,23856311,"7372 W Mescal St, Peoria, AZ 85345 ",85345,0.8622124791145325,0.8759652972221375,0.7552682105361974,199850,https://www.zillow.com/homedetails/7372-W-Mescal-St-Peoria-AZ-85345/7700861_zpid/,33.5857,-112.21799999999999,6558,2017-12-15
829866,23846790,"3725 W Hazelwood St, Phoenix, AZ 85019 ",85019,0.8562932014465332,0.8819039762020111,0.7551683791504473,199599,https://www.zillow.com/homedetails/3725-W-Hazelwood-St-Phoenix-AZ-85019/7507053_zpid/,33.5033,-112.14,6545,2017-12-02
9021813,23820289,"8528 W Eva St, Peoria, AZ 85345 ",85345,0.8412664234638214,0.8976350426673889,0.755150221920589,186000,https://www.zillow.com/homedetails/8528-W-Eva-St-Peoria-AZ-85345/7696910_zpid/,33.5674,-112.243,6516,2017-11-03
422357,23752505,"6612 W Brown St, Glendale, AZ 85302 ",85302,0.8425949513912201,0.8957868814468384,0.7547855038295914,199000,https://www.zillow.com/homedetails/6612-W-Brown-St-Glendale-AZ-85302/7706362_zpid/,33.5783,-112.20100000000001,6496,2017-10-14
9024018,23835783,"1725 W Auburn St, Mesa, AZ 85201 ",85201,0.8716125786304474,0.8659540414810181,0.7547764350707276,189900,https://www.zillow.com/homedetails/1725-W-Auburn-St-Mesa-AZ-85201/7612538_zpid/,33.4176,-111.869,6529,2017-11-16
9024049,23836147,"9545 W Briarwood Cir N, Sun City, AZ 85351 ",85351,0.8886649310588837,0.8492169082164764,0.7546692851942334,210000,https://www.zillow.com/homedetails/9545-W-Briarwood-Cir-N-Sun-City-AZ-85351/7904970_zpid/,33.6371,-112.266,6530,2017-11-17
9023830,23833574,"4019 W Woodridge Dr, Glendale, AZ 85308 ",85308,0.8556666970252991,0.8818515539169312,0.7545710064067279,217500,https://www.zillow.com/homedetails/4019-W-Woodridge-Dr-Glendale-AZ-85308/7946693_zpid/,33.64,-112.146,6524,2017-11-11
248492,23858268,"2204 W Le Marche Ave, Phoenix, AZ 85023 ",85023,0.8684827983379364,0.868779182434082,0.7545197754980961,229000,https://www.zillow.com/homedetails/2204-W-Le-Marche-Ave-Phoenix-AZ-85023/89457012_zpid/,33.632,-112.10600000000001,6558,2017-12-15
229748,23841145,"16450 N 29th Ln, Phoenix, AZ 85053 ",85053,0.8947266936302185,0.8432126939296722,0.7544449056667251,168000,https://www.zillow.com/homedetails/16450-N-29th-Ln-Phoenix-AZ-85053/7955346_zpid/,33.6357,-112.12200000000001,6538,2017-11-25
8969573,23854200,"3002 N 54th Ln, Phoenix, AZ 85031 ",85031,0.8559121787548065,0.8809183239936829,0.7539887219944656,199000,https://www.zillow.com/homedetails/3002-N-54th-Ln-Phoenix-AZ-85031/7497284_zpid/,33.4831,-112.177,6555,2017-12-12
561112,23847992,"1043 W Frito Ave, Mesa, AZ 85210 ",85210,0.851463794708252,0.8854821026325226,0.7539559512537295,195000,https://www.zillow.com/homedetails/1043-W-Frito-Ave-Mesa-AZ-85210/7598695_zpid/,33.3951,-111.854,6543,2017-11-30
829953,23830964,"3730 W Stella Ln, Phoenix, AZ 85019 ",85019,0.8456816375255585,0.8913005292415619,0.753756491096401,209900,https://www.zillow.com/homedetails/3730-W-Stella-Ln-Phoenix-AZ-85019/7761178_zpid/,33.5307,-112.14,6524,2017-11-11
422412,23760087,"6622 W Golden Ln, Glendale, AZ 85302 ",85302,0.8446784913539886,0.8922954201698303,0.7537027493511257,190000,https://www.zillow.com/homedetails/6622-W-Golden-Ln-Glendale-AZ-85302/50187805_zpid/,33.5652,-112.20200000000001,6502,2017-10-20
8988163,23818314,"2650 E Hartford Ave, Phoenix, AZ 85032 ",85032,0.8453874886035919,0.8913992643356323,0.7535777854197896,249500,https://www.zillow.com/homedetails/2650-E-Hartford-Ave-Phoenix-AZ-85032/59266670_zpid/,33.6425,-112.025,6515,2017-11-02
693332,23841794,"1343 E Indianola Ave, Phoenix, AZ 85014 ",85014,0.8921003043651581,0.8444672524929047,0.753349492975329,249900,https://www.zillow.com/homedetails/1343-E-Indianola-Ave-Phoenix-AZ-85014/7534225_zpid/,33.4917,-112.053,6536,2017-11-23
1109968,23827087,"1231 W Tulsa St, Chandler, AZ 85224 ",85224,0.8491145372390747,0.8868843019008636,0.7530663535931517,245000,https://www.zillow.com/homedetails/1231-W-Tulsa-St-Chandler-AZ-85224/8185626_zpid/,33.3123,-111.865,6524,2017-11-11
380026,23830832,"2815 W Echo Ln, Phoenix, AZ 85051 ",85051,0.8806663751602173,0.854606032371521,0.7526227967186827,179900,https://www.zillow.com/homedetails/2815-W-Echo-Ln-Phoenix-AZ-85051/7750984_zpid/,33.5592,-112.12,6527,2017-11-14
1859,23650472,"9128 W Alvarado St, Phoenix, AZ 85037 ",85037,0.8346739411354065,0.9015738368034363,0.752520187589294,214000,https://www.zillow.com/homedetails/9128-W-Alvarado-St-Phoenix-AZ-85037/60047210_zpid/,33.4712,-112.257,6494,2017-10-12
229518,23847356,"16414 N 30th Dr, Phoenix, AZ 85053 ",85053,0.8642696142196655,0.8704807758331299,0.7523300843149343,233900,https://www.zillow.com/homedetails/16414-N-30th-Dr-Phoenix-AZ-85053/7954069_zpid/,33.6359,-112.125,6544,2017-12-01
9021439,23856224,"17630 N 33rd Ln, Phoenix, AZ 85053 ",85053,0.8672517240047455,0.8672952950000763,0.7521633398100205,215000,https://www.zillow.com/homedetails/17630-N-33rd-Ln-Phoenix-AZ-85053/7942069_zpid/,33.6462,-112.131,6558,2017-12-15
388897,23844442,"2421 W Willow Ave, Phoenix, AZ 85029 ",85029,0.8583908081054688,0.8762160539627075,0.7521358066360335,230000,https://www.zillow.com/homedetails/2421-W-Willow-Ave-Phoenix-AZ-85029/7738217_zpid/,33.6074,-112.111,6543,2017-11-30
9019582,23850094,"19025 N 43rd Dr, Glendale, AZ 85308 ",85308,0.870749294757843,0.8633949756622314,0.7518005661553531,200000,https://www.zillow.com/homedetails/19025-N-43rd-Dr-Glendale-AZ-85308/7939302_zpid/,33.6589,-112.15299999999999,6551,2017-12-08
417610,23855747,"4832 W Beryl Ave, Glendale, AZ 85302 ",85302,0.86011603474617,0.8735117018222809,0.7513214212757591,217500,https://www.zillow.com/homedetails/4832-W-Beryl-Ave-Glendale-AZ-85302/7728604_zpid/,33.5797,-112.163,6557,2017-12-14
9023260,23825739,"6913 W Beryl Ave, Peoria, AZ 85345 ",85345,0.8496423959732056,0.8841924965381622,0.7512474312602144,197000,https://www.zillow.com/homedetails/6913-W-Beryl-Ave-Peoria-AZ-85345/7701889_zpid/,33.5787,-112.208,6524,2017-11-11
1356715,23831093,"7327 N 47th Ave, Glendale, AZ 85301 ",85301,0.8464276492595673,0.8874461650848389,0.751158971357178,189500,https://www.zillow.com/homedetails/7327-N-47th-Ave-Glendale-AZ-85301/7725576_zpid/,33.545,-112.16,6523,2017-11-10
416088,23855713,"4419 W Turquoise Ave, Glendale, AZ 85302 ",85302,0.8577816188335419,0.8754856586456299,0.750975505538598,242000,https://www.zillow.com/homedetails/4419-W-Turquoise-Ave-Glendale-AZ-85302/7729244_zpid/,33.5755,-112.154,6548,2017-12-05
7449241,23819586,"11935 N 68th Ave, Peoria, AZ 85345 ",85345,0.8343778848648071,0.8996723890304565,0.7506667450305002,245000,https://www.zillow.com/homedetails/11935-N-68th-Ave-Peoria-AZ-85345/7700139_zpid/,33.594,-112.204,6516,2017-11-03
8989019,22747254,"2049 N 77th Gln, Phoenix, AZ 85035 ",85035,0.8328369855880737,0.9013263583183289,0.750657927292913,168250,https://www.zillow.com/homedetails/2049-N-77th-Gln-Phoenix-AZ-85035/95149994_zpid/,33.4706,-112.226,6487,2017-10-05
1864574,23822334,"9873 W Escuda Dr, Peoria, AZ 85382 ",85382,0.8725808262825012,0.860238641500473,0.7506277446006191,245000,https://www.zillow.com/homedetails/9873-W-Escuda-Dr-Peoria-AZ-85382/7896125_zpid/,33.6652,-112.271,6519,2017-11-06
467341,23860892,"3126 W Citrus Way, Phoenix, AZ 85017 ",85017,0.862432211637497,0.8702245056629181,0.7505096450400179,199000,https://www.zillow.com/homedetails/3126-W-Citrus-Way-Phoenix-AZ-85017/7760886_zpid/,33.53,-112.12700000000001,6554,2017-12-11
9023639,23828239,"3202 N 64th Dr, Phoenix, AZ 85033 ",85033,0.848825603723526,0.8835964798927307,0.7500193154929296,193000,https://www.zillow.com/homedetails/3202-N-64th-Dr-Phoenix-AZ-85033/7498616_zpid/,33.4854,-112.199,6523,2017-11-10
419794,23856376,"5539 W Hatcher Rd, Glendale, AZ 85302 ",85302,0.8599750697612762,0.872050404548645,0.7499416074870702,204999,https://www.zillow.com/homedetails/5539-W-Hatcher-Rd-Glendale-AZ-85302/7734771_zpid/,33.5705,-112.179,6559,2017-12-16
830701,23830958,"3833 W Ocotillo Rd, Phoenix, AZ 85019 ",85019,0.8483085334300995,0.8839924335479736,0.7498983248663862,199900,https://www.zillow.com/homedetails/3833-W-Ocotillo-Rd-Phoenix-AZ-85019/7758511_zpid/,33.5346,-112.14200000000001,6525,2017-11-12
1114416,23820184,"1617 W Stottler Dr, Chandler, AZ 85224 ",85224,0.8365544974803925,0.8963797986507416,0.7498705520118465,229900,https://www.zillow.com/homedetails/1617-W-Stottler-Dr-Chandler-AZ-85224/8193816_zpid/,33.3325,-111.87,6516,2017-11-03
7437201,23841799,"2038 W Alvarado Rd, Phoenix, AZ 85009 ",85009,0.8922571837902069,0.8398208022117615,0.7493361438698987,235000,https://www.zillow.com/homedetails/2038-W-Alvarado-Rd-Phoenix-AZ-85009/7519729_zpid/,33.4727,-112.104,6539,2017-11-26
453577,23828246,"4508 N 50th Ave, Phoenix, AZ 85031 ",85031,0.8538806736469269,0.8774609267711639,0.7492469272502182,155000,https://www.zillow.com/homedetails/4508-N-50th-Ave-Phoenix-AZ-85031/7720645_zpid/,33.5027,-112.167,6520,2017-11-07
9206,23840092,"1220 W Ironwood Dr, Phoenix, AZ 85021 ",85021,0.8819925487041473,0.8493805229663849,0.7491472922707834,169000,https://www.zillow.com/homedetails/1220-W-Ironwood-Dr-Phoenix-AZ-85021/7781692_zpid/,33.576,-112.089,6534,2017-11-21
9020195,23820290,"8638 W Laurel Ln, Peoria, AZ 85345 ",85345,0.8440000116825104,0.8869219720363617,0.7485621547601644,247700,https://www.zillow.com/homedetails/8638-W-Laurel-Ln-Peoria-AZ-85345/7685468_zpid/,33.5934,-112.245,6516,2017-11-03
1880865,23823728,"6344 W Tuckey Ln, Glendale, AZ 85301 ",85301,0.8484331965446472,0.8820360898971558,0.7483486992191857,199900,https://www.zillow.com/homedetails/6344-W-Tuckey-Ln-Glendale-AZ-85301/7708037_zpid/,33.5341,-112.197,6521,2017-11-08
1346962,23823701,"4935 W Lamar Rd, Glendale, AZ 85301 ",85301,0.8564793467521667,0.8736000061035156,0.748220362550228,149900,https://www.zillow.com/homedetails/4935-W-Lamar-Rd-Glendale-AZ-85301/7722382_zpid/,33.5365,-112.166,6520,2017-11-07
9020725,23815067,"9537 W Sunnyslope Ln, Peoria, AZ 85345 ",85345,0.8466273248195648,0.8836986124515533,0.74816339220662,224000,https://www.zillow.com/homedetails/9537-W-Sunnyslope-Ln-Peoria-AZ-85345/7697879_zpid/,33.5693,-112.265,6512,2017-10-30
9025615,23856149,"17636 N 35th St, Phoenix, AZ 85032 ",85032,0.8718295097351074,0.8578595221042633,0.7479072465777534,235000,https://www.zillow.com/homedetails/17636-N-35th-St-Phoenix-AZ-85032/7998341_zpid/,33.6469,-112.005,6557,2017-12-14
420568,22722083,"5807 W Puget Ave, Glendale, AZ 85302 ",85302,0.8412949740886688,0.8889311254024506,0.7478532881120659,200000,https://www.zillow.com/homedetails/5807-W-Puget-Ave-Glendale-AZ-85302/7733279_zpid/,33.5668,-112.185,6477,2017-09-25
337572,23850351,"2307 W Alice Ave, Phoenix, AZ 85021 ",85021,0.8615201711654663,0.8679905235767365,0.7477913444418327,211900,https://www.zillow.com/homedetails/2307-W-Alice-Ave-Phoenix-AZ-85021/7782260_zpid/,33.5637,-112.109,6551,2017-12-08
394881,23830983,"7533 N 30th Ave, Phoenix, AZ 85051 ",85051,0.8500058352947235,0.8796028196811676,0.7476675294706849,237900,https://www.zillow.com/homedetails/7533-N-30th-Ave-Phoenix-AZ-85051/95143966_zpid/,33.5471,-112.124,6524,2017-11-11
8998472,23817219,"6708 W Highland Ave, Phoenix, AZ 85033 ",85033,0.8432762622833252,0.8861425518989563,0.7472629790155594,168500,https://www.zillow.com/homedetails/6708-W-Highland-Ave-Phoenix-AZ-85033/7716706_zpid/,33.5065,-112.204,6514,2017-11-01
422454,22731449,"6652 W Delmonico Ln, Glendale, AZ 85302 ",85302,0.845891147851944,0.8825249075889587,0.7465200070883551,235000,https://www.zillow.com/homedetails/6652-W-Delmonico-Ln-Glendale-AZ-85302/50187742_zpid/,33.5645,-112.20200000000001,6481,2017-09-29
337615,23862924,"2310 W Echo Ln, Phoenix, AZ 85021 ",85021,0.8591017127037048,0.8685843348503113,0.7462022896975107,190000,https://www.zillow.com/homedetails/2310-W-Echo-Ln-Phoenix-AZ-85021/7782737_zpid/,33.5598,-112.109,6558,2017-12-15
388115,23831776,"3814 W Davidson Ln, Phoenix, AZ 85051 ",85051,0.8495489060878754,0.878252774477005,0.7461186838255811,192000,https://www.zillow.com/homedetails/3814-W-Davidson-Ln-Phoenix-AZ-85051/7746767_zpid/,33.5701,-112.141,6520,2017-11-07
139877,23857282,"9806 W Wrangler Dr, Sun City, AZ 85373 ",85373,0.8590092957019806,0.8685715794563293,0.7461110607355383,184900,https://www.zillow.com/homedetails/9806-W-Wrangler-Dr-Sun-City-AZ-85373/8095456_zpid/,33.6403,-112.271,6544,2017-12-01
457725,23828275,"5216 W Mulberry Dr, Phoenix, AZ 85031 ",85031,0.8424683511257172,0.8855257034301758,0.746027379248261,175000,https://www.zillow.com/homedetails/5216-W-Mulberry-Dr-Phoenix-AZ-85031/7497059_zpid/,33.4869,-112.17200000000001,6523,2017-11-10
9001785,23834299,"6614 W Weldon Ave, Phoenix, AZ 85033 ",85033,0.8476885855197906,0.8796796202659607,0.7456943730138388,149000,https://www.zillow.com/homedetails/6614-W-Weldon-Ave-Phoenix-AZ-85033/7489041_zpid/,33.4907,-112.20200000000001,6524,2017-11-11
393978,23854231,"3508 W Lupine Ave, Phoenix, AZ 85029 ",85029,0.8618698418140411,0.8651706874370575,0.745664523523522,189000,https://www.zillow.com/homedetails/3508-W-Lupine-Ave-Phoenix-AZ-85029/7743821_zpid/,33.5904,-112.135,6555,2017-12-12
324692,23842158,"1622 W Clarendon Ave, Phoenix, AZ 85015 ",85015,0.8829039037227631,0.8444755375385284,0.7455907486911455,233500,https://www.zillow.com/homedetails/1622-W-Clarendon-Ave-Phoenix-AZ-85015/7516431_zpid/,33.4916,-112.095,6540,2017-11-27
9021916,23821887,"5114 W Vogel Ave, Glendale, AZ 85302 ",85302,0.8394047617912292,0.8879764676094055,0.7453716752698902,152000,https://www.zillow.com/homedetails/5114-W-Vogel-Ave-Glendale-AZ-85302/92348849_zpid/,33.5721,-112.17,6518,2017-11-05
391111,23854270,"4056 W Camino Acequia, Phoenix, AZ 85051 ",85051,0.8634110391139984,0.8630502820014954,0.7451671407905405,236000,https://www.zillow.com/homedetails/4056-W-Camino-Acequia-Phoenix-AZ-85051/7745951_zpid/,33.5776,-112.145,6557,2017-12-14
348914,23822646,"3525 W Melvin St, Phoenix, AZ 85009 ",85009,0.8602177500724792,0.8661030530929565,0.7450372196625281,159900,https://www.zillow.com/homedetails/3525-W-Melvin-St-Phoenix-AZ-85009/7505973_zpid/,33.4521,-112.13600000000001,6520,2017-11-07
1351717,23840567,"6001 W Northview Ave, Glendale, AZ 85301 ",85301,0.8881575465202332,0.838573157787323,0.7447850783981131,179000,https://www.zillow.com/homedetails/6001-W-Northview-Ave-Glendale-AZ-85301/7705497_zpid/,33.5431,-112.189,6534,2017-11-21
8945113,23759637,"7920 W Sweetwater Ave, Peoria, AZ 85381 ",85381,0.8313468098640442,0.8952749073505402,0.7442839381771993,229900,https://www.zillow.com/homedetails/7920-W-Sweetwater-Ave-Peoria-AZ-85381/8100881_zpid/,33.6029,-112.23,6501,2017-10-19
534651,23856233,"1931 W Ashland Ave, Phoenix, AZ 85009 ",85009,0.8658919930458069,0.8594874739646912,0.7442233218291925,229900,https://www.zillow.com/homedetails/1931-W-Ashland-Ave-Phoenix-AZ-85009/7519553_zpid/,33.4752,-112.101,6558,2017-12-15
343249,23831593,"2019 N 37th Ave, Phoenix, AZ 85009 ",85009,0.8525101542472839,0.872814416885376,0.7440831531682051,145000,https://www.zillow.com/homedetails/2019-N-37th-Ave-Phoenix-AZ-85009/7511305_zpid/,33.4704,-112.139,6523,2017-11-10
8945979,23814510,"9605 W Campana Dr, Sun City, AZ 85351 ",85351,0.8425463140010834,0.8830347061157227,0.743997636772832,194300,https://www.zillow.com/homedetails/9605-W-Campana-Dr-Sun-City-AZ-85351/7905011_zpid/,33.6372,-112.26700000000001,6512,2017-10-30
9025999,23861141,"9232 W Meadow Hills Dr, Sun City, AZ 85351 ",85351,0.8694957792758942,0.8550997972488403,0.7435056645675395,241800,https://www.zillow.com/homedetails/9232-W-Meadow-Hills-Dr-Sun-City-AZ-85351/2091823839_zpid/,33.6111,-112.259,6553,2017-12-10
402667,23823693,"15234 N 51st Dr, Glendale, AZ 85306 ",85306,0.8623452484607697,0.8621699512004852,0.7434881607833921,245000,https://www.zillow.com/homedetails/15234-N-51st-Dr-Glendale-AZ-85306/7911002_zpid/,33.6236,-112.169,6519,2017-11-06
41734,23815416,"637 N 69th Ave, Phoenix, AZ 85043 ",85043,0.8353700041770935,0.8900010287761688,0.7434801631263657,169900,https://www.zillow.com/homedetails/637-N-69th-Ave-Phoenix-AZ-85043/7476326_zpid/,33.4562,-112.208,6513,2017-10-31
9025997,23861142,"15848 N 99th Dr, Sun City, AZ 85351 ",85351,0.8674279451370239,0.8568175733089447,0.7432275069726693,239500,https://www.zillow.com/homedetails/15848-N-99th-Dr-Sun-City-AZ-85351/8091359_zpid/,33.6291,-112.272,6558,2017-12-15
391100,23830817,"3110 W Willow Ave, Phoenix, AZ 85029 ",85029,0.8606871366500854,0.8632923662662506,0.7430246348135761,195000,https://www.zillow.com/homedetails/3110-W-Willow-Ave-Phoenix-AZ-85029/7745069_zpid/,33.6072,-112.126,6522,2017-11-09
526828,22737450,"9418 W Sheridan St, Phoenix, AZ 85037 ",85037,0.8346739411354065,0.8901787400245667,0.7430089972512555,214500,https://www.zillow.com/homedetails/9418-W-Sheridan-St-Phoenix-AZ-85037/67773035_zpid/,33.475,-112.262,6480,2017-09-28
1349271,23815006,"5556 W Gardenia Ave, Glendale, AZ 85301 ",85301,0.8389155268669128,0.8855059742927551,0.7428647109676056,174900,https://www.zillow.com/homedetails/5556-W-Gardenia-Ave-Glendale-AZ-85301/2136646466_zpid/,33.5451,-112.18,6512,2017-10-30
9018003,23819878,"1842 W Alamo Dr, Chandler, AZ 85224 ",85224,0.8290110230445862,0.895959198474884,0.742760051733871,244500,https://www.zillow.com/homedetails/1842-W-Alamo-Dr-Chandler-AZ-85224/8199834_zpid/,33.3482,-111.875,6516,2017-11-03
450658,23828592,"8740 W Earll Dr, Phoenix, AZ 85037 ",85037,0.8326131403446198,0.8918699324131012,0.742582625205416,129999,https://www.zillow.com/homedetails/8740-W-Earll-Dr-Phoenix-AZ-85037/7479995_zpid/,33.4838,-112.249,6509,2017-10-27
392885,23819817,"4216 W Royal Palm Rd, Phoenix, AZ 85051 ",85051,0.8417963087558746,0.8819518089294434,0.7424237772573719,215000,https://www.zillow.com/homedetails/4216-W-Royal-Palm-Rd-Phoenix-AZ-85051/7753122_zpid/,33.5558,-112.15,6516,2017-11-03
484854,23817893,"2833 N 73rd Dr, Phoenix, AZ 85035 ",85035,0.8327625393867493,0.8914899230003357,0.7423994121154571,190000,https://www.zillow.com/homedetails/2833-N-73rd-Dr-Phoenix-AZ-85035/92692586_zpid/,33.4796,-112.21600000000001,6514,2017-11-01
454219,23854293,"4602 N 50th Dr, Phoenix, AZ 85031 ",85031,0.8625884056091309,0.8606438636779785,0.7423814181672697,229800,https://www.zillow.com/homedetails/4602-N-50th-Dr-Phoenix-AZ-85031/7720623_zpid/,33.5044,-112.16799999999999,6554,2017-12-11
447418,23856851,"8311 W Coolidge St, Phoenix, AZ 85037 ",85037,0.8633292615413666,0.8593279421329498,0.7418829577035018,189900,https://www.zillow.com/homedetails/8311-W-Coolidge-St-Phoenix-AZ-85037/7480994_zpid/,33.5048,-112.238,6560,2017-12-17
450587,23832013,"8735 W Catalina Dr, Phoenix, AZ 85037 ",85037,0.8333994448184967,0.8901279270648956,0.7418321202333233,164000,https://www.zillow.com/homedetails/8735-W-Catalina-Dr-Phoenix-AZ-85037/7479803_zpid/,33.4815,-112.24799999999999,6517,2017-11-04
380868,23801450,"12018 N 42nd Dr, Phoenix, AZ 85029 ",85029,0.8450599014759064,0.8776297867298126,0.7416497411062162,189000,https://www.zillow.com/homedetails/12018-N-42nd-Dr-Phoenix-AZ-85029/7744164_zpid/,33.595,-112.15100000000001,6503,2017-10-21
9022078,23810726,"1132 E Villa Maria Dr, Phoenix, AZ 85022 ",85022,0.8427672386169434,0.8798612356185913,0.741518223908372,215000,https://www.zillow.com/homedetails/1132-E-Villa-Maria-Dr-Phoenix-AZ-85022/8002438_zpid/,33.6518,-112.057,6509,2017-10-27
9001435,23827303,"9401 W Hidden Valley Cir, Sun City, AZ 85351 ",85351,0.8596139550209045,0.8625475764274597,0.7414579335665046,180000,https://www.zillow.com/homedetails/9401-W-Hidden-Valley-Cir-Sun-City-AZ-85351/7922785_zpid/,33.631,-112.262,6525,2017-11-12
264257,23752112,"7723 W Oraibi Dr, Glendale, AZ 85308 ",85308,0.8445911407470703,0.8777789771556854,0.7413643476397169,244995,https://www.zillow.com/homedetails/7723-W-Oraibi-Dr-Glendale-AZ-85308/7891683_zpid/,33.6615,-112.22399999999999,6495,2017-10-13
9023081,23823763,"7727 W Julie Dr, Glendale, AZ 85308 ",85308,0.8670182824134827,0.8549006581306458,0.7412145002465884,185000,https://www.zillow.com/homedetails/7727-W-Julie-Dr-Glendale-AZ-85308/7891914_zpid/,33.6539,-112.226,6519,2017-11-06
702539,23848156,"545 S Stewart, Mesa, AZ 85202 ",85202,0.8624484837055206,0.8593913614749908,0.7411807766137288,199900,https://www.zillow.com/homedetails/545-S-Stewart-Mesa-AZ-85202/7604679_zpid/,33.4045,-111.859,6547,2017-12-04
386285,23856269,"3631 W Caron St, Phoenix, AZ 85051 ",85051,0.8597801625728607,0.8620399534702301,0.7411648513389357,239900,https://www.zillow.com/homedetails/3631-W-Caron-St-Phoenix-AZ-85051/7746596_zpid/,33.5684,-112.13799999999999,6558,2017-12-15
392666,23759961,"4208 W El Camino Dr, Phoenix, AZ 85051 ",85051,0.8411461114883423,0.8809911608695984,0.7410422892210633,215000,https://www.zillow.com/homedetails/4208-W-El-Camino-Dr-Phoenix-AZ-85051/7752812_zpid/,33.5573,-112.15,6503,2017-10-21
1344157,23837960,"4614 W Palo Verde Dr, Glendale, AZ 85301 ",85301,0.8780757188796997,0.8438687026500702,0.7409806177195399,229999,https://www.zillow.com/homedetails/4614-W-Palo-Verde-Dr-Glendale-AZ-85301/7717953_zpid/,33.5235,-112.15899999999999,6533,2017-11-20
833718,23856899,"6036 N 36TH Dr, Phoenix, AZ 85019 ",85019,0.8572134673595428,0.8641382455825806,0.740750941773836,183000,https://www.zillow.com/homedetails/6036-N-36th-Dr-Phoenix-AZ-85019/7759071_zpid/,33.5253,-112.137,6559,2017-12-16
435667,22734446,"7942 W Verde Ln, Phoenix, AZ 85033 ",85033,0.8322356641292572,0.8900695145130157,0.7407475935319452,175000,https://www.zillow.com/homedetails/7942-W-Verde-Ln-Phoenix-AZ-85033/7479526_zpid/,33.4815,-112.23100000000001,6484,2017-10-02
423069,23831999,"8502 N 54th Dr, Glendale, AZ 85302 ",85302,0.8548988699913025,0.8663190603256226,0.7406151857243017,196900,https://www.zillow.com/homedetails/8502-N-54th-Dr-Glendale-AZ-85302/7733696_zpid/,33.5606,-112.177,6522,2017-11-09
488821,23854315,"5234 W Cambridge Ave, Phoenix, AZ 85035 ",85035,0.8559926152229309,0.8650394678115845,0.7404673963230906,154900,https://www.zillow.com/homedetails/5234-W-Cambridge-Ave-Phoenix-AZ-85035/7499579_zpid/,33.4773,-112.17299999999999,6557,2017-12-14
1959564,23823575,"18402 N 30th Pl, Phoenix, AZ 85032 ",85032,0.858569860458374,0.8622872531414032,0.7403338466046492,210000,https://www.zillow.com/homedetails/18402-N-30th-Pl-Phoenix-AZ-85032/7999245_zpid/,33.6532,-112.01799999999999,6521,2017-11-08
831318,23816388,"4008 W Citrus Way, Phoenix, AZ 85019 ",85019,0.8338660895824432,0.8876016139984131,0.7401408869719219,205000,https://www.zillow.com/homedetails/4008-W-Citrus-Way-Phoenix-AZ-85019/7761902_zpid/,33.5299,-112.145,6513,2017-10-31
22933,22734467,"8739 W Fairmount Ave, Phoenix, AZ 85037 ",85037,0.8405731022357941,0.8803565800189972,0.7400040615402625,170000,https://www.zillow.com/homedetails/8739-W-Fairmount-Ave-Phoenix-AZ-85037/7471067_zpid/,33.492,-112.24799999999999,6485,2017-10-03
327955,23853549,"2119 W Amelia Ave, Phoenix, AZ 85015 ",85015,0.8596117496490479,0.8607631921768188,0.7399221536606149,190000,https://www.zillow.com/homedetails/2119-W-Amelia-Ave-Phoenix-AZ-85015/7515982_zpid/,33.494,-112.105,6551,2017-12-08
1092802,23820224,"731 W Palomino Dr, Chandler, AZ 85225 ",85225,0.8332360684871674,0.8879599571228027,0.7398802636470379,245900,https://www.zillow.com/homedetails/731-W-Palomino-Dr-Chandler-AZ-85225/8177603_zpid/,33.3404,-111.855,6516,2017-11-03
1864035,23827306,"9916 W Pinehurst Dr, Sun City, AZ 85351 ",85351,0.8780599236488342,0.842609167098999,0.7398613409287549,179000,https://www.zillow.com/homedetails/9916-W-Pinehurst-Dr-Sun-City-AZ-85351/7694613_zpid/,33.5818,-112.274,6526,2017-11-13
1672407,23856036,"9529 W Appaloosa Dr, Sun City, AZ 85373 ",85373,0.8671743273735046,0.85312220454216,0.7398056738912491,192500,https://www.zillow.com/homedetails/9529-W-Appaloosa-Dr-Sun-City-AZ-85373/8095188_zpid/,33.6455,-112.26799999999999,6544,2017-12-01
395130,23830853,"3719 W Joan De Arc Ave, Phoenix, AZ 85029 ",85029,0.8595608174800873,0.8605988323688507,0.7397370358733779,205900,https://www.zillow.com/homedetails/3719-W-Joan-De-Arc-Ave-Phoenix-AZ-85029/7741718_zpid/,33.607,-112.139,6526,2017-11-13
1413226,22747483,"7301 W Cavalier Dr, Glendale, AZ 85303 ",85303,0.830086886882782,0.8911122679710388,0.739700608383135,179900,https://www.zillow.com/homedetails/7301-W-Cavalier-Dr-Glendale-AZ-85303/7707198_zpid/,33.5243,-112.21600000000001,6492,2017-10-10
556883,23809047,"2529 N 40th Ave, Phoenix, AZ 85009 ",85009,0.8375807702541351,0.8825888335704803,0.7392394350396616,149899,https://www.zillow.com/homedetails/2529-N-40th-Ave-Phoenix-AZ-85009/88889007_zpid/,33.4758,-112.146,6508,2017-10-26
484005,23821708,"2696 N 73rd Gln, Phoenix, AZ 85035 ",85035,0.8334164917469025,0.8864450454711914,0.7387779199230238,210000,https://www.zillow.com/homedetails/2696-N-73rd-Gln-Phoenix-AZ-85035/95155175_zpid/,33.4779,-112.21799999999999,6513,2017-10-31
9021799,23854010,"13014 N Lakeforest Dr, Sun City, AZ 85351 ",85351,0.8542207777500153,0.8647141456604004,0.7386567900374672,225079,https://www.zillow.com/homedetails/13014-N-Lakeforest-Dr-Sun-City-AZ-85351/8095961_zpid/,33.6035,-112.26899999999999,6554,2017-12-11
9022111,23817234,"7629 N 44th Dr, Glendale, AZ 85301 ",85301,0.8362058997154236,0.8833091557025909,0.7386283272711562,195000,https://www.zillow.com/homedetails/7629-N-44th-Dr-Glendale-AZ-85301/7725279_zpid/,33.5492,-112.155,6514,2017-11-01
457960,23512295,"5355 W Earll Dr, Phoenix, AZ 85031 ",85031,0.8305824995040894,0.889187753200531,0.7385437865817224,179900,https://www.zillow.com/homedetails/5355-W-Earll-Dr-Phoenix-AZ-85031/7496878_zpid/,33.4846,-112.175,6492,2017-10-10
233580,23858257,"18240 N 32nd Ln, Phoenix, AZ 85053 ",85053,0.8677166700363159,0.8506335318088531,0.7381088956424087,181000,https://www.zillow.com/homedetails/18240-N-32nd-Ln-Phoenix-AZ-85053/7941751_zpid/,33.6524,-112.13,6553,2017-12-10
9023879,23854911,"3779 E Sweetwater Ave, Phoenix, AZ 85032 ",85032,0.8599639236927032,0.857801228761673,0.7376781104343104,225000,https://www.zillow.com/homedetails/3779-E-Sweetwater-Ave-Phoenix-AZ-85032/7821120_zpid/,33.6042,-111.999,6557,2017-12-14
489939,23818555,"5411 W Palm Ln, Phoenix, AZ 85035 ",85035,0.8339630365371704,0.884385883808136,0.7375451371312423,159900,https://www.zillow.com/homedetails/5411-W-Palm-Ln-Phoenix-AZ-85035/7493928_zpid/,33.4695,-112.176,6515,2017-11-02
9019482,23822508,"8505 W Oraibi Dr, Peoria, AZ 85382 ",85382,0.8456665873527527,0.8721055388450623,0.7375105148465373,240000,https://www.zillow.com/homedetails/8505-W-Oraibi-Dr-Peoria-AZ-85382/8105887_zpid/,33.6616,-112.242,6518,2017-11-05
1413516,22924606,"7311 N 73rd Dr, Glendale, AZ 85303 ",85303,0.8326042592525482,0.8857743144035339,0.7374994669088881,248700,https://www.zillow.com/homedetails/7311-N-73rd-Dr-Glendale-AZ-85303/59270763_zpid/,33.5425,-112.21600000000001,6489,2017-10-07
379528,23846192,"11438 N 30th Ave, Phoenix, AZ 85029 ",85029,0.8578110039234161,0.8597278296947479,0.7374839926913515,235000,https://www.zillow.com/homedetails/11438-N-30th-Ave-Phoenix-AZ-85029/7739912_zpid/,33.5907,-112.124,6544,2017-12-01
9022109,23811012,"13037 N 56th Ave, Glendale, AZ 85304 ",85304,0.8432059288024902,0.8745887577533722,0.7374584258016483,214900,https://www.zillow.com/homedetails/13037-N-56th-Ave-Glendale-AZ-85304/7896749_zpid/,33.6024,-112.177,6509,2017-10-27
9023654,23853716,"14429 N 38th Pl, Phoenix, AZ 85032 ",85032,0.8658556342124939,0.8513083755970001,0.7371101534629485,249000,https://www.zillow.com/homedetails/14429-N-38th-Pl-Phoenix-AZ-85032/8012626_zpid/,33.6184,-111.99700000000001,6553,2017-12-10
416034,23808888,"4413 W Mission Ln, Glendale, AZ 85302 ",85302,0.8447048366069794,0.8723704814910889,0.7368955650286821,184500,https://www.zillow.com/homedetails/4413-W-Mission-Ln-Glendale-AZ-85302/7729654_zpid/,33.5689,-112.155,6508,2017-10-26
334323,23862934,"1555 W North Ln, Phoenix, AZ 85021 ",85021,0.8599053919315338,0.8568349182605743,0.7367969662074829,165000,https://www.zillow.com/homedetails/1555-W-North-Ln-Phoenix-AZ-85021/7782128_zpid/,33.5811,-112.09299999999999,6550,2017-12-07
7389079,23836128,"12207 N Sun Valley Dr, Sun City, AZ 85351 ",85351,0.8963367938995361,0.82185098528862,0.7366552772167765,209900,https://www.zillow.com/homedetails/12207-N-Sun-Valley-Dr-Sun-City-AZ-85351/7686174_zpid/,33.5952,-112.271,6530,2017-11-17
388700,23829780,"2353 W Cortez St, Phoenix, AZ 85029 ",85029,0.852386474609375,0.8639198541641235,0.7363935988360026,173500,https://www.zillow.com/homedetails/2353-W-Cortez-St-Phoenix-AZ-85029/7749270_zpid/,33.5905,-112.11,6523,2017-11-10
827449,23813741,"2928 N 40th Dr, Phoenix, AZ 85019 ",85019,0.8312929570674896,0.8856699764728546,0.7362512137280133,174999,https://www.zillow.com/homedetails/2928-N-40th-Dr-Phoenix-AZ-85019/7509157_zpid/,33.4817,-112.146,6510,2017-10-28
448364,23512346,"8402 W Fairmount Ave, Phoenix, AZ 85037 ",85037,0.8316278457641602,0.8852725028991699,0.7362172645002829,170000,https://www.zillow.com/homedetails/8402-W-Fairmount-Ave-Phoenix-AZ-85037/7470144_zpid/,33.4902,-112.24,6492,2017-10-10
226936,23833915,"15039 N 30th Dr, Phoenix, AZ 85053 ",85053,0.8618099093437195,0.8539980947971344,0.7359840206568276,187999,https://www.zillow.com/homedetails/15039-N-30th-Dr-Phoenix-AZ-85053/7952779_zpid/,33.6227,-112.124,6522,2017-11-09
466699,23857060,"3030 W Marshall Ave, Phoenix, AZ 85017 ",85017,0.8626308739185333,0.8530972898006439,0.7359080606382618,148000,https://www.zillow.com/homedetails/3030-W-Marshall-Ave-Phoenix-AZ-85017/7764156_zpid/,33.5177,-112.125,6556,2017-12-13
412062,23570538,"5339 W Cholla St, Glendale, AZ 85304 ",85304,0.8436502814292908,0.872135192155838,0.7357771003066613,209000,https://www.zillow.com/homedetails/5339-W-Cholla-St-Glendale-AZ-85304/7736846_zpid/,33.5891,-112.175,6494,2017-10-12
350177,22541766,"6408 W Cordes Rd, Phoenix, AZ 85043 ",85043,0.8479664623737335,0.8676734566688538,0.7357579915470769,169900,https://www.zillow.com/homedetails/6408-W-Cordes-Rd-Phoenix-AZ-85043/49641248_zpid/,33.4216,-112.197,6442,2017-08-21
223492,23846177,"1102 W Campo Bello Dr, Phoenix, AZ 85023 ",85023,0.863895446062088,0.8513019979000092,0.7354359192093751,154900,https://www.zillow.com/homedetails/1102-W-Campo-Bello-Dr-Phoenix-AZ-85023/7963601_zpid/,33.6439,-112.088,6544,2017-12-01
419470,23857442,"5428 W Puget Ave, Glendale, AZ 85302 ",85302,0.8535801470279694,0.8615416288375854,0.7353948302139024,180000,http://www.zillow.com/homedetails/5428-W-Puget-Ave-Glendale-AZ-85302/7733603_zpid,33.567,-112.177,6559,2017-12-16
394581,23831766,"3626 W Rue De Lamour Ave, Phoenix, AZ 85029 ",85029,0.8535756170749664,0.8614482581615448,0.7353112285383956,199900,https://www.zillow.com/homedetails/3626-W-Rue-De-Lamour-Ave-Phoenix-AZ-85029/7741437_zpid/,33.6102,-112.137,6522,2017-11-09
409111,23815119,"6540 W Phelps Rd, Glendale, AZ 85306 ",85306,0.8426614999771118,0.8722838461399078,0.735040014194059,209900,https://www.zillow.com/homedetails/6540-W-Phelps-Rd-Glendale-AZ-85306/7901955_zpid/,33.6361,-112.20100000000001,6512,2017-10-30
402127,23814880,"14638 N 62nd Ave, Glendale, AZ 85306 ",85306,0.8432059288024902,0.8715457618236542,0.7348925535923883,230000,https://www.zillow.com/homedetails/14638-N-62nd-Ave-Glendale-AZ-85306/8098778_zpid/,33.6177,-112.191,6512,2017-10-30
388744,23819809,"3835 W Camino Acequia, Phoenix, AZ 85051 ",85051,0.8343778848648071,0.8804187476634979,0.7346019324707918,233900,https://www.zillow.com/homedetails/3835-W-Camino-Acequia-Phoenix-AZ-85051/7745922_zpid/,33.5749,-112.14200000000001,6516,2017-11-03
450692,23753402,"8742 W Edgemont Ave, Phoenix, AZ 85037 ",85037,0.835516095161438,0.8791349828243256,0.7345314279691983,190000,https://www.zillow.com/homedetails/8742-W-Edgemont-Ave-Phoenix-AZ-85037/7473770_zpid/,33.4794,-112.249,6494,2017-10-12
481368,23814944,"2346 N 47th Ln, Phoenix, AZ 85035 ",85035,0.8328369855880737,0.8817946016788483,0.7343911579700482,174900,https://www.zillow.com/homedetails/2346-N-47th-Ln-Phoenix-AZ-85035/7499146_zpid/,33.4749,-112.162,6511,2017-10-29
8989113,22740158,"19153 N 75th Dr, Glendale, AZ 85308 ",85308,0.8445911407470703,0.869056910276413,0.73399776722448,235000,https://www.zillow.com/homedetails/19153-N-75th-Dr-Glendale-AZ-85308/7892099_zpid/,33.6583,-112.221,6487,2017-10-05
5088735,23778838,"1314 W Cortez Ct, Chandler, AZ 85224 ",85224,0.8470849096775055,0.8662963509559631,0.7338265662034846,239900,https://www.zillow.com/homedetails/1314-W-Cortez-Ct-Chandler-AZ-85224/8172443_zpid/,33.3557,-111.865,6270,2017-03-02
833447,23561389,"5713 N 42nd Ave, Phoenix, AZ 85019 ",85019,0.8307885527610779,0.8832880854606628,0.7338256301909674,165000,https://www.zillow.com/homedetails/5713-N-42nd-Ave-Phoenix-AZ-85019/7718429_zpid/,33.5207,-112.148,6495,2017-10-13
8976427,23854249,"3836 W Vernon Ave, Phoenix, AZ 85009 ",85009,0.8616385161876678,0.8516134023666382,0.7337829083807215,168900,https://www.zillow.com/homedetails/3836-W-Vernon-Ave-Phoenix-AZ-85009/7510560_zpid/,33.4744,-112.14200000000001,6556,2017-12-13
328410,23830937,"2203 W Marlette Ave, Phoenix, AZ 85015 ",85015,0.864769846200943,0.8484947383403778,0.7337526643769179,229900,https://www.zillow.com/homedetails/2203-W-Marlette-Ave-Phoenix-AZ-85015/7773094_zpid/,33.5291,-112.10600000000001,6526,2017-11-13
416064,23818791,"4416 W Turquoise Ave, Glendale, AZ 85302 ",85302,0.8424175083637238,0.8707822561264038,0.733562218533347,249900,https://www.zillow.com/homedetails/4416-W-Turquoise-Ave-Glendale-AZ-85302/7729268_zpid/,33.5757,-112.154,6515,2017-11-02
9021905,23837963,"5153 E Monte Vista Rd, Phoenix, AZ 85008 ",85008,0.8927170932292938,0.8212219178676605,0.7331188434150038,175000,https://www.zillow.com/homedetails/5153-E-Monte-Vista-Rd-Phoenix-AZ-85008/7562083_zpid/,33.4711,-111.971,6533,2017-11-20
256392,23822269,"4228 W Hearn Rd, Phoenix, AZ 85053 ",85053,0.8417963087558746,0.8708935976028442,0.7331150157811983,229500,https://www.zillow.com/homedetails/4228-W-Hearn-Rd-Phoenix-AZ-85053/7944988_zpid/,33.6147,-112.15100000000001,6518,2017-11-05
1130028,23855813,"586 N Apache Dr, Chandler, AZ 85224 ",85224,0.8556920886039734,0.856644481420517,0.7330239054977898,199900,https://www.zillow.com/homedetails/586-N-Apache-Dr-Chandler-AZ-85224/8185828_zpid/,33.3129,-111.86200000000001,6551,2017-12-08
831187,23815076,"3944 W Cavalier Dr, Phoenix, AZ 85019 ",85019,0.8270170092582703,0.8861326277256012,0.7328467555877989,210000,https://www.zillow.com/homedetails/3944-W-Cavalier-Dr-Phoenix-AZ-85019/7760413_zpid/,33.5263,-112.145,6512,2017-10-30
9021086,23815044,"8137 W Aster Dr, Peoria, AZ 85381 ",85381,0.8313454389572144,0.8814957737922668,0.7328274910022614,239000,https://www.zillow.com/homedetails/8137-W-Aster-Dr-Peoria-AZ-85381/8100990_zpid/,33.6013,-112.235,6512,2017-10-30
