property_id,transaction_id,address,zipcode,ypred,list,url,lat,long
8948294,22457002,"26011 N Sandstone Way, Surprise, AZ 85387 ",85387,0.5021247267723083,261900,https://www.zillow.com/homedetails/26011-N-Sandstone-Way-Surprise-AZ-85387/71610017_zpid/,33.721,-112.42
1257807,22427034,"1971 E Los Alamos St, Gilbert, AZ 85295 ",85295,0.5021247267723083,307900,https://www.zillow.com/homedetails/1971-E-Los-Alamos-St-Gilbert-AZ-85295/55205886_zpid/,33.3142,-111.74799999999999
8959163,21948386,"17534 N 168th Dr, Surprise, AZ 85374 ",85374,0.5021247267723083,298000,https://www.zillow.com/homedetails/17534-N-168th-Dr-Surprise-AZ-85374/52430551_zpid/,33.6437,-112.42200000000001
575466,22421392,"3736 N Tabor, Mesa, AZ 85215 ",85215,0.5021247267723083,297900,https://www.zillow.com/homedetails/3736-N-Tabor-Mesa-AZ-85215/89573103_zpid/,33.4838,-111.68799999999999
7554659,21991774,"895 S Almira Ave, Gilbert, AZ 85296 ",85296,0.5021247267723083,289000,https://www.zillow.com/homedetails/895-S-Almira-Ave-Gilbert-AZ-85296/95165881_zpid/,33.3342,-111.706
7501967,13470552,"22721 E Munoz St, Queen Creek, AZ 85142 ",85142,0.5021247267723083,308830,https://www.zillow.com/homedetails/22721-E-Munoz-St-Queen-Creek-AZ-85142/2095236025_zpid/,33.2461,-111.589
225063,21810788,"1215 W Betty Elyse Ln, Phoenix, AZ 85023 ",85023,0.5021247267723083,310000,https://www.zillow.com/homedetails/1215-W-Betty-Elyse-Ln-Phoenix-AZ-85023/7960853_zpid/,33.6274,-112.09
589335,21819831,"11445 E Quade Ave, Mesa, AZ 85212 ",85212,0.5021247267723083,283000,https://www.zillow.com/homedetails/11445-E-Quade-Ave-Mesa-AZ-85212/55103220_zpid/,33.3497,-111.589
1483464,22345989,"16425 N 175th Cir, Surprise, AZ 85388 ",85388,0.5021247267723083,289900,https://www.zillow.com/homedetails/16425-N-175th-Cir-Surprise-AZ-85388/67795918_zpid/,33.6334,-112.43700000000001
1606529,22379065,"18638 W Beryl Ave, Waddell, AZ 85355 ",85355,0.5021247267723083,269900,https://www.zillow.com/homedetails/18638-W-Beryl-Ave-Waddell-AZ-85355/95171608_zpid/,33.5776,-112.461
8979753,22427254,"255 S Del Rancho, Mesa, AZ 85208 ",85208,0.5021247267723083,300000,https://www.zillow.com/homedetails/255-S-Del-Rancho-Mesa-AZ-85208/8087251_zpid/,33.4101,-111.598
276338,22285832,"28412 N 25th Dl, Phoenix, AZ 85085 ",85085,0.5021247267723083,307000,https://www.zillow.com/homedetails/28412-N-25th-Dl-Phoenix-AZ-85085/81966560_zpid/,33.7423,-112.115
1499722,21995148,"17904 W Maui Ln, Surprise, AZ 85388 ",85388,0.5021247267723083,249000,https://www.zillow.com/homedetails/17904-W-Maui-Ln-Surprise-AZ-85388/67778887_zpid/,33.6221,-112.444
778098,22427773,"6139 E Encanto St, Mesa, AZ 85205 ",85205,0.5021247267723083,313000,https://www.zillow.com/homedetails/6139-E-Encanto-St-Mesa-AZ-85205/7677467_zpid/,33.4333,-111.699
1987213,22450376,"27516 N 172nd Ave, Surprise, AZ 85387 ",85387,0.5021247267723083,285900,https://www.zillow.com/homedetails/27516-N-172nd-Ave-Surprise-AZ-85387/95128162_zpid/,33.638000000000005,-112.43
1500307,21995242,"18017 W Desert Ln, Surprise, AZ 85388 ",85388,0.5021247267723083,305000,https://www.zillow.com/homedetails/18017-W-Desert-Ln-Surprise-AZ-85388/82237412_zpid/,33.6266,-112.447
91770,17876849,"21343 E Via Del Rancho, Queen Creek, AZ 85142 ",85142,0.5021247267723083,279900,https://www.zillow.com/homedetails/21343-E-Via-Del-Rancho-Queen-Creek-AZ-85142/67767176_zpid/,33.2391,-111.62200000000001
1266715,22458998,"3248 E Oakland St, Gilbert, AZ 85295 ",85295,0.5021247267723083,309000,https://www.zillow.com/homedetails/3248-E-Oakland-St-Gilbert-AZ-85295/89457192_zpid/,33.3124,-111.72
1502426,21995589,"18409 W Port Au Prince Ln, Surprise, AZ 85388 ",85388,0.5021247267723083,299900,https://www.zillow.com/homedetails/18409-W-Port-Au-Prince-Ln-Surprise-AZ-85388/67779038_zpid/,33.6226,-112.455
662642,22421648,"5146 S 111th Cir, Mesa, AZ 85212 ",85212,0.5021247267723083,305000,https://www.zillow.com/homedetails/5146-S-111th-Cir-Mesa-AZ-85212/89221700_zpid/,33.3213,-111.59299999999999
240481,22232813,"3116 W Tierra Buena Ln, Phoenix, AZ 85053 ",85053,0.5021247267723083,299900,https://www.zillow.com/homedetails/3116-W-Tierra-Buena-Ln-Phoenix-AZ-85053/7954203_zpid/,33.6291,-112.126
766106,22421657,"5838 E Inglewood St, Mesa, AZ 85205 ",85205,0.5021247267723083,314000,https://www.zillow.com/homedetails/5838-E-Inglewood-St-Mesa-AZ-85205/7661557_zpid/,33.4473,-111.705
2078702,22386144,"14819 N Alamosa Cir, Fountain Hills, AZ 85268 ",85268,0.5021247267723083,299000,https://www.zillow.com/homedetails/14819-N-Alamosa-Cir-Fountain-Hills-AZ-85268/7871091_zpid/,33.6207,-111.712
8978764,22411939,"219 N Sandal, Mesa, AZ 85205 ",85205,0.5021247267723083,271210,https://www.zillow.com/homedetails/219-N-Sandal-Mesa-AZ-85205/2095499187_zpid/,33.4475,-111.706
756627,22421360,"3639 E Decatur St, Mesa, AZ 85205 ",85205,0.5021247267723083,310000,https://www.zillow.com/homedetails/3639-E-Decatur-St-Mesa-AZ-85205/7637566_zpid/,33.4268,-111.75200000000001
1852740,21254438,"4003 W Kirkland Ave, Queen Creek, AZ 85142 ",85142,0.5021247267723083,239500,http://www.zillow.com/homedetails/4003-W-Kirkland-Ave-Queen-Creek-AZ-85142/124170942_zpid/,33.181999999999995,-111.609
5097869,21948675,"17874 N Bell Pointe Blvd, Surprise, AZ 85374 ",85374,0.5021247267723083,273000,https://www.zillow.com/homedetails/17874-N-Bell-Pointe-Blvd-Surprise-AZ-85374/71610958_zpid/,33.6469,-112.455
8956725,22428596,"9036 W Buckhorn Trl, Peoria, AZ 85383 ",85383,0.5021247267723083,314000,https://www.zillow.com/homedetails/9036-W-Buckhorn-Trl-Peoria-AZ-85383/67800471_zpid/,33.7314,-112.255
882476,21838819,"25986 W Ross Ave, Buckeye, AZ 85396 ",85396,0.5021247267723083,300000,https://www.zillow.com/homedetails/25986-W-Ross-Ave-Buckeye-AZ-85396/89221099_zpid/,33.6733,-112.61
1501188,22442324,"18152 W Desert Ln, Surprise, AZ 85388 ",85388,0.5021247267723083,299900,https://www.zillow.com/homedetails/18152-W-Desert-Ln-Surprise-AZ-85388/82822199_zpid/,33.6272,-112.45
8985342,22469355,"1627 W Desert Spring Way, San Tan Valley, AZ 85142 ",85142,0.5021247267723083,269000,https://www.zillow.com/homedetails/1627-W-Desert-Spring-Way-San-Tan-Valley-AZ-85142/2093784122_zpid/,33.1967,-111.584
8944761,22172694,"3161 W Zachary Dr, Phoenix, AZ 85027 ",85027,0.5021247267723083,299000,https://www.zillow.com/homedetails/3161-W-Zachary-Dr-Phoenix-AZ-85027/7940454_zpid/,33.6778,-112.12799999999999
8985348,22469316,"1731 W Cool Water Way, San Tan Valley, AZ 85142 ",85142,0.5021247267723083,244000,https://www.zillow.com/homedetails/1731-W-Cool-Water-Way-San-Tan-Valley-AZ-85142/2093521740_zpid/,33.1976,-111.585
1310198,22230553,"2976 E Meadowview Dr, Gilbert, AZ 85298 ",85298,0.5021247267723083,312000,https://www.zillow.com/homedetails/2976-E-Meadowview-Dr-Gilbert-AZ-85298/95119187_zpid/,33.2332,-111.725
1492760,22378732,"17510 W Maui Ln, Surprise, AZ 85388 ",85388,0.5021247267723083,247900,https://www.zillow.com/homedetails/17510-W-Maui-Ln-Surprise-AZ-85388/67768959_zpid/,33.6221,-112.436
8973031,22318619,"3631 W Port Au Prince Ln, Phoenix, AZ 85053 ",85053,0.5021247267723083,259900,https://www.zillow.com/homedetails/3631-W-Port-Au-Prince-Ln-Phoenix-AZ-85053/7944311_zpid/,33.6228,-112.137
7399929,22070550,"4450 S Brice, Mesa, AZ 85212 ",85212,0.5021247267723083,264800,https://www.zillow.com/homedetails/4450-S-Brice-Mesa-AZ-85212/71617144_zpid/,33.334,-111.586
95495,13470596,"22594 S 208th St, Queen Creek, AZ 85142 ",85142,0.5021247267723083,264900,https://www.zillow.com/homedetails/22594-S-208th-St-Queen-Creek-AZ-85142/59260577_zpid/,33.243,-111.632
8952687,22399996,"6801 W Tether Trl, Peoria, AZ 85383 ",85383,0.5021247267723083,299990,https://www.zillow.com/homedetails/6801-W-Tether-Trl-Peoria-AZ-85383/7925504_zpid/,33.7236,-112.20700000000001
585279,22106164,"11149 E Stearn Ave, Mesa, AZ 85212 ",85212,0.5021247267723083,265000,https://www.zillow.com/homedetails/11149-E-Stearn-Ave-Mesa-AZ-85212/82824911_zpid/,33.3298,-111.59299999999999
7425082,21948159,"17250 N Javelina Dr, Surprise, AZ 85374 ",85374,0.5021247267723083,279000,https://www.zillow.com/homedetails/17250-N-Javelina-Dr-Surprise-AZ-85374/50204106_zpid/,33.6417,-112.45299999999999
8961795,22400036,"6880 W Ridgeline Rd, Peoria, AZ 85383 ",85383,0.5021247267723083,299999,https://www.zillow.com/homedetails/6880-W-Ridgeline-Rd-Peoria-AZ-85383/71605950_zpid/,33.749,-112.20700000000001
7418267,22400057,"6769 W Remuda Dr, Peoria, AZ 85383 ",85383,0.5021247267723083,310000,https://www.zillow.com/homedetails/6769-W-Remuda-Dr-Peoria-AZ-85383/52426926_zpid/,33.7204,-112.205
138617,21956746,"22006 N Golf Club Dr, Sun City West, AZ 85375 ",85375,0.5021247267723083,300000,http://www.zillow.com/homedetails/22006-N-Golf-Club-Dr-Sun-City-West-AZ-85375/8120620_zpid,33.6841,-112.352
8972561,22372671,"17483 W Buckhorn Trl, Surprise, AZ 85387 ",85387,0.5021247267723083,279900,https://www.zillow.com/homedetails/17483-W-Buckhorn-Trl-Surprise-AZ-85387/95159195_zpid/,33.7297,-112.43799999999999
1499235,22378827,"17848 W Ivy Ln, Surprise, AZ 85388 ",85388,0.5021247267723083,309990,https://www.zillow.com/homedetails/17848-W-Ivy-Ln-Surprise-AZ-85388/71609678_zpid/,33.6256,-112.443
1499454,22378857,"17864 W Andora St, Surprise, AZ 85388 ",85388,0.5021247267723083,269800,https://www.zillow.com/homedetails/17864-W-Andora-St-Surprise-AZ-85388/81996771_zpid/,33.6066,-112.443
93035,13469989,"21743 E Estrella Rd, Queen Creek, AZ 85142 ",85142,0.5021247267723083,307000,https://www.zillow.com/homedetails/21743-E-Estrella-Rd-Queen-Creek-AZ-85142/71622755_zpid/,33.2494,-111.615
8952169,22421175,"2941 E Nora St, Mesa, AZ 85213 ",85213,0.5021247267723083,300000,https://www.zillow.com/homedetails/2941-E-Nora-St-Mesa-AZ-85213/7658776_zpid/,33.4658,-111.76700000000001
8944527,21968431,"1493 S Ponderosa Dr, Gilbert, AZ 85296 ",85296,0.5021247267723083,313000,https://www.zillow.com/homedetails/1493-S-Ponderosa-Dr-Gilbert-AZ-85296/92348547_zpid/,33.3233,-111.713
8949433,21999273,"26162 N 67th Dr, Peoria, AZ 85383 ",85383,0.5021247267723083,306500,https://www.zillow.com/homedetails/26162-N-67th-Dr-Peoria-AZ-85383/50185145_zpid/,33.7224,-112.204
713503,22385394,"929 S Pico Cir, Mesa, AZ 85206 ",85206,0.5021247267723083,269500,https://www.zillow.com/homedetails/929-S-Pico-Cir-Mesa-AZ-85206/7649648_zpid/,33.3984,-111.735
876282,21837660,"20660 N 259th Ave, Buckeye, AZ 85396 ",85396,0.5021247267723083,269990,https://www.zillow.com/homedetails/20660-N-259th-Ave-Buckeye-AZ-85396/95070701_zpid/,33.672,-112.609
508295,21923448,"10311 W Foothill Dr, Peoria, AZ 85383 ",85383,0.5021247267723083,299900,https://www.zillow.com/homedetails/10311-W-Foothill-Dr-Peoria-AZ-85383/67790505_zpid/,33.687,-112.281
7468321,22406015,"10660 E Baywood Ave, Mesa, AZ 85208 ",85208,0.5021247267723083,284900,https://www.zillow.com/homedetails/10660-E-Baywood-Ave-Mesa-AZ-85208/8087452_zpid/,33.4112,-111.6
1591413,21941836,"100 Peretz Cir, Morristown, AZ 85342 ",85342,0.5021247267723083,196000,https://www.zillow.com/homedetails/100-Peretz-Cir-Morristown-AZ-85342/114275093_zpid/,33.8159,-112.58
1039770,22297713,"4249 E Desert Sands Pl, Chandler, AZ 85249 ",85249,0.5021247267723083,290000,https://www.zillow.com/homedetails/4249-E-Desert-Sands-Pl-Chandler-AZ-85249/71617200_zpid/,33.2143,-111.76799999999999
8974767,22423745,"18462 W Legend Dr, Surprise, AZ 85374 ",85374,0.5021247267723083,309999,https://www.zillow.com/homedetails/18462-W-Legend-Dr-Surprise-AZ-85374/67711028_zpid/,33.6387,-112.456
566402,22449512,"10650 E Arbor Ave, Mesa, AZ 85208 ",85208,0.5021247267723083,309900,https://www.zillow.com/homedetails/10650-E-Arbor-Ave-Mesa-AZ-85208/8087382_zpid/,33.4124,-111.601
8984175,22462424,"6815 W Quail Ave, Glendale, AZ 85308 ",85308,0.5021247267723083,297500,https://www.zillow.com/homedetails/6815-W-Quail-Ave-Glendale-AZ-85308/7887349_zpid/,33.6774,-112.206
1477961,22423720,"15165 N 174th Dr, Surprise, AZ 85388 ",85388,0.5021247267723083,259900,https://www.zillow.com/homedetails/15165-N-174th-Dr-Surprise-AZ-85388/67768989_zpid/,33.6226,-112.434
1499077,21588246,"17836 W Eugene Ter, Surprise, AZ 85388 ",85388,0.5021247267723083,279500,https://www.zillow.com/homedetails/17836-W-Eugene-Ter-Surprise-AZ-85388/82825319_zpid/,33.6083,-112.443
588562,22406925,"11410 E Sebring Cir, Mesa, AZ 85212 ",85212,0.5021247267723083,309999,https://www.zillow.com/homedetails/11410-E-Sebring-Cir-Mesa-AZ-85212/71617077_zpid/,33.3332,-111.588
7380256,21950603,"30820 N 211th Ave, Wittmann, AZ 85361 ",85361,0.5021247267723083,288000,https://www.zillow.com/homedetails/30820-N-211th-Ave-Wittmann-AZ-85361/92355545_zpid/,33.7622,-112.51700000000001
7566990,22122563,"646 W Port Au Prince Ln, Phoenix, AZ 85023 ",85023,0.5021247267723083,296000,https://www.zillow.com/homedetails/646-W-Port-Au-Prince-Ln-Phoenix-AZ-85023/7965015_zpid/,33.6246,-112.08200000000001
7501885,13469938,"20882 E Camina Buena Vis, Queen Creek, AZ 85142 ",85142,0.5021247267723083,309500,https://www.zillow.com/homedetails/20882-E-Camina-Buena-Vis-Queen-Creek-AZ-85142/95136414_zpid/,33.2373,-111.632
1485868,22240512,"16731 N 172nd Ave, Surprise, AZ 85388 ",85388,0.5021247267723083,215000,https://www.zillow.com/homedetails/16731-N-172nd-Ave-Surprise-AZ-85388/67768326_zpid/,33.6365,-112.43
508147,21923443,"10281 W Robin Ln, Peoria, AZ 85383 ",85383,0.5021247267723083,279900,https://www.zillow.com/homedetails/10281-W-Robin-Ln-Peoria-AZ-85383/67785349_zpid/,33.6878,-112.281
619878,22435530,"5631 E Alder Ave, Mesa, AZ 85206 ",85206,0.5021247267723083,279900,https://www.zillow.com/homedetails/5631-E-Alder-Ave-Mesa-AZ-85206/121422186_zpid/,33.414,-111.71
89985,13469947,"21007 E Misty Ln, Queen Creek, AZ 85142 ",85142,0.5021247267723083,305000,https://www.zillow.com/homedetails/21007-E-Misty-Ln-Queen-Creek-AZ-85142/95179347_zpid/,33.2275,-111.63
18337,20690503,"3583 Hope Plan, Ambition at Eastmark Mesa, AZ 85212 ",85212,0.5021247267723083,303990,http://www.zillow.com/community/ambition-at-eastmark/2099911789_zpid/,33.3293,-111.617
8957061,22461909,"22305 N 103rd Dr, Peoria, AZ 85383 ",85383,0.5021247267723083,279900,https://www.zillow.com/homedetails/22305-N-103rd-Dr-Peoria-AZ-85383/71605810_zpid/,33.6863,-112.28200000000001
1500993,22241652,"18123 W Lundberg St, Surprise, AZ 85388 ",85388,0.5021247267723083,251000,https://www.zillow.com/homedetails/18123-W-Lundberg-St-Surprise-AZ-85388/81769861_zpid/,33.6364,-112.45
508877,22461838,"10397 W Foothill Dr, Peoria, AZ 85383 ",85383,0.5021247267723083,289900,https://www.zillow.com/homedetails/10397-W-Foothill-Dr-Peoria-AZ-85383/81965470_zpid/,33.687,-112.28299999999999
509362,22461837,"10452 W Foothill Dr, Peoria, AZ 85383 ",85383,0.5021247267723083,309000,https://www.zillow.com/homedetails/10452-W-Foothill-Dr-Peoria-AZ-85383/67785331_zpid/,33.687,-112.28399999999999
8953874,21950467,"27601 N 195TH Ave, Wittmann, AZ 85361 ",85361,0.5021247267723083,199900,https://www.zillow.com/homedetails/27601-N-195TH-Ave-Wittmann-AZ-85361/8310326_zpid/,33.7332,-112.48100000000001
8962622,22295503,"20829 N 39th Dr, Glendale, AZ 85308 ",85308,0.5021247267723083,309900,https://www.zillow.com/homedetails/20829-N-39th-Dr-Glendale-AZ-85308/59266320_zpid/,33.6757,-112.145
7389333,22056416,"26242 N 68th Dr, Peoria, AZ 85383 ",85383,0.5021247267723083,294995,https://www.zillow.com/homedetails/26242-N-68th-Dr-Peoria-AZ-85383/25776340_zpid/,33.7233,-112.20700000000001
8953000,22426054,"4434 W Villa Theresa Dr, Glendale, AZ 85308 ",85308,0.5021247267723083,268900,https://www.zillow.com/homedetails/4434-W-Villa-Theresa-Dr-Glendale-AZ-85308/7949115_zpid/,33.6541,-112.156
254286,22113322,"2546 W Village Dr, Phoenix, AZ 85023 ",85023,0.5021247267723083,229900,https://www.zillow.com/homedetails/2546-W-Village-Dr-Phoenix-AZ-85023/7963719_zpid/,33.643,-112.11399999999999
505084,22426051,"4330 W Heyerdahl Dr, Phoenix, AZ 85087 ",85087,0.5021247267723083,309900,https://www.zillow.com/homedetails/4330-W-Heyerdahl-Dr-Phoenix-AZ-85087/71601913_zpid/,33.872,-112.154
1311419,22426006,"3260 E Fandango Dr, Gilbert, AZ 85298 ",85298,0.5021247267723083,311640,https://www.zillow.com/homedetails/3260-E-Fandango-Dr-Gilbert-AZ-85298/71602464_zpid/,33.2275,-111.719
1313479,22064264,"3551 E Mead Dr, Gilbert, AZ 85298 ",85298,0.5021247267723083,289000,https://www.zillow.com/homedetails/3551-E-Mead-Dr-Gilbert-AZ-85298/67801195_zpid/,33.2385,-111.713
7404811,22411504,"206 N Sandal, Mesa, AZ 85205 ",85205,0.5021247267723083,273585,https://www.zillow.com/homedetails/206-N-Sandal-Mesa-AZ-85205/2095405409_zpid/,33.4475,-111.706
1252550,22425625,"1329 E Frances Ln, Gilbert, AZ 85295 ",85295,0.5021247267723083,295000,https://www.zillow.com/homedetails/1329-E-Frances-Ln-Gilbert-AZ-85295/67793059_zpid/,33.2939,-111.76100000000001
94052,17876723,"22045 E Via Del Oro, Queen Creek, AZ 85142 ",85142,0.5021247267723083,295900,https://www.zillow.com/homedetails/22045-E-Via-Del-Oro-Queen-Creek-AZ-85142/62737057_zpid/,33.2364,-111.61200000000001
121390,22467767,"12141 W Patrick Ln, Sun City, AZ 85373 ",85373,0.5021247267723083,292000,https://www.zillow.com/homedetails/12141-W-Patrick-Ln-Sun-City-AZ-85373/81997088_zpid/,33.6924,-112.323
8914407,22364544,"17359 W Jackson St, Goodyear, AZ 85338 ",85338,0.5021247267723083,269000,https://www.zillow.com/homedetails/17359-W-Jackson-St-Goodyear-AZ-85338/71624673_zpid/,,
1848691,21949249,"18354 W Hayden Dr, Surprise, AZ 85374 ",85374,0.5021247267723083,219000,https://www.zillow.com/homedetails/18354-W-Hayden-Dr-Surprise-AZ-85374/67787508_zpid/,33.6467,-112.454
7538094,22425333,"8467 W Bajada Rd, Peoria, AZ 85383 ",85383,0.5021247267723083,289950,https://www.zillow.com/homedetails/8467-W-Bajada-Rd-Peoria-AZ-85383/60979974_zpid/,33.7292,-112.243
136638,21949300,"18401 W Westfall Way, Surprise, AZ 85374 ",85374,0.5021247267723083,239900,https://www.zillow.com/homedetails/18401-W-Westfall-Way-Surprise-AZ-85374/71610999_zpid/,33.6449,-112.455
91636,13469957,"21309 E Via Del Rancho, Queen Creek, AZ 85142 ",85142,0.5021247267723083,284990,https://www.zillow.com/homedetails/21309-E-Via-Del-Rancho-Queen-Creek-AZ-85142/67767180_zpid/,33.2392,-111.62200000000001
752672,20732929,"1001 N Sericin, Mesa, AZ 85205 ",85205,0.5021247267723083,299000,https://www.zillow.com/homedetails/1001-N-Sericin-Mesa-AZ-85205/7677803_zpid/,33.4334,-111.68700000000001
588026,22439152,"11345 E Roscoe Ave, Mesa, AZ 85212 ",85212,0.5021247267723083,275000,https://www.zillow.com/homedetails/11345-E-Roscoe-Ave-Mesa-AZ-85212/56392392_zpid/,33.3369,-111.589
2033225,22440655,"17606 N 170th Ln, Surprise, AZ 85374 ",85374,0.5021247267723083,289900,https://www.zillow.com/homedetails/17606-N-170th-Ln-Surprise-AZ-85374/67786080_zpid/,33.6443,-112.426
1478448,22235766,"15409 N 172nd Ln, Surprise, AZ 85388 ",85388,0.5021247267723083,247000,https://www.zillow.com/homedetails/15409-N-172nd-Ln-Surprise-AZ-85388/67768582_zpid/,33.6248,-112.432
7512605,21817355,"17369 W Red Bird Rd, Surprise, AZ 85387 ",85387,0.5021247267723083,299995,https://www.zillow.com/homedetails/17369-W-Red-Bird-Rd-Surprise-AZ-85387/71631215_zpid/,33.7284,-112.435
7365429,22435952,"21256 W Coronado Rd, Buckeye, AZ 85396 ",85396,0.5021247267723083,299995,https://www.zillow.com/homedetails/21256-W-Coronado-Rd-Buckeye-AZ-85396/119225815_zpid/,,
1531089,21590304,"18448 E Paseo Verde Dr, Rio Verde, AZ 85263 ",85263,0.5021247267723083,299900,https://www.zillow.com/homedetails/18448-E-Paseo-Verde-Dr-Rio-Verde-AZ-85263/64709278_zpid/,33.7188,-111.682
1502418,21590024,"18399 W Post Dr, Surprise, AZ 85388 ",85388,0.5021247267723083,299900,https://www.zillow.com/homedetails/18399-W-Post-Dr-Surprise-AZ-85388/94882805_zpid/,33.6336,-112.455
1271136,22127942,"3944 E Fairview St, Gilbert, AZ 85295 ",85295,0.5021247267723083,299000,https://www.zillow.com/homedetails/3944-E-Fairview-St-Gilbert-AZ-85295/67801310_zpid/,33.2961,-111.705
1478585,22304918,"15416 N 172nd Ln, Surprise, AZ 85388 ",85388,0.5021247267723083,260000,https://www.zillow.com/homedetails/15416-N-172nd-Ln-Surprise-AZ-85388/67768669_zpid/,33.6249,-112.432
269029,22469508,"2319 W Tallgrass Trl, Phoenix, AZ 85085 ",85085,0.5021247267723083,309900,https://www.zillow.com/homedetails/2319-W-Tallgrass-Trl-Phoenix-AZ-85085/71620421_zpid/,33.7499,-112.109
582162,22106103,"10849 E Stanton Ave, Mesa, AZ 85212 ",85212,0.5021247267723083,299000,https://www.zillow.com/homedetails/10849-E-Stanton-Ave-Mesa-AZ-85212/81987813_zpid/,33.3265,-111.59899999999999
506593,22094730,"48815 N 25th Ave, Phoenix, AZ 85087 ",85087,0.5021247267723083,206700,https://www.zillow.com/homedetails/48815-N-25th-Ave-Phoenix-AZ-85087/7928843_zpid/,33.9272,-112.11200000000001
7422515,22228396,"25753 N Sandstone Way, Surprise, AZ 85387 ",85387,0.5021247267723083,235900,https://www.zillow.com/homedetails/25753-N-Sandstone-Way-Surprise-AZ-85387/81975994_zpid/,33.7188,-112.417
49807,22472770,"4311 W Diburgo Dr, Phoenix, AZ 85087 ",85087,0.5021247267723083,297000,https://www.zillow.com/homedetails/4311-W-Diburgo-Dr-Phoenix-AZ-85087/81972068_zpid/,33.8793,-112.15299999999999
1479649,22375868,"15605 N 174th Ave, Surprise, AZ 85388 ",85388,0.5021247267723083,295000,https://www.zillow.com/homedetails/15605-N-174th-Ave-Surprise-AZ-85388/67768644_zpid/,33.6262,-112.43299999999999
68883,21978264,"3406 E Longhorn Dr, Gilbert, AZ 85297 ",85297,0.5021247267723083,309900,https://www.zillow.com/homedetails/3406-E-Longhorn-Dr-Gilbert-AZ-85297/8244527_zpid/,33.2913,-111.71700000000001
8980289,22431688,"2232 W Joan De Arc Ave, Phoenix, AZ 85029 ",85029,0.5021247267723083,295000,https://www.zillow.com/homedetails/2232-W-Joan-De-Arc-Ave-Phoenix-AZ-85029/7749920_zpid/,33.6076,-112.10799999999999
1496080,17167367,"17672 W Tasha Dr, Surprise, AZ 85388 ",85388,0.5021247267723083,310000,https://www.zillow.com/homedetails/17672-W-Tasha-Dr-Surprise-AZ-85388/67795935_zpid/,33.6333,-112.439
739994,22394862,"2408 E Hale St, Mesa, AZ 85213 ",85213,0.5021247267723083,309900,https://www.zillow.com/homedetails/2408-E-Hale-St-Mesa-AZ-85213/7657548_zpid/,33.4443,-111.779
7437586,22394892,"2423 E Ivy St, Mesa, AZ 85213 ",85213,0.5021247267723083,279000,https://www.zillow.com/homedetails/2423-E-Ivy-St-Mesa-AZ-85213/67080563_zpid/,33.4456,-111.77799999999999
1502645,17958368,"18438 W Maui Ln, Surprise, AZ 85388 ",85388,0.5021247267723083,289900,https://www.zillow.com/homedetails/18438-W-Maui-Ln-Surprise-AZ-85388/67779109_zpid/,33.6213,-112.456
8965238,22442974,"6830 W Nadine Way, Peoria, AZ 85383 ",85383,0.5021247267723083,305000,https://www.zillow.com/homedetails/6830-W-Nadine-Way-Peoria-AZ-85383/71606157_zpid/,33.7529,-112.208
8981085,22437660,"17642 W Molly Ln, Surprise, AZ 85387 ",85387,0.5021247267723083,269900,https://www.zillow.com/homedetails/17642-W-Molly-Ln-Surprise-AZ-85387/82825551_zpid/,33.7273,-112.44200000000001
1501081,22218045,"18137 W Saguaro Ln, Surprise, AZ 85388 ",85388,0.5021247267723083,295000,https://www.zillow.com/homedetails/18137-W-Saguaro-Ln-Surprise-AZ-85388/81996982_zpid/,33.628,-112.45
1286262,22433503,"4325 E Orchid Ln, Gilbert, AZ 85296 ",85296,0.5021247267723083,299900,https://www.zillow.com/homedetails/4325-E-Orchid-Ln-Gilbert-AZ-85296/59263993_zpid/,33.3246,-111.697
8956716,22395292,"25935 N 67th Dr, Peoria, AZ 85383 ",85383,0.5021247267723083,309499,https://www.zillow.com/homedetails/25935-N-67th-Dr-Peoria-AZ-85383/50184377_zpid/,33.7228,-112.204
882222,22335813,"25932 W Pontiac Dr, Buckeye, AZ 85396 ",85396,0.5021247267723083,245000,https://www.zillow.com/homedetails/25932-W-Pontiac-Dr-Buckeye-AZ-85396/82826746_zpid/,33.6679,-112.609
1478049,22471726,"15209 N 185th Ave, Surprise, AZ 85388 ",85388,0.5021247267723083,268200,https://www.zillow.com/homedetails/15209-N-185th-Ave-Surprise-AZ-85388/67779050_zpid/,33.6226,-112.45700000000001
505145,22335943,"4333 W Heyerdahl Dr, Phoenix, AZ 85087 ",85087,0.5021247267723083,250000,https://www.zillow.com/homedetails/4333-W-Heyerdahl-Dr-Phoenix-AZ-85087/71601898_zpid/,33.8716,-112.154
7550648,22378131,"10504 E Dolphin Ave, Mesa, AZ 85208 ",85208,0.5021247267723083,295000,https://www.zillow.com/homedetails/10504-E-Dolphin-Ave-Mesa-AZ-85208/52429516_zpid/,33.4009,-111.604
85460,13469803,"19333 E Oriole Way, Queen Creek, AZ 85142 ",85142,0.5021247267723083,295900,https://www.zillow.com/homedetails/19333-E-Oriole-Way-Queen-Creek-AZ-85142/61630972_zpid/,33.2702,-111.666
5380823,21500820,"7930 E Butte St, Mesa, AZ 85207 ",85207,0.5021247267723083,285000,http://www.zillow.com/homedetails/7930-E-Butte-St-Mesa-AZ-85207/125072627_zpid/,33.4211,-111.66
8977524,22378236,"12140 W Cottontail Ln, Peoria, AZ 85383 ",85383,0.5021247267723083,279000,https://www.zillow.com/homedetails/12140-W-Cottontail-Ln-Peoria-AZ-85383/95116165_zpid/,33.7173,-112.214
1482296,22378325,"16309 N 171st Dr, Surprise, AZ 85388 ",85388,0.5021247267723083,256900,https://www.zillow.com/homedetails/16309-N-171st-Dr-Surprise-AZ-85388/67768232_zpid/,33.6324,-112.427
508376,22456298,"10322 W Foothill Dr, Peoria, AZ 85383 ",85383,0.5021247267723083,305000,https://www.zillow.com/homedetails/10322-W-Foothill-Dr-Peoria-AZ-85383/67790487_zpid/,33.687,-112.281
874337,21837085,"20093 N 259th Ln, Buckeye, AZ 85396 ",85396,0.5021247267723083,230000,https://www.zillow.com/homedetails/20093-N-259th-Ln-Buckeye-AZ-85396/82828515_zpid/,33.6678,-112.61
7440887,17920191,"9146 E Albany St, Mesa, AZ 85207 ",85207,0.5021247267723083,249900,https://www.zillow.com/homedetails/9146-E-Albany-St-Mesa-AZ-85207/59267601_zpid/,33.4176,-111.634
515640,22475030,"12651 W Ashby Dr, Peoria, AZ 85383 ",85383,0.5021247267723083,299900,https://www.zillow.com/homedetails/12651-W-Ashby-Dr-Peoria-AZ-85383/63202730_zpid/,33.7533,-112.335
1311747,22328650,"3334 E Lafayette Ave, Gilbert, AZ 85298 ",85298,0.5021247267723083,300000,https://www.zillow.com/homedetails/3334-E-Lafayette-Ave-Gilbert-AZ-85298/67794037_zpid/,33.2218,-111.71799999999999
771757,22419463,"759 N Balboa, Mesa, AZ 85205 ",85205,0.5021247267723083,289900,https://www.zillow.com/homedetails/759-N-Balboa-Mesa-AZ-85205/7638916_zpid/,33.4299,-111.719
7477814,22082198,"10853 E Crescent Ave, Mesa, AZ 85208 ",85208,0.5021247267723083,289900,https://www.zillow.com/homedetails/10853-E-Crescent-Ave-Mesa-AZ-85208/125121984_zpid/,33.4048,-111.605
7502017,13470124,"2343 W Farrier Way, Queen Creek, AZ 85142 ",85142,0.5021247267723083,274900,https://www.zillow.com/homedetails/2343-W-Farrier-Way-Queen-Creek-AZ-85142/121925096_zpid/,33.2033,-111.59200000000001
8952447,17958353,"16503 W Tether Trl, Surprise, AZ 85387 ",85387,0.5021247267723083,274900,https://www.zillow.com/homedetails/16503-W-Tether-Trl-Surprise-AZ-85387/89456345_zpid/,33.7233,-112.416
874389,21837092,"20143 N 259th Ave, Buckeye, AZ 85396 ",85396,0.5021247267723083,310000,https://www.zillow.com/homedetails/20143-N-259th-Ave-Buckeye-AZ-85396/89457739_zpid/,33.6673,-112.609
1699598,21929336,"15604 W Sentinel Dr, Sun City West, AZ 85375 ",85375,0.5021247267723083,299800,https://www.zillow.com/homedetails/15604-W-Sentinel-Dr-Sun-City-West-AZ-85375/8118623_zpid/,33.6787,-112.38600000000001
7459442,21957558,"21675 N 91st Dr, Peoria, AZ 85382 ",85382,0.5021247267723083,284000,https://www.zillow.com/homedetails/21675-N-91st-Dr-Peoria-AZ-85382/52429863_zpid/,33.6776,-112.256
96125,13470113,"23079 S 215th St, Queen Creek, AZ 85142 ",85142,0.5021247267723083,309000,https://www.zillow.com/homedetails/23079-S-215th-St-Queen-Creek-AZ-85142/60991344_zpid/,33.2386,-111.618
349232,22391933,"18243 N 16th Pl, Phoenix, AZ 85022 ",85022,0.5021247267723083,269900,https://www.zillow.com/homedetails/18243-N-16th-Pl-Phoenix-AZ-85022/8001270_zpid/,33.6529,-112.04700000000001
1492806,22331903,"17512 W Tasha Dr, Surprise, AZ 85388 ",85388,0.5021247267723083,298000,https://www.zillow.com/homedetails/17512-W-Tasha-Dr-Surprise-AZ-85388/67795911_zpid/,33.6331,-112.436
1501321,22375896,"18179 W Ivy Ln, Surprise, AZ 85388 ",85388,0.5021247267723083,295000,https://www.zillow.com/homedetails/18179-W-Ivy-Ln-Surprise-AZ-85388/95089291_zpid/,33.6259,-112.45100000000001
1426190,22437776,"3807 W Fallen Leaf Ln, Glendale, AZ 85310 ",85310,0.5021247267723083,309900,https://www.zillow.com/homedetails/3807-W-Fallen-Leaf-Ln-Glendale-AZ-85310/7931907_zpid/,33.7112,-112.141
8951296,17927926,"11005 E Florian Ave, Mesa, AZ 85208 ",85208,0.5021247267723083,274900,https://www.zillow.com/homedetails/11005-E-Florian-Ave-Mesa-AZ-85208/8089882_zpid/,33.3954,-111.594
1493231,21814190,"17537 W Marshall Ln, Surprise, AZ 85388 ",85388,0.5021247267723083,289000,https://www.zillow.com/homedetails/17537-W-Marshall-Ln-Surprise-AZ-85388/71609950_zpid/,33.6307,-112.436
8977159,22444460,"13702 W Chaparosa Way, Peoria, AZ 85383 ",85383,0.5021247267723083,304900,https://www.zillow.com/homedetails/13702-W-Chaparosa-Way-Peoria-AZ-85383/89136834_zpid/,33.7658,-112.35600000000001
136592,22329972,"18314 W Westfall Way, Surprise, AZ 85374 ",85374,0.5021247267723083,273999,https://www.zillow.com/homedetails/18314-W-Westfall-Way-Surprise-AZ-85374/71610983_zpid/,33.645,-112.45299999999999
8959161,21814187,"17345 W Red Bird Rd, Surprise, AZ 85387 ",85387,0.5021247267723083,269500,https://www.zillow.com/homedetails/17345-W-Red-Bird-Rd-Surprise-AZ-85387/71628786_zpid/,33.7284,-112.435
8947798,22080514,"8455 W Alyssa Ln, Peoria, AZ 85383 ",85383,0.5021247267723083,289900,https://www.zillow.com/homedetails/8455-W-Alyssa-Ln-Peoria-AZ-85383/60980000_zpid/,33.7299,-112.243
1491434,21814172,"17281 W Elm St, Surprise, AZ 85388 ",85388,0.5021247267723083,248900,https://www.zillow.com/homedetails/17281-W-Elm-St-Surprise-AZ-85388/60995166_zpid/,33.6375,-112.432
515808,22456821,"12671 W Desert Mirage Dr, Peoria, AZ 85383 ",85383,0.5021247267723083,279500,https://www.zillow.com/homedetails/12671-W-Desert-Mirage-Dr-Peoria-AZ-85383/67401604_zpid/,33.7579,-112.33200000000001
508113,22461833,"10269 W Los Gatos Dr, Peoria, AZ 85383 ",85383,0.5021247267723083,289900,https://www.zillow.com/homedetails/10269-W-Los-Gatos-Dr-Peoria-AZ-85383/67790530_zpid/,33.6848,-112.281
1484086,22378327,"16525 N 170th Ln, Surprise, AZ 85388 ",85388,0.5021247267723083,305000,https://www.zillow.com/homedetails/16525-N-170th-Ln-Surprise-AZ-85388/55283602_zpid/,33.6344,-112.426
2063644,21606490,"29600 N 69th Ave, Peoria, AZ 85383 ",85383,0.5021247267723083,314000,https://www.zillow.com/homedetails/29600-N-69th-Ave-Peoria-AZ-85383/71606282_zpid/,33.7544,-112.208
583387,22420066,"11013 E Sutter Ave, Mesa, AZ 85212 ",85212,0.5021247267723083,296900,https://www.zillow.com/homedetails/11013-E-Sutter-Ave-Mesa-AZ-85212/95158336_zpid/,33.3223,-111.596
8968555,22262309,"16463 W Rowel Rd, Surprise, AZ 85387 ",85387,0.5021247267723083,299900,https://www.zillow.com/homedetails/16463-W-Rowel-Rd-Surprise-AZ-85387/67796536_zpid/,33.7238,-112.416
1269681,22471439,"3659 E Parkview Dr, Gilbert, AZ 85295 ",85295,0.5021247267723083,310000,https://www.zillow.com/homedetails/3659-E-Parkview-Dr-Gilbert-AZ-85295/67793452_zpid/,33.3015,-111.711
587262,22420073,"11315 E Shelley Ave, Mesa, AZ 85212 ",85212,0.5021247267723083,305000,https://www.zillow.com/homedetails/11315-E-Shelley-Ave-Mesa-AZ-85212/95153575_zpid/,33.3233,-111.589
1483412,22262302,"16423 N 172nd Ave, Surprise, AZ 85388 ",85388,0.5021247267723083,265000,https://www.zillow.com/homedetails/16423-N-172nd-Ave-Surprise-AZ-85388/67768305_zpid/,33.6334,-112.429
95811,13470643,"22803 S 215th St, Queen Creek, AZ 85142 ",85142,0.5021247267723083,259900,https://www.zillow.com/homedetails/22803-S-215th-St-Queen-Creek-AZ-85142/60991327_zpid/,33.2408,-111.618
1271064,22471122,"3929 E Fairview St, Gilbert, AZ 85295 ",85295,0.5021247267723083,235000,https://www.zillow.com/homedetails/3929-E-Fairview-St-Gilbert-AZ-85295/67801328_zpid/,33.2957,-111.705
240677,21608768,"3121 W Greenway Rd, Phoenix, AZ 85053 ",85053,0.5021247267723083,259900,https://www.zillow.com/homedetails/3121-W-Greenway-Rd-Phoenix-AZ-85053/7953153_zpid/,33.6249,-112.126
1929042,13470047,"22309 S 227th Way, Queen Creek, AZ 85142 ",85142,0.5021247267723083,304950,https://www.zillow.com/homedetails/22309-S-227th-Way-Queen-Creek-AZ-85142/2097412690_zpid/,33.2028,-111.64200000000001
71049,22445619,"3781 E Sebastian Ln, Gilbert, AZ 85297 ",85297,0.5021247267723083,305000,https://www.zillow.com/homedetails/3781-E-Sebastian-Ln-Gilbert-AZ-85297/64506549_zpid/,33.2766,-111.708
1273825,21983233,"4558 E Dublin St, Gilbert, AZ 85295 ",85295,0.5021247267723083,287000,https://www.zillow.com/homedetails/4558-E-Dublin-St-Gilbert-AZ-85295/60987585_zpid/,33.32,-111.69200000000001
517549,22456824,"12874 W Dove Wing Way, Peoria, AZ 85383 ",85383,0.5021247267723083,297900,https://www.zillow.com/homedetails/12874-W-Dove-Wing-Way-Peoria-AZ-85383/67784041_zpid/,33.7568,-112.337
8952424,22229525,"27081 N 174th Dr, Surprise, AZ 85387 ",85387,0.5021247267723083,298950,https://www.zillow.com/homedetails/27081-N-174th-Dr-Surprise-AZ-85387/71628790_zpid/,33.7289,-112.43700000000001
1479064,21814051,"15482 N 180th Ct, Surprise, AZ 85388 ",85388,0.5021247267723083,274999,https://www.zillow.com/homedetails/15482-N-180th-Ct-Surprise-AZ-85388/81953749_zpid/,33.625,-112.448
1491624,22378598,"17320 W Woodrow Ln, Surprise, AZ 85388 ",85388,0.5021247267723083,289999,https://www.zillow.com/homedetails/17320-W-Woodrow-Ln-Surprise-AZ-85388/67768870_zpid/,33.6197,-112.432
1426196,22397049,"3816 W Fallen Leaf Ln, Glendale, AZ 85310 ",85310,0.5021247267723083,280000,https://www.zillow.com/homedetails/3816-W-Fallen-Leaf-Ln-Glendale-AZ-85310/7931933_zpid/,33.7116,-112.141
769567,22446108,"6362 E Princess Dr, Mesa, AZ 85205 ",85205,0.5021247267723083,312900,https://www.zillow.com/homedetails/6362-E-Princess-Dr-Mesa-AZ-85205/7677011_zpid/,33.4412,-111.693
8982251,22445372,"27143 N 172nd Ln, Surprise, AZ 85387 ",85387,0.5021247267723083,274900,https://www.zillow.com/homedetails/27143-N-172nd-Ln-Surprise-AZ-85387/89220768_zpid/,33.7295,-112.434
584660,22261613,"11121 E Sonrisa Ave, Mesa, AZ 85212 ",85212,0.5021247267723083,265000,https://www.zillow.com/homedetails/11121-E-Sonrisa-Ave-Mesa-AZ-85212/82240393_zpid/,33.3305,-111.594
7405644,22378328,"16746 W Wellingborough Rd, Surprise, AZ 85374 ",85374,0.5021247267723083,260000,https://www.zillow.com/homedetails/16746-W-Wellingborough-Rd-Surprise-AZ-85374/55271691_zpid/,33.6498,-112.419
1273215,21982412,"4339 E Harrison St, Gilbert, AZ 85295 ",85295,0.5021247267723083,295000,https://www.zillow.com/homedetails/4339-E-Harrison-St-Gilbert-AZ-85295/55275929_zpid/,33.3162,-111.696
7444019,20721681,"29031 N 124th Dr, Peoria, AZ 85383 ",85383,0.5021247267723083,274995,https://www.zillow.com/homedetails/29031-N-124th-Dr-Peoria-AZ-85383/95161733_zpid/,33.7484,-112.32799999999999
712123,22446120,"6545 E Snowdon St, Mesa, AZ 85215 ",85215,0.5021247267723083,274999,https://www.zillow.com/homedetails/6545-E-Snowdon-St-Mesa-AZ-85215/7671426_zpid/,33.4842,-111.689
584744,22430761,"11125 E Sorpresa Ave, Mesa, AZ 85212 ",85212,0.5021247267723083,284900,https://www.zillow.com/homedetails/11125-E-Sorpresa-Ave-Mesa-AZ-85212/82824953_zpid/,33.3263,-111.595
253941,22116893,"3838 W Port Royale Ln, Phoenix, AZ 85053 ",85053,0.5,249900,https://www.zillow.com/homedetails/3838-W-Port-Royale-Ln-Phoenix-AZ-85053/7944047_zpid/,33.6214,-112.141
62533,22117186,"39625 N Prairie Ln, Anthem, AZ 85086 ",85086,0.5,289900,https://www.zillow.com/homedetails/39625-N-Prairie-Ln-Anthem-AZ-85086/64717597_zpid/,33.8454,-112.094
1874214,22408652,"1338 S Palomino Creek Dr, Gilbert, AZ 85296 ",85296,0.5,309900,https://www.zillow.com/homedetails/1338-S-Palomino-Creek-Dr-Gilbert-AZ-85296/8277742_zpid/,33.3259,-111.76100000000001
1685194,22408692,"13112 W Nogales Dr, Sun City West, AZ 85375 ",85375,0.5,317000,https://www.zillow.com/homedetails/13112-W-Nogales-Dr-Sun-City-West-AZ-85375/68541159_zpid/,33.6954,-112.34200000000001
581223,22106031,"10633 E Posada Ave, Mesa, AZ 85212 ",85212,0.5,299999,https://www.zillow.com/homedetails/10633-E-Posada-Ave-Mesa-AZ-85212/8278695_zpid/,33.3593,-111.604
1553239,22117091,"3915 S Nebraska St, Chandler, AZ 85248 ",85248,0.5,289900,https://www.zillow.com/homedetails/3915-S-Nebraska-St-Chandler-AZ-85248/50196036_zpid/,33.2497,-111.846
524890,22104506,"9133 W Vernon Ave, Phoenix, AZ 85037 ",85037,0.5,249900,https://www.zillow.com/homedetails/9133-W-Vernon-Ave-Phoenix-AZ-85037/67764436_zpid/,33.4726,-112.257
1111814,22408815,"1372 W Glenmere Dr, Chandler, AZ 85224 ",85224,0.5,309900,https://www.zillow.com/homedetails/1372-W-Glenmere-Dr-Chandler-AZ-85224/8207310_zpid/,33.2957,-111.866
394680,22105334,"3633 W Yucca St, Phoenix, AZ 85029 ",85029,0.5,214000,https://www.zillow.com/homedetails/3633-W-Yucca-St-Phoenix-AZ-85029/7743465_zpid/,33.5873,-112.137
388144,22116733,"3815 W Brown St, Phoenix, AZ 85051 ",85051,0.5,230000,https://www.zillow.com/homedetails/3815-W-Brown-St-Phoenix-AZ-85051/7745515_zpid/,33.5782,-112.14
432615,20685087,"11125 W College Dr, Phoenix, AZ 85037 ",85037,0.5,213500,https://www.zillow.com/homedetails/11125-W-College-Dr-Phoenix-AZ-85037/81982689_zpid/,33.5069,-112.3
44527,22409241,"1438 E South Fork Dr, Phoenix, AZ 85048 ",85048,0.5,314900,https://www.zillow.com/homedetails/1438-E-South-Fork-Dr-Phoenix-AZ-85048/8135647_zpid/,33.3058,-112.051
1112877,22409449,"1483 W Kesler Ln, Chandler, AZ 85224 ",85224,0.5,305000,https://www.zillow.com/homedetails/1483-W-Kesler-Ln-Chandler-AZ-85224/8225735_zpid/,33.292,-111.867
5062895,22090378,"29402 N 123RD Ln, Peoria, AZ 85383 ",85383,0.5,259788,https://www.zillow.com/homedetails/29402-N-123RD-Ln-Peoria-AZ-85383/95093103_zpid/,33.7496,-112.32700000000001
390139,22117275,"4007 W Alice Ave, Phoenix, AZ 85051 ",85051,0.5,235000,https://www.zillow.com/homedetails/4007-W-Alice-Ave-Phoenix-AZ-85051/7753314_zpid/,33.5637,-112.145
1039957,22105394,"4274 E Gleneagle Dr, Chandler, AZ 85249 ",85249,0.5,271500,https://www.zillow.com/homedetails/4274-E-Gleneagle-Dr-Chandler-AZ-85249/62736880_zpid/,33.2053,-111.76700000000001
7520410,22090405,"29681 N 70th Ln, Peoria, AZ 85383 ",85383,0.5,294900,https://www.zillow.com/homedetails/29681-N-70th-Ln-Peoria-AZ-85383/82799562_zpid/,33.7537,-112.212
8973160,22408037,"1258 E Chicago Cir, Chandler, AZ 85225 ",85225,0.5,319900,https://www.zillow.com/homedetails/1258-E-Chicago-Cir-Chandler-AZ-85225/8222822_zpid/,33.3004,-111.815
455548,22103854,"4727 W Roma Ave, Phoenix, AZ 85031 ",85031,0.5,185000,https://www.zillow.com/homedetails/4727-W-Roma-Ave-Phoenix-AZ-85031/7720882_zpid/,33.5012,-112.161
389906,21816649,"3942 W Cactus Wren Dr, Phoenix, AZ 85051 ",85051,0.5,229900,https://www.zillow.com/homedetails/3942-W-Cactus-Wren-Dr-Phoenix-AZ-85051/7757512_zpid/,33.5394,-112.145
8974181,22408130,"12609 W Alegre Dr, Litchfield Park, AZ 85340 ",85340,0.5,259900,https://www.zillow.com/homedetails/12609-W-Alegre-Dr-Litchfield-Park-AZ-85340/59255023_zpid/,33.5006,-112.331
603216,22414025,"3853 E Diamond Ave, Mesa, AZ 85206 ",85206,0.5,285000,https://www.zillow.com/homedetails/3853-E-Diamond-Ave-Mesa-AZ-85206/64649514_zpid/,33.4026,-111.74799999999999
7418350,22408264,"12816 W Alegre Ct, Litchfield Park, AZ 85340 ",85340,0.5,215000,https://www.zillow.com/homedetails/12816-W-Alegre-Ct-Litchfield-Park-AZ-85340/58341720_zpid/,33.501,-112.335
439526,22408447,"12932 W Segovia Dr, Litchfield Park, AZ 85340 ",85340,0.5,281000,https://www.zillow.com/homedetails/12932-W-Segovia-Dr-Litchfield-Park-AZ-85340/59255073_zpid/,33.501999999999995,-112.338
194812,22103379,"2928 W Shumway Farm Rd, Phoenix, AZ 85041 ",85041,0.5,230000,https://www.zillow.com/homedetails/2928-W-Shumway-Farm-Rd-Phoenix-AZ-85041/67764863_zpid/,33.3836,-112.12200000000001
63058,22117536,"40471 N High Noon Way, Anthem, AZ 85086 ",85086,0.5,319900,https://www.zillow.com/homedetails/40471-N-High-Noon-Way-Anthem-AZ-85086/60962353_zpid/,33.8517,-112.113
7491962,22092652,"3915 W Roundabout Cir, Chandler, AZ 85226 ",85226,0.5,309500,https://www.zillow.com/homedetails/3915-W-Roundabout-Cir-Chandler-AZ-85226/67793434_zpid/,33.3213,-111.90899999999999
8972920,22414887,"4514 N 129th Ave, Litchfield Park, AZ 85340 ",85340,0.5,285000,https://www.zillow.com/homedetails/4514-N-129th-Ave-Litchfield-Park-AZ-85340/58759233_zpid/,33.5006,-112.336
55742,22414895,"4635 E Mountain Vista Dr, Phoenix, AZ 85048 ",85048,0.5,300000,https://www.zillow.com/homedetails/4635-E-Mountain-Vista-Dr-Phoenix-AZ-85048/8259943_zpid/,33.3009,-111.98299999999999
1177632,22407993,"1232 W Pacific Dr, Gilbert, AZ 85233 ",85233,0.5,291500,https://www.zillow.com/homedetails/1232-W-Pacific-Dr-Gilbert-AZ-85233/8202816_zpid/,33.348,-111.81700000000001
1131120,22418372,"891 S Apache Dr, Chandler, AZ 85224 ",85224,0.5,313000,https://www.zillow.com/homedetails/891-S-Apache-Dr-Chandler-AZ-85224/8225681_zpid/,33.2927,-111.86200000000001
450428,22418241,"8725 W Lewis Ave, Phoenix, AZ 85037 ",85037,0.5,188800,https://www.zillow.com/homedetails/8725-W-Lewis-Ave-Phoenix-AZ-85037/7474036_zpid/,33.4737,-112.24799999999999
8976245,22408464,"13002 W Highland Ave, Litchfield Park, AZ 85340 ",85340,0.5,252633,https://www.zillow.com/homedetails/13002-W-Highland-Ave-Litchfield-Park-AZ-85340/60998722_zpid/,33.5031,-112.339
46449,22409968,"16021 S 45th St, Phoenix, AZ 85048 ",85048,0.5,290000,https://www.zillow.com/homedetails/16021-S-45th-St-Phoenix-AZ-85048/8259742_zpid/,33.3008,-111.98700000000001
233766,22409453,"14842 S 44th Pl, Phoenix, AZ 85044 ",85044,0.5,299900,https://www.zillow.com/homedetails/14842-S-44th-Pl-Phoenix-AZ-85044/8165195_zpid/,33.3111,-111.98899999999999
7412635,22100965,"15330 W Turney Ave, Goodyear, AZ 85395 ",85395,0.5,307900,https://www.zillow.com/homedetails/15330-W-Turney-Ave-Goodyear-AZ-85395/71615373_zpid/,33.499,-112.387
8955490,22411596,"2106 E Ludlow Dr, Phoenix, AZ 85022 ",85022,0.5,320000,https://www.zillow.com/homedetails/2106-E-Ludlow-Dr-Phoenix-AZ-85022/8010406_zpid/,33.6123,-112.038
7561581,22097988,"7308 S 18th Ln, Phoenix, AZ 85041 ",85041,0.5,233999,https://www.zillow.com/homedetails/7308-S-18th-Ln-Phoenix-AZ-85041/121852970_zpid/,33.3807,-112.09899999999999
242608,22109870,"1820 W Michigan Ave, Phoenix, AZ 85023 ",85023,0.5,226000,https://www.zillow.com/homedetails/1820-W-Michigan-Ave-Phoenix-AZ-85023/7957361_zpid/,33.6513,-112.09899999999999
589201,22106293,"11440 E Pratt Ave, Mesa, AZ 85212 ",85212,0.5,269900,https://www.zillow.com/homedetails/11440-E-Pratt-Ave-Mesa-AZ-85212/52432984_zpid/,33.3545,-111.587
668748,22417108,"7213 E Natal Ave, Mesa, AZ 85209 ",85209,0.5,300000,https://www.zillow.com/homedetails/7213-E-Natal-Ave-Mesa-AZ-85209/8274350_zpid/,33.3682,-111.679
7395216,19955268,"2936 E Pontiac Dr, Phoenix, AZ 85050 ",85050,0.5,279900,https://www.zillow.com/homedetails/2936-E-Pontiac-Dr-Phoenix-AZ-85050/7991700_zpid/,33.6703,-112.01899999999999
8959571,21818451,"29930 N 128th Ave, Peoria, AZ 85383 ",85383,0.5,319900,https://www.zillow.com/homedetails/29930-N-128th-Ave-Peoria-AZ-85383/67784059_zpid/,33.7542,-112.336
7423013,19961691,"1122 W 6th Pl, Mesa, AZ 85201 ",85201,0.5,257500,https://www.zillow.com/homedetails/1122-W-6th-Pl-Mesa-AZ-85201/7607486_zpid/,33.4267,-111.855
872794,22412099,"2305 S 119th Dr, Avondale, AZ 85323 ",85323,0.5,279900,https://www.zillow.com/homedetails/2305-S-119th-Dr-Avondale-AZ-85323/95073975_zpid/,33.4259,-112.315
7373566,22102211,"3123 E Quince St, Mesa, AZ 85213 ",85213,0.5,318596,http://www.zillow.com/homedetails/3123-E-Quince-St-Mesa-AZ-85213/125143187_zpid/,33.4745,-111.78299999999999
1091243,22416827,"672 N Sunland Dr, Chandler, AZ 85225 ",85225,0.5,235000,https://www.zillow.com/homedetails/672-N-Sunland-Dr-Chandler-AZ-85225/8187208_zpid/,33.3147,-111.845
8952007,22106699,"13708 W Chaparosa Way, Peoria, AZ 85383 ",85383,0.5,299900,https://www.zillow.com/homedetails/13708-W-Chaparosa-Way-Peoria-AZ-85383/89136833_zpid/,33.7658,-112.35600000000001
8962341,22100978,"17282 W Morning Glory St, Goodyear, AZ 85338 ",85338,0.5,260000,https://www.zillow.com/homedetails/17282-W-Morning-Glory-St-Goodyear-AZ-85338/82240228_zpid/,33.4446,-112.431
8952008,22106739,"13687 W Creosote Dr, Peoria, AZ 85383 ",85383,0.5,315000,https://www.zillow.com/homedetails/13687-W-Creosote-Dr-Peoria-AZ-85383/95079460_zpid/,33.7669,-112.35600000000001
182258,22108570,"15846 S 17th Ln, Phoenix, AZ 85045 ",85045,0.5,315000,https://www.zillow.com/homedetails/15846-S-17th-Ln-Phoenix-AZ-85045/8284857_zpid/,33.302,-112.09700000000001
861033,21821276,"11717 W Jefferson St, Avondale, AZ 85323 ",85323,0.5,255000,https://www.zillow.com/homedetails/11717-W-Jefferson-St-Avondale-AZ-85323/81964622_zpid/,33.4439,-112.311
8964822,22100995,"17462 W Yavapai St, Goodyear, AZ 85338 ",85338,0.5,237000,https://www.zillow.com/homedetails/17462-W-Yavapai-St-Goodyear-AZ-85338/55287010_zpid/,33.4343,-112.435
8948764,22416655,"647 S Heritage Dr, Gilbert, AZ 85296 ",85296,0.5,309900,https://www.zillow.com/homedetails/647-S-Heritage-Dr-Gilbert-AZ-85296/8278262_zpid/,33.3384,-111.772
435368,22104673,"2111 N 94th Gln, Phoenix, AZ 85037 ",85037,0.5,259000,https://www.zillow.com/homedetails/2111-N-94th-Gln-Phoenix-AZ-85037/67772997_zpid/,33.471,-112.264
1094211,22417781,"802 E Monterey St, Chandler, AZ 85225 ",85225,0.5,310000,https://www.zillow.com/homedetails/802-E-Monterey-St-Chandler-AZ-85225/8189115_zpid/,33.3149,-111.82799999999999
90269,22111372,"21061 E Saddle Way, Queen Creek, AZ 85142 ",85142,0.5,279000,https://www.zillow.com/homedetails/21061-E-Saddle-Way-Queen-Creek-AZ-85142/67760940_zpid/,33.2603,-111.63
192692,22112099,"2241 W Baseline Rd, Phoenix, AZ 85041 ",85041,0.5,259000,https://www.zillow.com/homedetails/2241-W-Baseline-Rd-Phoenix-AZ-85041/60984102_zpid/,33.3773,-112.10799999999999
194648,22114070,"2838 W Sunland Ave, Phoenix, AZ 85041 ",85041,0.5,234500,https://www.zillow.com/homedetails/2838-W-Sunland-Ave-Phoenix-AZ-85041/71605261_zpid/,33.396,-112.12100000000001
310161,22118622,"43106 N National Trl, Anthem, AZ 85086 ",85086,0.5,283000,https://www.zillow.com/homedetails/43106-N-National-Trl-Anthem-AZ-85086/59269109_zpid/,33.8758,-112.13600000000001
798291,22413669,"3562 E Pueblo Ave, Mesa, AZ 85204 ",85204,0.5,268000,https://www.zillow.com/homedetails/3562-E-Pueblo-Ave-Mesa-AZ-85204/7645501_zpid/,33.4012,-111.75399999999999
281886,22106130,"11004 N 33rd St, Phoenix, AZ 85028 ",85028,0.5,309900,https://www.zillow.com/homedetails/11004-N-33rd-St-Phoenix-AZ-85028/7819267_zpid/,33.5864,-112.01100000000001
1197154,22418213,"855 W Horseshoe Ave, Gilbert, AZ 85233 ",85233,0.5,319900,https://www.zillow.com/homedetails/855-W-Horseshoe-Ave-Gilbert-AZ-85233/8280657_zpid/,33.3469,-111.809
308706,22093011,"40814 N Hudson Ct, Anthem, AZ 85086 ",85086,0.5,265000,https://www.zillow.com/homedetails/40814-N-Hudson-Ct-Anthem-AZ-85086/67791237_zpid/,33.8555,-112.14200000000001
872577,22409972,"1611 S 120th Ln, Avondale, AZ 85323 ",85323,0.5,207999,https://www.zillow.com/homedetails/1611-S-120th-Ln-Avondale-AZ-85323/55282991_zpid/,33.4303,-112.318
448505,22418037,"8413 W Avalon Dr, Phoenix, AZ 85037 ",85037,0.5,199000,https://www.zillow.com/homedetails/8413-W-Avalon-Dr-Phoenix-AZ-85037/55256994_zpid/,33.4829,-112.24
226196,22101542,"14838 N 35th Ave, Phoenix, AZ 85053 ",85053,0.5,229900,http://www.zillow.com/homedetails/14838-N-35th-Ave-Phoenix-AZ-85053/7944260_zpid/,33.6217,-112.134
185923,22410137,"16257 S 12th Pl, Phoenix, AZ 85048 ",85048,0.5,299999,https://www.zillow.com/homedetails/16257-S-12th-Pl-Phoenix-AZ-85048/8130386_zpid/,33.2981,-112.055
303291,22113393,"2594 W Kit Carson Trl, Anthem, AZ 85086 ",85086,0.5,309900,https://www.zillow.com/homedetails/2594-W-Kit-Carson-Trl-Anthem-AZ-85086/60116519_zpid/,33.8506,-112.115
1009255,22416556,"633 E Flintlock Pl, Chandler, AZ 85286 ",85286,0.5,265000,https://www.zillow.com/homedetails/633-E-Flintlock-Pl-Chandler-AZ-85286/59262338_zpid/,33.2892,-111.83200000000001
8959087,22418019,"836 E Glenmere Dr, Chandler, AZ 85225 ",85225,0.5,274000,https://www.zillow.com/homedetails/836-E-Glenmere-Dr-Chandler-AZ-85225/8206052_zpid/,33.2957,-111.82799999999999
588987,22106289,"11430 E Prairie Ave, Mesa, AZ 85212 ",85212,0.5,275000,https://www.zillow.com/homedetails/11430-E-Prairie-Ave-Mesa-AZ-85212/52432968_zpid/,33.3555,-111.587
273453,22113217,"2530 W Mark Ln, Phoenix, AZ 85085 ",85085,0.5,314900,https://www.zillow.com/homedetails/2530-W-Mark-Ln-Phoenix-AZ-85085/71552275_zpid/,33.7445,-112.11399999999999
8975050,22410491,"1720 Leisure World, Mesa, AZ 85206 ",85206,0.5,229900,https://www.zillow.com/homedetails/1720-Leisure-World-Mesa-AZ-85206/7666110_zpid/,33.405,-111.695
727809,22112729,"238 N Hobson, Mesa, AZ 85203 ",85203,0.5,305000,https://www.zillow.com/homedetails/238-N-Hobson-Mesa-AZ-85203/7625202_zpid/,33.4197,-111.818
8964834,22104744,"6925 W Beverly Rd, Laveen, AZ 85339 ",85339,0.5,244900,https://www.zillow.com/homedetails/6925-W-Beverly-Rd-Laveen-AZ-85339/71613670_zpid/,33.3749,-112.20700000000001
530319,22127980,"5026 W Gwen St, Laveen, AZ 85339 ",85339,0.5,300000,https://www.zillow.com/homedetails/5026-W-Gwen-St-Laveen-AZ-85339/67766999_zpid/,33.3655,-112.16799999999999
8937639,22407950,"1252 E Cindy St, Chandler, AZ 85225 ",85225,0.5,305000,https://www.zillow.com/homedetails/1252-E-Cindy-St-Chandler-AZ-85225/8222797_zpid/,,
390056,21815529,"2917 W Aster Dr, Phoenix, AZ 85029 ",85029,0.5,209000,https://www.zillow.com/homedetails/2917-W-Aster-Dr-Phoenix-AZ-85029/7741102_zpid/,33.6021,-112.12200000000001
1426475,22397108,"3864 W Alameda Rd, Glendale, AZ 85310 ",85310,0.5,273000,https://www.zillow.com/homedetails/3864-W-Alameda-Rd-Glendale-AZ-85310/7931605_zpid/,33.7063,-112.141
251072,21815576,"3640 W Redfield Rd, Phoenix, AZ 85053 ",85053,0.5,255000,https://www.zillow.com/homedetails/3640-W-Redfield-Rd-Phoenix-AZ-85053/7944468_zpid/,33.6141,-112.13799999999999
71421,22397069,"3831 E Santa Fe Ln, Gilbert, AZ 85297 ",85297,0.5,290000,https://www.zillow.com/homedetails/3831-E-Santa-Fe-Ln-Gilbert-AZ-85297/71622590_zpid/,33.2784,-111.70700000000001
1426203,22397053,"3817 W Fallen Leaf Ln, Glendale, AZ 85310 ",85310,0.5,324000,https://www.zillow.com/homedetails/3817-W-Fallen-Leaf-Ln-Glendale-AZ-85310/7931910_zpid/,33.7112,-112.141
1459264,22182719,"15671 W Devonshire Ave, Goodyear, AZ 85395 ",85395,0.5,310000,https://www.zillow.com/homedetails/15671-W-Devonshire-Ave-Goodyear-AZ-85395/81996405_zpid/,33.4952,-112.397
7563096,22182810,"12811 N 79th Ave, Peoria, AZ 85381 ",85381,0.5,284900,https://www.zillow.com/homedetails/12811-N-79th-Ave-Peoria-AZ-85381/7913445_zpid/,33.6018,-112.229
8957373,22396865,"3725 S 99th Dr, Tolleson, AZ 85353 ",85353,0.5,210000,https://www.zillow.com/homedetails/3725-S-99th-Dr-Tolleson-AZ-85353/95163872_zpid/,33.4117,-112.273
70358,22396826,"3668 S Seton Ave, Gilbert, AZ 85297 ",85297,0.5,319900,https://www.zillow.com/homedetails/3668-S-Seton-Ave-Gilbert-AZ-85297/50198349_zpid/,33.284,-111.72
8955388,22182832,"14830 W Jenan Dr, Surprise, AZ 85379 ",85379,0.5,235000,https://www.zillow.com/homedetails/14830-W-Jenan-Dr-Surprise-AZ-85379/60999898_zpid/,33.591,-112.38
7408322,22182907,"4840 W Dunbar Dr, Laveen, AZ 85339 ",85339,0.5,215000,https://www.zillow.com/homedetails/4840-W-Dunbar-Dr-Laveen-AZ-85339/88792430_zpid/,33.3789,-112.163
631372,22182925,"7103 S 53rd Ln, Laveen, AZ 85339 ",85339,0.5,219900,https://www.zillow.com/homedetails/7103-S-53rd-Ln-Laveen-AZ-85339/68956947_zpid/,33.3817,-112.17299999999999
69320,22396618,"3482 S Cupertino Dr, Gilbert, AZ 85297 ",85297,0.5,299900,https://www.zillow.com/homedetails/3482-S-Cupertino-Dr-Gilbert-AZ-85297/50198185_zpid/,33.2874,-111.711
69010,22396578,"3434 E Flamingo Ct, Gilbert, AZ 85297 ",85297,0.5,295000,https://www.zillow.com/homedetails/3434-E-Flamingo-Ct-Gilbert-AZ-85297/54784090_zpid/,33.2772,-111.71600000000001
202056,20717029,"7427 S 15th Dr, Phoenix, AZ 85041 ",85041,0.5,279000,https://www.zillow.com/homedetails/7427-S-15th-Dr-Phoenix-AZ-85041/81984284_zpid/,33.3788,-112.09100000000001
68139,22396226,"3230 E Woodside Way, Gilbert, AZ 85297 ",85297,0.5,300000,https://www.zillow.com/homedetails/3230-E-Woodside-Way-Gilbert-AZ-85297/8244618_zpid/,33.2869,-111.72
71968,22397162,"3889 E Santa Fe Ln, Gilbert, AZ 85297 ",85297,0.5,289900,https://www.zillow.com/homedetails/3889-E-Santa-Fe-Ln-Gilbert-AZ-85297/71492750_zpid/,33.2785,-111.706
8958881,22397586,"4145 W Meadow Dr, Glendale, AZ 85308 ",85308,0.5,273000,https://www.zillow.com/homedetails/4145-W-Meadow-Dr-Glendale-AZ-85308/7947036_zpid/,33.6404,-112.149
1233577,22397708,"434 N Cobblestone St, Gilbert, AZ 85234 ",85234,0.5,260000,https://www.zillow.com/homedetails/434-N-Cobblestone-St-Gilbert-AZ-85234/8235852_zpid/,33.3585,-111.76
8959320,21815644,"36 E Piping Rock Rd, Phoenix, AZ 85022 ",85022,0.5,279900,https://www.zillow.com/homedetails/36-E-Piping-Rock-Rd-Phoenix-AZ-85022/7962889_zpid/,33.6145,-112.073
1885521,22400226,"6939 W Remuda Dr, Peoria, AZ 85383 ",85383,0.5,300000,https://www.zillow.com/homedetails/6939-W-Remuda-Dr-Peoria-AZ-85383/50185426_zpid/,33.7204,-112.21
7397708,22165727,"625 N Sunland Dr, Chandler, AZ 85225 ",85225,0.5,179000,https://www.zillow.com/homedetails/625-N-Sunland-Dr-Chandler-AZ-85225/8187196_zpid/,33.3149,-111.844
7445542,22400094,"6890 W Remuda Dr, Peoria, AZ 85383 ",85383,0.5,309900,https://www.zillow.com/homedetails/6890-W-Remuda-Dr-Peoria-AZ-85383/25776324_zpid/,33.7206,-112.206
7492954,22166902,"8350 W Antelope Dr, Peoria, AZ 85383 ",85383,0.5,323500,https://www.zillow.com/homedetails/8350-W-Antelope-Dr-Peoria-AZ-85383/59268358_zpid/,33.7183,-112.24
1354665,22399822,"6514 N 52nd Dr, Glendale, AZ 85301 ",85301,0.5,200000,https://www.zillow.com/homedetails/6514-N-52nd-Dr-Glendale-AZ-85301/7722173_zpid/,33.5318,-112.17200000000001
925466,22168031,"23458 W Mohave St, Buckeye, AZ 85326 ",85326,0.5,225000,https://www.zillow.com/homedetails/23458-W-Mohave-St-Buckeye-AZ-85326/67779766_zpid/,33.4315,-112.555
41669,22399528,"6334 W Miami St, Phoenix, AZ 85043 ",85043,0.5,229900,https://www.zillow.com/homedetails/6334-W-Miami-St-Phoenix-AZ-85043/52699356_zpid/,33.4187,-112.197
8958884,22397851,"4451 W Keating Cir, Glendale, AZ 85308 ",85308,0.5,269900,https://www.zillow.com/homedetails/4451-W-Keating-Cir-Glendale-AZ-85308/7950314_zpid/,33.6419,-112.155
5218193,20706934,"3331 E Russell St, Mesa, AZ 85213 ",85213,0.5,294484,http://www.zillow.com/homedetails/3331-E-Russell-St-Mesa-AZ-85213/125123641_zpid/,33.478,-111.758
631167,22174060,"434 S Pasadena, Mesa, AZ 85210 ",85210,0.5,219000,https://www.zillow.com/homedetails/434-S-Pasadena-Mesa-AZ-85210/7632008_zpid/,33.4067,-111.82700000000001
8926191,22174097,"4408 N 34th Dr, Phoenix, AZ 85017 ",85017,0.5,200000,https://www.zillow.com/homedetails/4408-N-34th-Dr-Phoenix-AZ-85017/7768199_zpid/,33.5008,-112.134
411884,22398792,"5315 W Wethersfield Dr, Glendale, AZ 85304 ",85304,0.5,314900,https://www.zillow.com/homedetails/5315-W-Wethersfield-Dr-Glendale-AZ-85304/7896812_zpid/,33.597,-112.17399999999999
8294541,22398791,"5228 W Altadena Ave, Glendale, AZ 85304 ",85304,0.5,267898,https://www.zillow.com/homedetails/5228-W-Altadena-Ave-Glendale-AZ-85304/7737293_zpid/,33.5922,-112.17200000000001
8949196,22398108,"4656 S Hassett, Mesa, AZ 85212 ",85212,0.5,277000,https://www.zillow.com/homedetails/4656-S-Hassett-Mesa-AZ-85212/81982904_zpid/,33.3278,-111.595
420347,22183139,"5741 W Comet Ave, Glendale, AZ 85302 ",85302,0.5,264900,https://www.zillow.com/homedetails/5741-W-Comet-Ave-Glendale-AZ-85302/7735671_zpid/,33.5797,-112.18299999999999
8952014,22395910,"29613 N 69th Dr, Peoria, AZ 85383 ",85383,0.5,299900,https://www.zillow.com/homedetails/29613-N-69th-Dr-Peoria-AZ-85383/71606257_zpid/,33.7543,-112.209
8945109,22400851,"7619 W Surrey Ave, Peoria, AZ 85381 ",85381,0.5,279000,https://www.zillow.com/homedetails/7619-W-Surrey-Ave-Peoria-AZ-85381/7913656_zpid/,33.6045,-112.22399999999999
8966074,22395873,"29704 N 70th Ave, Peoria, AZ 85383 ",85383,0.5,312500,https://www.zillow.com/homedetails/29704-N-70th-Ave-Peoria-AZ-85383/82819948_zpid/,33.7537,-112.212
642023,22394288,"2137 S Catarina, Mesa, AZ 85202 ",85202,0.5,309999,https://www.zillow.com/homedetails/2137-S-Catarina-Mesa-AZ-85202/8253768_zpid/,33.3757,-111.884
42786,22191850,"7114 W Globe Ave, Phoenix, AZ 85043 ",85043,0.5,275000,https://www.zillow.com/homedetails/7114-W-Globe-Ave-Phoenix-AZ-85043/67788720_zpid/,33.4194,-112.213
138213,22394201,"20810 N 125th Ave, Sun City West, AZ 85375 ",85375,0.5,269900,https://www.zillow.com/homedetails/20810-N-125th-Ave-Sun-City-West-AZ-85375/8113063_zpid/,33.6741,-112.333
8793775,22194253,"2611 W Wood Dr, Phoenix, AZ 85029 ",85029,0.5,239300,https://www.zillow.com/homedetails/2611-W-Wood-Dr-Phoenix-AZ-85029/7738398_zpid/,33.6043,-112.115
657126,22394148,"2052 S Luther, Mesa, AZ 85209 ",85209,0.5,245000,https://www.zillow.com/homedetails/2052-S-Luther-Mesa-AZ-85209/60050803_zpid/,33.3778,-111.65100000000001
137271,22393824,"19419 N Conquistador Dr, Sun City West, AZ 85375 ",85375,0.5,239500,https://www.zillow.com/homedetails/19419-N-Conquistador-Dr-Sun-City-West-AZ-85375/8110607_zpid/,33.6612,-112.32600000000001
1601878,22393638,"18159 W Sanna St, Waddell, AZ 85355 ",85355,0.5,229900,https://www.zillow.com/homedetails/18159-W-Sanna-St-Waddell-AZ-85355/71625010_zpid/,33.5676,-112.45
1603010,22393633,"18426 W Carol Ave, Waddell, AZ 85355 ",85355,0.5,229990,https://www.zillow.com/homedetails/18426-W-Carol-Ave-Waddell-AZ-85355/95127376_zpid/,33.5708,-112.456
7795,22393581,"18011 W Lawrence Ln, Waddell, AZ 85355 ",85355,0.5,220000,https://www.zillow.com/homedetails/18011-W-Lawrence-Ln-Waddell-AZ-85355/82776087_zpid/,33.563,-112.447
8928252,22201692,"10606 E Elmhurst Dr, Sun Lakes, AZ 85248 ",85248,0.5,256900,https://www.zillow.com/homedetails/10606-E-Elmhurst-Dr-Sun-Lakes-AZ-85248/8217717_zpid/,,
8970309,22393475,"13280 N 82nd Dr, Peoria, AZ 85381 ",85381,0.5,292000,https://www.zillow.com/homedetails/13280-N-82nd-Dr-Peoria-AZ-85381/8103357_zpid/,33.6053,-112.236
122188,22393446,"12614 W Gable Hill Dr, Sun City West, AZ 85375 ",85375,0.5,219900,https://www.zillow.com/homedetails/12614-W-Gable-Hill-Dr-Sun-City-West-AZ-85375/8113721_zpid/,33.6703,-112.334
8978340,22393399,"10927 E Lindner Ave, Mesa, AZ 85209 ",85209,0.5,300000,https://www.zillow.com/homedetails/10927-E-Lindner-Ave-Mesa-AZ-85209/8228611_zpid/,33.3764,-111.59899999999999
62428,22208693,"39517 N Hillerman Way, Anthem, AZ 85086 ",85086,0.5,262900,https://www.zillow.com/homedetails/39517-N-Hillerman-Way-Anthem-AZ-85086/62730961_zpid/,33.8439,-112.09899999999999
7429821,22393075,"9803 W Utopia Rd, Peoria, AZ 85382 ",85382,0.5,211000,https://www.zillow.com/homedetails/9803-W-Utopia-Rd-Peoria-AZ-85382/7893558_zpid/,33.6596,-112.27
8965522,22187830,"17839 W Club Vista Dr, Surprise, AZ 85374 ",85374,0.5,289000,https://www.zillow.com/homedetails/17839-W-Club-Vista-Dr-Surprise-AZ-85374/8311402_zpid/,33.6413,-112.441
1488492,22187818,"16821 W Tara Ln, Surprise, AZ 85388 ",85388,0.5,259000,https://www.zillow.com/homedetails/16821-W-Tara-Ln-Surprise-AZ-85388/55283954_zpid/,33.6279,-112.421
1483880,22187815,"16493 N 176th Dr, Surprise, AZ 85388 ",85388,0.5,287000,https://www.zillow.com/homedetails/16493-N-176th-Dr-Surprise-AZ-85388/67795931_zpid/,33.6341,-112.43799999999999
740414,22395019,"2504 E Jensen St, Mesa, AZ 85213 ",85213,0.5,291900,https://www.zillow.com/homedetails/2504-E-Jensen-St-Mesa-AZ-85213/7657281_zpid/,33.4482,-111.777
194735,22395774,"2915 W Carson Rd, Phoenix, AZ 85041 ",85041,0.5,260000,https://www.zillow.com/homedetails/2915-W-Carson-Rd-Phoenix-AZ-85041/60977251_zpid/,33.3819,-112.12200000000001
194700,22395753,"2909 W Shumway Farm Rd, Phoenix, AZ 85041 ",85041,0.5,278000,https://www.zillow.com/homedetails/2909-W-Shumway-Farm-Rd-Phoenix-AZ-85041/67764861_zpid/,33.3835,-112.12100000000001
1348351,22184303,"5386 W Bryce Ln, Glendale, AZ 85301 ",85301,0.5,300000,https://www.zillow.com/homedetails/5386-W-Bryce-Ln-Glendale-AZ-85301/55102864_zpid/,33.5502,-112.175
13631,22395320,"2627 W Novak Way, Phoenix, AZ 85041 ",85041,0.5,205000,https://www.zillow.com/homedetails/2627-W-Novak-Way-Phoenix-AZ-85041/62727584_zpid/,33.3888,-112.116
193967,22395140,"2533 W Darrel Rd, Phoenix, AZ 85041 ",85041,0.5,244900,https://www.zillow.com/homedetails/2533-W-Darrel-Rd-Phoenix-AZ-85041/62727678_zpid/,33.3841,-112.11399999999999
193471,22395095,"2424 W Saint Kateri Dr, Phoenix, AZ 85041 ",85041,0.5,234900,https://www.zillow.com/homedetails/2424-W-Saint-Kateri-Dr-Phoenix-AZ-85041/60976945_zpid/,33.3857,-112.11200000000001
1259724,22395017,"2465 S Marble St, Gilbert, AZ 85295 ",85295,0.5,299900,https://www.zillow.com/homedetails/2465-S-Marble-St-Gilbert-AZ-85295/67763422_zpid/,33.3055,-111.76100000000001
644797,22394511,"2223 W Javelina Ave, Mesa, AZ 85202 ",85202,0.5,285000,https://www.zillow.com/homedetails/2223-W-Javelina-Ave-Mesa-AZ-85202/8250495_zpid/,33.3808,-111.88
7445013,20720395,"1307 W Pollack St, Phoenix, AZ 85041 ",85041,0.5,232467,https://www.zillow.com/homedetails/1307-W-Pollack-St-Phoenix-AZ-85041/95122852_zpid/,33.3795,-112.089
1686018,21815160,"13218 W Ashwood Dr, Sun City West, AZ 85375 ",85375,0.5,235000,https://www.zillow.com/homedetails/13218-W-Ashwood-Dr-Sun-City-West-AZ-85375/8108158_zpid/,33.6574,-112.34100000000001
1424421,22394824,"23801 N 41st Ave, Glendale, AZ 85310 ",85310,0.5,247900,https://www.zillow.com/homedetails/23801-N-41st-Ave-Glendale-AZ-85310/7929862_zpid/,33.7019,-112.148
660495,22394783,"2339 S Ananea, Mesa, AZ 85209 ",85209,0.5,265000,https://www.zillow.com/homedetails/2339-S-Ananea-Mesa-AZ-85209/8273243_zpid/,33.3724,-111.671
8951025,22394723,"2310 W Alamo Dr, Chandler, AZ 85224 ",85224,0.5,310000,https://www.zillow.com/homedetails/2310-W-Alamo-Dr-Chandler-AZ-85224/8202143_zpid/,33.3489,-111.882
1254710,22187733,"1686 E Bridgeport Pkwy, Gilbert, AZ 85295 ",85295,0.5,259900,https://www.zillow.com/homedetails/1686-E-Bridgeport-Pkwy-Gilbert-AZ-85295/81995024_zpid/,33.3009,-111.75399999999999
672670,22400762,"7563 E Lobo Ave, Mesa, AZ 85209 ",85209,0.5,265000,https://www.zillow.com/homedetails/7563-E-Lobo-Ave-Mesa-AZ-85209/8273382_zpid/,33.3722,-111.67200000000001
7405498,22154993,"6225 N 20th Ln, Phoenix, AZ 85015 ",85015,0.5,219900,https://www.zillow.com/homedetails/6225-N-20th-Ln-Phoenix-AZ-85015/7773365_zpid/,33.5287,-112.103
1177338,22407636,"1219 W Riviera Dr, Gilbert, AZ 85233 ",85233,0.5,311000,https://www.zillow.com/homedetails/1219-W-Riviera-Dr-Gilbert-AZ-85233/8202833_zpid/,33.3454,-111.816
359733,22405460,"2838 S 89th Dr, Tolleson, AZ 85353 ",85353,0.5,224900,https://www.zillow.com/homedetails/2838-S-89th-Dr-Tolleson-AZ-85353/81970642_zpid/,33.4204,-112.25299999999999
1098599,22127026,"950 S Crossbow Ct, Chandler, AZ 85225 ",85225,0.5,260000,https://www.zillow.com/homedetails/950-S-Crossbow-Ct-Chandler-AZ-85225/8206270_zpid/,33.2925,-111.829
14004,22127466,"29030 N 125th Dr, Peoria, AZ 85383 ",85383,0.5,259900,https://www.zillow.com/homedetails/29030-N-125th-Dr-Peoria-AZ-85383/95180460_zpid/,33.7475,-112.33
7402374,22127596,"13339 W Jacobson Dr, Litchfield Park, AZ 85340 ",85340,0.5,299000,https://www.zillow.com/homedetails/13339-W-Jacobson-Dr-Litchfield-Park-AZ-85340/59254435_zpid/,33.5284,-112.34700000000001
8964886,22127620,"5109 N 193rd Ave, Litchfield Park, AZ 85340 ",85340,0.5,300000,https://www.zillow.com/homedetails/5109-N-193rd-Ave-Litchfield-Park-AZ-85340/92425685_zpid/,33.5101,-112.47399999999999
610389,22405774,"10435 E Javelina Ave, Mesa, AZ 85209 ",85209,0.5,305000,https://www.zillow.com/homedetails/10435-E-Javelina-Ave-Mesa-AZ-85209/55271047_zpid/,33.3803,-111.60799999999999
934897,22127865,"25694 W Victory St, Buckeye, AZ 85326 ",85326,0.5,226900,https://www.zillow.com/homedetails/25694-W-Victory-St-Buckeye-AZ-85326/67796928_zpid/,33.4156,-112.604
609945,22405682,"10409 E Jacob Ave, Mesa, AZ 85209 ",85209,0.5,292000,https://www.zillow.com/homedetails/10409-E-Jacob-Ave-Mesa-AZ-85209/55271061_zpid/,33.3796,-111.60799999999999
8970097,22405607,"10312 E Capri Ave, Mesa, AZ 85208 ",85208,0.5,276000,https://www.zillow.com/homedetails/10312-E-Capri-Ave-Mesa-AZ-85208/52429546_zpid/,33.4057,-111.609
70922,22127931,"3763 E Sebastian Ln, Gilbert, AZ 85297 ",85297,0.5,270000,https://www.zillow.com/homedetails/3763-E-Sebastian-Ln-Gilbert-AZ-85297/64588424_zpid/,33.2767,-111.708
8965389,22405523,"10165 E Crescent Ave, Mesa, AZ 85208 ",85208,0.5,278900,https://www.zillow.com/homedetails/10165-E-Crescent-Ave-Mesa-AZ-85208/52429391_zpid/,33.4063,-111.611
1181583,22085292,"1526 W Boa Vista Dr, Gilbert, AZ 85233 ",85233,0.5,309900,https://www.zillow.com/homedetails/1526-W-Boa-Vista-Dr-Gilbert-AZ-85233/8178163_zpid/,33.3402,-111.823
8947229,22128019,"6834 W Darrel Rd, Laveen, AZ 85339 ",85339,0.5,255000,https://www.zillow.com/homedetails/6834-W-Darrel-Rd-Laveen-AZ-85339/64628549_zpid/,33.385,-112.206
7490986,22128098,"9036 W Banff Ln, Peoria, AZ 85381 ",85381,0.5,284900,https://www.zillow.com/homedetails/9036-W-Banff-Ln-Peoria-AZ-85381/2133373143_zpid/,33.6188,-112.25299999999999
43387,22405469,"7908 W Lumbee St, Phoenix, AZ 85043 ",85043,0.5,229900,https://www.zillow.com/homedetails/7908-W-Lumbee-St-Phoenix-AZ-85043/59271808_zpid/,33.4344,-112.23
7392998,22405466,"10536 W Preston Ln, Tolleson, AZ 85353 ",85353,0.5,219900,https://www.zillow.com/homedetails/10536-W-Preston-Ln-Tolleson-AZ-85353/60046284_zpid/,33.4218,-112.287
526436,22126983,"9405 W Hazelwood St, Phoenix, AZ 85037 ",85037,0.5,224900,https://www.zillow.com/homedetails/9405-W-Hazelwood-St-Phoenix-AZ-85037/7466352_zpid/,33.5038,-112.262
524648,22126590,"9124 W Elm St, Phoenix, AZ 85037 ",85037,0.5,230560,https://www.zillow.com/homedetails/9124-W-Elm-St-Phoenix-AZ-85037/7466467_zpid/,33.5066,-112.256
680850,22126163,"8727 E Knowles Ave, Mesa, AZ 85209 ",85209,0.5,245000,https://www.zillow.com/homedetails/8727-E-Knowles-Ave-Mesa-AZ-85209/59258871_zpid/,33.3786,-111.646
860032,22406981,"11602 W Cocopah St, Avondale, AZ 85323 ",85323,0.5,250000,https://www.zillow.com/homedetails/11602-W-Cocopah-St-Avondale-AZ-85323/60992506_zpid/,33.4318,-112.309
865539,22407588,"12214 W Flanagan St, Avondale, AZ 85323 ",85323,0.5,198900,https://www.zillow.com/homedetails/12214-W-Flanagan-St-Avondale-AZ-85323/55282680_zpid/,33.4334,-112.322
774608,22120976,"5523 E Evergreen St, Mesa, AZ 85205 ",85205,0.5,309995,https://www.zillow.com/homedetails/5523-E-Evergreen-St-Mesa-AZ-85205/7673538_zpid/,33.4331,-111.71
864735,22407359,"12026 W Chase Ln, Avondale, AZ 85323 ",85323,0.5,287900,https://www.zillow.com/homedetails/12026-W-Chase-Ln-Avondale-AZ-85323/95131544_zpid/,33.4275,-112.319
8959066,22407164,"119 W Harrison St, Chandler, AZ 85225 ",85225,0.5,243900,https://www.zillow.com/homedetails/119-W-Harrison-St-Chandler-AZ-85225/8187243_zpid/,33.3163,-111.844
860984,22407125,"11710 W Tonto St, Avondale, AZ 85323 ",85323,0.5,225000,https://www.zillow.com/homedetails/11710-W-Tonto-St-Avondale-AZ-85323/67767640_zpid/,33.4383,-112.311
201118,22123122,"7005 S 41st Dr, Phoenix, AZ 85041 ",85041,0.5,185000,https://www.zillow.com/homedetails/7005-S-41st-Dr-Phoenix-AZ-85041/60047567_zpid/,33.3828,-112.147
860135,22406977,"11606 W Tonto St, Avondale, AZ 85323 ",85323,0.5,210000,https://www.zillow.com/homedetails/11606-W-Tonto-St-Avondale-AZ-85323/60993374_zpid/,33.4391,-112.309
612018,22406383,"11021 E Nell Ave, Mesa, AZ 85209 ",85209,0.5,310000,https://www.zillow.com/homedetails/11021-E-Nell-Ave-Mesa-AZ-85209/71628611_zpid/,33.364000000000004,-111.596
43572,22124718,"8011 W Gibson Ln, Phoenix, AZ 85043 ",85043,0.5,225000,https://www.zillow.com/homedetails/8011-W-Gibson-Ln-Phoenix-AZ-85043/50123894_zpid/,33.428000000000004,-112.23200000000001
857228,22406792,"11217 W Chase Dr, Avondale, AZ 85323 ",85323,0.5,222000,https://www.zillow.com/homedetails/11217-W-Chase-Dr-Avondale-AZ-85323/60973895_zpid/,33.4276,-112.3
594534,22406708,"1135 Leisure World, Mesa, AZ 85206 ",85206,0.5,259900,https://www.zillow.com/homedetails/1135-Leisure-World-Mesa-AZ-85206/7665762_zpid/,33.3942,-111.694
1068438,22406631,"1121 N Mason Dr, Chandler, AZ 85225 ",85225,0.5,299999,https://www.zillow.com/homedetails/1121-N-Mason-Dr-Chandler-AZ-85225/81956598_zpid/,33.3229,-111.819
5218080,20691141,"10425 E Sebring Ave Mesa, AZ 85212 ",85212,0.5,318066,http://www.zillow.com/homedetails/10425-E-Sebring-Ave-Mesa-AZ-85212/125133840_zpid/,33.3327,-111.59899999999999
432342,22406425,"11108 W Calle Del Sol, Phoenix, AZ 85037 ",85037,0.5,194500,https://www.zillow.com/homedetails/11108-W-Calle-Del-Sol-Phoenix-AZ-85037/7477778_zpid/,33.4966,-112.29799999999999
360155,22405465,"4919 S 99th Dr, Tolleson, AZ 85353 ",85353,0.5,198000,https://www.zillow.com/homedetails/4919-S-99th-Dr-Tolleson-AZ-85353/95169397_zpid/,33.4011,-112.273
444385,21816400,"4554 N 113th Dr, Phoenix, AZ 85037 ",85037,0.5,225000,https://www.zillow.com/homedetails/4554-N-113th-Dr-Phoenix-AZ-85037/71619293_zpid/,33.5021,-112.303
8975253,22400894,"7725 W Surrey Ave, Peoria, AZ 85381 ",85381,0.5,280000,https://www.zillow.com/homedetails/7725-W-Surrey-Ave-Peoria-AZ-85381/7913714_zpid/,33.6045,-112.226
1357359,22404782,"7636 N 46th Ave, Glendale, AZ 85301 ",85301,0.5,224900,https://www.zillow.com/homedetails/7636-N-46th-Ave-Glendale-AZ-85301/7725089_zpid/,33.549,-112.15700000000001
365302,22402178,"9662 W Payson Rd, Tolleson, AZ 85353 ",85353,0.5,209999,https://www.zillow.com/homedetails/9662-W-Payson-Rd-Tolleson-AZ-85353/60046567_zpid/,33.4206,-112.26799999999999
365347,22402175,"9710 W Payson Rd, Tolleson, AZ 85353 ",85353,0.5,192000,https://www.zillow.com/homedetails/9710-W-Payson-Rd-Tolleson-AZ-85353/60046667_zpid/,33.4204,-112.26899999999999
184515,22134886,"2777 W Redwood Ln, Phoenix, AZ 85045 ",85045,0.5,300000,https://www.zillow.com/homedetails/2777-W-Redwood-Ln-Phoenix-AZ-85045/59265616_zpid/,33.2922,-112.12200000000001
59128,22135467,"1735 W Kuralt Dr, Anthem, AZ 85086 ",85086,0.5,279000,https://www.zillow.com/homedetails/1735-W-Kuralt-Dr-Anthem-AZ-85086/67785800_zpid/,33.8465,-112.09700000000001
8963882,22402064,"9419 W Cordes Rd, Tolleson, AZ 85353 ",85353,0.5,224900,https://www.zillow.com/homedetails/9419-W-Cordes-Rd-Tolleson-AZ-85353/67788148_zpid/,33.4197,-112.264
1198566,22401891,"918 W San Mateo Ct, Gilbert, AZ 85233 ",85233,0.5,309500,https://www.zillow.com/homedetails/918-W-San-Mateo-Ct-Gilbert-AZ-85233/8203135_zpid/,33.3385,-111.81
667976,22401699,"8909 E Oro Cir, Mesa, AZ 85212 ",85212,0.5,237000,https://www.zillow.com/homedetails/8909-E-Oro-Cir-Mesa-AZ-85212/60990490_zpid/,33.3613,-111.64200000000001
8946664,22401574,"888 S Osborn Ln, Gilbert, AZ 85296 ",85296,0.5,287000,https://www.zillow.com/homedetails/888-S-Osborn-Ln-Gilbert-AZ-85296/119217348_zpid/,33.3344,-111.71
193698,22138371,"2507 W Maldonado Rd, Phoenix, AZ 85041 ",85041,0.5,269000,https://www.zillow.com/homedetails/2507-W-Maldonado-Rd-Phoenix-AZ-85041/62727653_zpid/,33.3829,-112.113
714507,22401517,"850 S Portland, Mesa, AZ 85206 ",85206,0.5,254990,https://www.zillow.com/homedetails/850-S-Portland-Mesa-AZ-85206/7649772_zpid/,33.3996,-111.736
8972025,22401305,"8260 W Rue De Lamour, Peoria, AZ 85381 ",85381,0.5,269000,https://www.zillow.com/homedetails/8260-W-Rue-De-Lamour-Peoria-AZ-85381/8103282_zpid/,33.6076,-112.23700000000001
1494318,22147446,"17596 W Columbine Dr, Surprise, AZ 85388 ",85388,0.5,239900,https://www.zillow.com/homedetails/17596-W-Columbine-Dr-Surprise-AZ-85388/94882558_zpid/,33.5981,-112.43799999999999
8945111,22401004,"7807 W Surrey Ave, Peoria, AZ 85381 ",85381,0.5,277000,https://www.zillow.com/homedetails/7807-W-Surrey-Ave-Peoria-AZ-85381/7913709_zpid/,33.6044,-112.227
1129836,22154255,"541 S Karen Dr, Chandler, AZ 85224 ",85224,0.5,294900,https://www.zillow.com/homedetails/541-S-Karen-Dr-Chandler-AZ-85224/8207850_zpid/,33.296,-111.86
8959585,22400907,"7724 W Watson Ln, Peoria, AZ 85381 ",85381,0.5,299900,https://www.zillow.com/homedetails/7724-W-Watson-Ln-Peoria-AZ-85381/7909455_zpid/,33.6139,-112.25399999999999
21575,22402211,"9548 W Heber Rd, Tolleson, AZ 85353 ",85353,0.5,204500,https://www.zillow.com/homedetails/9548-W-Heber-Rd-Tolleson-AZ-85353/62726801_zpid/,33.4147,-112.266
8959377,21816224,"16886 W Woodlands Ave, Goodyear, AZ 85338 ",85338,0.5,299990,https://www.zillow.com/homedetails/16886-W-Woodlands-Ave-Goodyear-AZ-85338/95083033_zpid/,33.4498,-112.42200000000001
1923956,22402285,"18429 W Eva St, Waddell, AZ 85355 ",85355,0.5,245000,https://www.zillow.com/homedetails/18429-W-Eva-St-Waddell-AZ-85355/2097455238_zpid/,33.5666,-112.456
5286,22403801,"471 N Eucalyptus Pl, Chandler, AZ 85225 ",85225,0.5,305000,https://www.zillow.com/homedetails/471-N-Eucalyptus-Pl-Chandler-AZ-85225/55279881_zpid/,33.3118,-111.806
1356693,22404766,"7321 N 47th Ave, Glendale, AZ 85301 ",85301,0.5,209900,https://www.zillow.com/homedetails/7321-N-47th-Ave-Glendale-AZ-85301/7725577_zpid/,33.5448,-112.16
1092280,22404680,"72 N Amber Ct, Chandler, AZ 85225 ",85225,0.5,314900,https://www.zillow.com/homedetails/72-N-Amber-Ct-Chandler-AZ-85225/8222996_zpid/,33.3044,-111.809
1190085,22131310,"519 W Encinas St, Gilbert, AZ 85233 ",85233,0.5,299000,https://www.zillow.com/homedetails/519-W-Encinas-St-Gilbert-AZ-85233/8281033_zpid/,33.3687,-111.801
8959393,21816345,"3022 W Granada Rd, Phoenix, AZ 85009 ",85009,0.5,249900,https://www.zillow.com/homedetails/3022-W-Granada-Rd-Phoenix-AZ-85009/63200515_zpid/,33.4689,-112.125
41171,22404170,"5634 W Wood St, Phoenix, AZ 85043 ",85043,0.5,225000,https://www.zillow.com/homedetails/5634-W-Wood-St-Phoenix-AZ-85043/71601657_zpid/,33.4096,-112.181
346815,22404134,"5631 W Jones Ave, Phoenix, AZ 85043 ",85043,0.5,215000,https://www.zillow.com/homedetails/5631-W-Jones-Ave-Phoenix-AZ-85043/71601685_zpid/,33.4111,-112.181
1345983,22403796,"4813 W Belmont Ave, Glendale, AZ 85301 ",85301,0.5,250000,https://www.zillow.com/homedetails/4813-W-Belmont-Ave-Glendale-AZ-85301/7724632_zpid/,33.5477,-112.163
870606,22402634,"610 S 119th Ave, Avondale, AZ 85323 ",85323,0.5,281000,https://www.zillow.com/homedetails/610-S-119th-Ave-Avondale-AZ-85323/59255612_zpid/,33.4389,-112.316
390617,22403700,"4027 W Palmaire Dr, Phoenix, AZ 85051 ",85051,0.5,195000,https://www.zillow.com/homedetails/4027-W-Palmaire-Dr-Phoenix-AZ-85051/7757595_zpid/,33.541,-112.146
8959376,21816233,"17383 W Jackson St, Goodyear, AZ 85338 ",85338,0.5,289900,https://www.zillow.com/homedetails/17383-W-Jackson-St-Goodyear-AZ-85338/71624671_zpid/,33.4434,-112.43299999999999
974497,22133196,"6426 W Laredo St, Chandler, AZ 85226 ",85226,0.5,324000,https://www.zillow.com/homedetails/6426-W-Laredo-St-Chandler-AZ-85226/8157337_zpid/,33.313,-111.956
1053792,22133219,"979 E Indian Wells Pl, Chandler, AZ 85249 ",85249,0.5,319000,https://www.zillow.com/homedetails/979-E-Indian-Wells-Pl-Chandler-AZ-85249/60986632_zpid/,33.218,-111.82799999999999
873186,22402637,"614 N 112th Dr, Avondale, AZ 85323 ",85323,0.5,190000,https://www.zillow.com/homedetails/614-N-112th-Dr-Avondale-AZ-85323/62727232_zpid/,33.452,-112.3
625037,22133703,"1507 W Lindner Ave, Mesa, AZ 85202 ",85202,0.5,299900,https://www.zillow.com/homedetails/1507-W-Lindner-Ave-Mesa-AZ-85202/8252694_zpid/,33.3762,-111.866
7390507,22089651,"26614 S Howard Dr, Sun Lakes, AZ 85248 ",85248,0.5,249900,https://www.zillow.com/homedetails/26614-S-Howard-Dr-Sun-Lakes-AZ-85248/8221682_zpid/,,
8969645,22412649,"2635 S 107th St, Mesa, AZ 85209 ",85209,0.5,298000,https://www.zillow.com/homedetails/2635-S-107th-St-Mesa-AZ-85209/126055532_zpid/,,
231851,22085274,"15221 N 5th Ave, Phoenix, AZ 85023 ",85023,0.5,315000,https://www.zillow.com/homedetails/15221-N-5th-Ave-Phoenix-AZ-85023/7965054_zpid/,33.6242,-112.079
5248964,21990512,"7389 W Tonopah Dr, Glendale, AZ 85308 ",85308,0.5,279000,https://www.zillow.com/homedetails/7389-W-Tonopah-Dr-Glendale-AZ-85308/8106777_zpid/,33.6703,-112.21600000000001
422044,21988988,"6470 W Freeway Ln, Glendale, AZ 85302 ",85302,0.5,219900,https://www.zillow.com/homedetails/6470-W-Freeway-Ln-Glendale-AZ-85302/67790221_zpid/,33.561,-112.198
885526,22428339,"27003 W Burnett Rd, Buckeye, AZ 85396 ",85396,0.5,315000,https://www.zillow.com/homedetails/27003-W-Burnett-Rd-Buckeye-AZ-85396/82828697_zpid/,33.6712,-112.632
1424281,22428296,"23610 N 58th Dr, Glendale, AZ 85310 ",85310,0.5,300000,https://www.zillow.com/homedetails/23610-N-58th-Dr-Glendale-AZ-85310/7926596_zpid/,33.701,-112.18700000000001
7385552,21835465,"14266 W Harvard St, Goodyear, AZ 85395 ",85395,0.5,285000,https://www.zillow.com/homedetails/14266-W-Harvard-St-Goodyear-AZ-85395/67795702_zpid/,33.4729,-112.365
1410517,21990149,"7108 N 73rd Dr, Glendale, AZ 85303 ",85303,0.5,229000,https://www.zillow.com/homedetails/7108-N-73rd-Dr-Glendale-AZ-85303/82823489_zpid/,33.5387,-112.21700000000001
942560,21990278,"719 S 223rd Ln, Buckeye, AZ 85326 ",85326,0.5,215000,https://www.zillow.com/homedetails/719-S-223rd-Ln-Buckeye-AZ-85326/67787102_zpid/,33.4404,-112.53200000000001
263896,21990480,"7378 W Oraibi Dr, Glendale, AZ 85308 ",85308,0.5,270000,https://www.zillow.com/homedetails/7378-W-Oraibi-Dr-Glendale-AZ-85308/7890877_zpid/,33.6617,-112.21799999999999
1415038,21990526,"7420 W Sierra Vista Dr, Glendale, AZ 85303 ",85303,0.5,210000,https://www.zillow.com/homedetails/7420-W-Sierra-Vista-Dr-Glendale-AZ-85303/7706612_zpid/,33.5318,-112.219
7484951,22082849,"11516 E Decatur St, Mesa, AZ 85207 ",85207,0.5,289900,https://www.zillow.com/homedetails/11516-E-Decatur-St-Mesa-AZ-85207/8084178_zpid/,33.4265,-111.583
1414927,21990557,"7413 N 67th Dr, Glendale, AZ 85303 ",85303,0.5,219900,https://www.zillow.com/homedetails/7413-N-67th-Dr-Glendale-AZ-85303/7705033_zpid/,33.5447,-112.20299999999999
7421920,21990648,"7478 W Monona Dr, Glendale, AZ 85308 ",85308,0.5,270000,https://www.zillow.com/homedetails/7478-W-Monona-Dr-Glendale-AZ-85308/8106500_zpid/,33.6742,-112.22
1357694,21990979,"7775 N 58th Ave, Glendale, AZ 85301 ",85301,0.5,236900,https://www.zillow.com/homedetails/7775-N-58th-Ave-Glendale-AZ-85301/62694453_zpid/,33.5493,-112.184
766514,22427750,"5908 E Fairbrook Cir, Mesa, AZ 85205 ",85205,0.5,280000,https://www.zillow.com/homedetails/5908-E-Fairbrook-Cir-Mesa-AZ-85205/7673256_zpid/,33.437,-111.704
7461910,22427726,"5435 W Wagoner Rd, Glendale, AZ 85308 ",85308,0.5,294000,https://www.zillow.com/homedetails/5435-W-Wagoner-Rd-Glendale-AZ-85308/7901372_zpid/,33.653,-112.176
422557,21991215,"8044 N 55th Ave, Glendale, AZ 85302 ",85302,0.5,193900,https://www.zillow.com/homedetails/8044-N-55th-Ave-Glendale-AZ-85302/7737979_zpid/,33.5549,-112.178
250724,22427626,"4826 E Sunrise Dr, Phoenix, AZ 85044 ",85044,0.5,319000,https://www.zillow.com/homedetails/4826-E-Sunrise-Dr-Phoenix-AZ-85044/8142608_zpid/,33.3528,-111.978
422010,21988907,"6457 W Diana Ave, Glendale, AZ 85302 ",85302,0.5,219000,https://www.zillow.com/homedetails/6457-W-Diana-Ave-Glendale-AZ-85302/67790210_zpid/,33.562,-112.198
8947233,22428495,"7254 W St Charles Ave, Laveen, AZ 85339 ",85339,0.5,219900,https://www.zillow.com/homedetails/7254-W-St-Charles-Ave-Laveen-AZ-85339/71605024_zpid/,33.3865,-112.215
8979893,22428559,"7619 W Brown St, Peoria, AZ 85345 ",85345,0.5,220000,https://www.zillow.com/homedetails/7619-W-Brown-St-Peoria-AZ-85345/7682142_zpid/,33.5769,-112.223
8956723,22428586,"8565 W Pershing Ave, Peoria, AZ 85381 ",85381,0.5,285000,https://www.zillow.com/homedetails/8565-W-Pershing-Ave-Peoria-AZ-85381/7914338_zpid/,33.6048,-112.244
1854329,22429928,"6018 N 124th Dr, Litchfield Park, AZ 85340 ",85340,0.5,299000,https://www.zillow.com/homedetails/6018-N-124th-Dr-Litchfield-Park-AZ-85340/62740227_zpid/,33.5229,-112.32600000000001
448283,22429925,"4434 N 124th Ave, Avondale, AZ 85392 ",85392,0.5,227000,https://www.zillow.com/homedetails/4434-N-124th-Ave-Avondale-AZ-85392/67795554_zpid/,33.4989,-112.32799999999999
7441218,22429921,"13418 W Rose Ln, Litchfield Park, AZ 85340 ",85340,0.5,234500,https://www.zillow.com/homedetails/13418-W-Rose-Ln-Litchfield-Park-AZ-85340/59254476_zpid/,33.5265,-112.348
940741,21987084,"5764 S 236th Dr, Buckeye, AZ 85326 ",85326,0.5,183900,https://www.zillow.com/homedetails/5764-S-236th-Dr-Buckeye-AZ-85326/82826956_zpid/,33.3942,-112.56
8980093,22429784,"4307 S 103rd Ln, Tolleson, AZ 85353 ",85353,0.5,235000,https://www.zillow.com/homedetails/4307-S-103rd-Ln-Tolleson-AZ-85353/82385668_zpid/,33.407,-112.281
352545,22429773,"7124 W Southgate Ave, Phoenix, AZ 85043 ",85043,0.5,240000,https://www.zillow.com/homedetails/7124-W-Southgate-Ave-Phoenix-AZ-85043/95156190_zpid/,33.4115,-112.215
407599,21987134,"5828 W Marconi Ave, Glendale, AZ 85306 ",85306,0.5,299900,https://www.zillow.com/homedetails/5828-W-Marconi-Ave-Glendale-AZ-85306/8096765_zpid/,33.6299,-112.184
44022,22429760,"8226 W Miami St, Phoenix, AZ 85043 ",85043,0.5,242000,https://www.zillow.com/homedetails/8226-W-Miami-St-Phoenix-AZ-85043/67764595_zpid/,33.4197,-112.23700000000001
43041,22429757,"7224 W Pioneer St, Phoenix, AZ 85043 ",85043,0.5,208500,https://www.zillow.com/homedetails/7224-W-Pioneer-St-Phoenix-AZ-85043/67788612_zpid/,33.4183,-112.21600000000001
123758,22429708,"13202 W Castle Rock Dr, Sun City West, AZ 85375 ",85375,0.5,275000,https://www.zillow.com/homedetails/13202-W-Castle-Rock-Dr-Sun-City-West-AZ-85375/8108200_zpid/,33.6551,-112.34200000000001
353281,17753356,"7419 W Pueblo Ave, Phoenix, AZ 85043 ",85043,0.5,239900,https://www.zillow.com/homedetails/7419-W-Pueblo-Ave-Phoenix-AZ-85043/81951161_zpid/,33.4092,-112.22
7426106,21835589,"14317 W Weldon Ave, Goodyear, AZ 85395 ",85395,0.5,250000,https://www.zillow.com/homedetails/14317-W-Weldon-Ave-Goodyear-AZ-85395/50204565_zpid/,33.4887,-112.367
1548362,22429576,"25608 S Spring Creek Rd, Sun Lakes, AZ 85248 ",85248,0.5,289900,https://www.zillow.com/homedetails/25608-S-Spring-Creek-Rd-Sun-Lakes-AZ-85248/8223424_zpid/,33.2182,-111.876
941466,21988079,"6129 S 255th Dr, Buckeye, AZ 85326 ",85326,0.5,189900,https://www.zillow.com/homedetails/6129-S-255th-Dr-Buckeye-AZ-85326/67797414_zpid/,33.3907,-112.6
7408461,22428593,"8829 W Wethersfield Rd, Peoria, AZ 85381 ",85381,0.5,295000,https://www.zillow.com/homedetails/8829-W-Wethersfield-Rd-Peoria-AZ-85381/7914708_zpid/,33.5957,-112.25
8948028,21991393,"845 S Reber Ave, Gilbert, AZ 85296 ",85296,0.5,274900,https://www.zillow.com/homedetails/845-S-Reber-Ave-Gilbert-AZ-85296/95164965_zpid/,33.3352,-111.709
8959084,22427614,"4612 E Desert Sands Dr, Chandler, AZ 85249 ",85249,0.5,324500,https://www.zillow.com/homedetails/4612-E-Desert-Sands-Dr-Chandler-AZ-85249/59257818_zpid/,33.2134,-111.762
7459480,22427438,"375 S 173rd Dr, Goodyear, AZ 85338 ",85338,0.5,253900,https://www.zillow.com/homedetails/375-S-173rd-Dr-Goodyear-AZ-85338/81968884_zpid/,33.443000000000005,-112.431
7454027,22426084,"4719 W Taro Dr, Glendale, AZ 85308 ",85308,0.5,253000,https://www.zillow.com/homedetails/4719-W-Taro-Dr-Glendale-AZ-85308/7939065_zpid/,33.6586,-112.163
434064,21834906,"11625 W Windsor Ave, Avondale, AZ 85392 ",85392,0.5,247500,https://www.zillow.com/homedetails/11625-W-Windsor-Ave-Avondale-AZ-85392/59257287_zpid/,33.4756,-112.31
7534124,21834880,"11334 W Citrus Grove Way, Avondale, AZ 85392 ",85392,0.5,246000,https://www.zillow.com/homedetails/11334-W-Citrus-Grove-Way-Avondale-AZ-85392/7472288_zpid/,33.481,-112.304
1480269,22425685,"15742 N 164th Ln, Surprise, AZ 85388 ",85388,0.5,254500,https://www.zillow.com/homedetails/15742-N-164th-Ln-Surprise-AZ-85388/59252939_zpid/,33.6278,-112.412
7431207,17787310,"880 W Park Ave, Gilbert, AZ 85233 ",85233,0.5,319000,https://www.zillow.com/homedetails/880-W-Park-Ave-Gilbert-AZ-85233/8283747_zpid/,33.3531,-111.809
358805,22026864,"10535 W Whyman Ave, Tolleson, AZ 85353 ",85353,0.5,205000,https://www.zillow.com/homedetails/10535-W-Whyman-Ave-Tolleson-AZ-85353/60046375_zpid/,33.4255,-112.287
190343,22425459,"1534 W Alta Vista Rd, Phoenix, AZ 85041 ",85041,0.5,249900,https://www.zillow.com/homedetails/1534-W-Alta-Vista-Rd-Phoenix-AZ-85041/60976574_zpid/,33.3892,-112.09200000000001
190621,22425458,"1618 W La Salle St, Phoenix, AZ 85041 ",85041,0.5,239900,https://www.zillow.com/homedetails/1618-W-La-Salle-St-Phoenix-AZ-85041/67789537_zpid/,33.3977,-112.094
8963874,22026866,"10154 W Hilton Ave, Tolleson, AZ 85353 ",85353,0.5,215000,https://www.zillow.com/homedetails/10154-W-Hilton-Ave-Tolleson-AZ-85353/2093826182_zpid/,33.4265,-112.279
1373837,22425428,"8783 W Augusta Ave, Glendale, AZ 85305 ",85305,0.5,280000,https://www.zillow.com/homedetails/8783-W-Augusta-Ave-Glendale-AZ-85305/67770841_zpid/,33.5503,-112.24799999999999
420367,22425425,"5747 W Evergreen Rd, Glendale, AZ 85302 ",85302,0.5,269900,https://www.zillow.com/homedetails/5747-W-Evergreen-Rd-Glendale-AZ-85302/7733081_zpid/,33.5599,-112.184
7540223,22027261,"17542 W Wind Drift Ct, Goodyear, AZ 85338 ",85338,0.5,259000,https://www.zillow.com/homedetails/17542-W-Wind-Drift-Ct-Goodyear-AZ-85338/54274650_zpid/,33.3384,-112.427
8976550,22425327,"8523 W Bajada Rd, Peoria, AZ 85383 ",85383,0.5,299500,https://www.zillow.com/homedetails/8523-W-Bajada-Rd-Peoria-AZ-85383/60979967_zpid/,33.7294,-112.245
7418110,17789659,"7324 W Maldonado Rd, Laveen, AZ 85339 ",85339,0.5,235000,https://www.zillow.com/homedetails/7324-W-Maldonado-Rd-Laveen-AZ-85339/81954189_zpid/,33.3829,-112.21600000000001
7415835,17789992,"6751 W Saddlehorn Rd, Peoria, AZ 85383 ",85383,0.5,310000,https://www.zillow.com/homedetails/6751-W-Saddlehorn-Rd-Peoria-AZ-85383/50185389_zpid/,33.7149,-112.204
887293,22029307,"29642 W Columbus Ave, Buckeye, AZ 85396 ",85396,0.5,255000,https://www.zillow.com/homedetails/29642-W-Columbus-Ave-Buckeye-AZ-85396/71625955_zpid/,33.4889,-112.689
229399,22016906,"14624 N 25th Ave, Phoenix, AZ 85023 ",85023,0.5,264000,https://www.zillow.com/homedetails/14624-N-25th-Ave-Phoenix-AZ-85023/7961595_zpid/,33.619,-112.11399999999999
7452300,22002185,"353 N Greenwood, Mesa, AZ 85207 ",85207,0.5,278900,https://www.zillow.com/homedetails/353-N-Greenwood-Mesa-AZ-85207/60982427_zpid/,33.422,-111.663
7456018,21835429,"14226 W Fairmount Ave, Goodyear, AZ 85395 ",85395,0.5,267000,https://www.zillow.com/homedetails/14226-W-Fairmount-Ave-Goodyear-AZ-85395/50204704_zpid/,33.4912,-112.365
747740,22001855,"3423 N Orchard, Mesa, AZ 85213 ",85213,0.5,313500,https://www.zillow.com/homedetails/3423-N-Orchard-Mesa-AZ-85213/123982475_zpid/,33.4781,-111.755
871429,21992078,"938 E Corrall St, Avondale, AZ 85323 ",85323,0.5,218000,https://www.zillow.com/homedetails/938-E-Corrall-St-Avondale-AZ-85323/67794469_zpid/,33.4313,-112.339
1312404,22427402,"3408 E Flower St, Gilbert, AZ 85298 ",85298,0.5,270000,https://www.zillow.com/homedetails/3408-E-Flower-St-Gilbert-AZ-85298/59261882_zpid/,33.2347,-111.71600000000001
446713,22427396,"3219 N 110th Ave, Avondale, AZ 85392 ",85392,0.5,229750,https://www.zillow.com/homedetails/3219-N-110th-Ave-Avondale-AZ-85392/7472641_zpid/,33.4832,-112.296
2036942,21835193,"12910 W Alvarado Rd, Avondale, AZ 85392 ",85392,0.5,198900,https://www.zillow.com/homedetails/12910-W-Alvarado-Rd-Avondale-AZ-85392/8305844_zpid/,33.4712,-112.34
926233,22427183,"23652 W Pecan Rd, Buckeye, AZ 85326 ",85326,0.5,209900,https://www.zillow.com/homedetails/23652-W-Pecan-Rd-Buckeye-AZ-85326/82828919_zpid/,33.3956,-112.56
8962345,22426972,"17458 W Hilton Ave, Goodyear, AZ 85338 ",85338,0.5,244900,https://www.zillow.com/homedetails/17458-W-Hilton-Ave-Goodyear-AZ-85338/55287435_zpid/,33.4266,-112.435
8962335,22426933,"16625 W Adams St, Goodyear, AZ 85338 ",85338,0.5,269900,https://www.zillow.com/homedetails/16625-W-Adams-St-Goodyear-AZ-85338/59256554_zpid/,33.4481,-112.416
7410227,22426929,"16484 W Monroe St, Goodyear, AZ 85338 ",85338,0.5,269850,https://www.zillow.com/homedetails/16484-W-Monroe-St-Goodyear-AZ-85338/59256413_zpid/,33.4484,-112.413
8959372,22426898,"1561 S 174th Ln, Goodyear, AZ 85338 ",85338,0.5,279900,https://www.zillow.com/homedetails/1561-S-174th-Ln-Goodyear-AZ-85338/55287126_zpid/,33.4324,-112.435
7449600,21996212,"19449 N 8th Ave, Phoenix, AZ 85027 ",85027,0.5,299000,https://www.zillow.com/homedetails/19449-N-8th-Ave-Phoenix-AZ-85027/7971940_zpid/,33.6635,-112.084
1882952,22426854,"14586 W Mandalay Ln, Surprise, AZ 85379 ",85379,0.5,301000,https://www.zillow.com/homedetails/14586-W-Mandalay-Ln-Surprise-AZ-85379/67716316_zpid/,33.6173,-112.374
7448572,21996570,"2011 E Gary Cir, Mesa, AZ 85213 ",85213,0.5,289900,https://www.zillow.com/homedetails/2011-E-Gary-Cir-Mesa-AZ-85213/7658010_zpid/,33.4394,-111.788
8947940,17771000,"2726 Leisure World, Mesa, AZ 85206 ",85206,0.5,285000,https://www.zillow.com/homedetails/2726-Leisure-World-Mesa-AZ-85206/88787730_zpid/,33.4079,-111.697
8946564,22426792,"12720 N 86th Ln, Peoria, AZ 85381 ",85381,0.5,288000,https://www.zillow.com/homedetails/12720-N-86th-Ln-Peoria-AZ-85381/7914637_zpid/,33.5998,-112.24600000000001
8936779,21998987,"2531 E Inglewood St, Mesa, AZ 85213 ",85213,0.5,269900,https://www.zillow.com/homedetails/2531-E-Inglewood-St-Mesa-AZ-85213/7657208_zpid/,33.4468,-111.77600000000001
940479,21986526,"555 S 219th Dr, Buckeye, AZ 85326 ",85326,0.5,299870,https://www.zillow.com/homedetails/555-S-219th-Dr-Buckeye-AZ-85326/71626302_zpid/,33.442,-112.522
411959,21985805,"5325 W Surrey Ave, Glendale, AZ 85304 ",85304,0.5,259500,https://www.zillow.com/homedetails/5325-W-Surrey-Ave-Glendale-AZ-85304/7911860_zpid/,33.6043,-112.17399999999999
411770,21985653,"5301 W Surrey Ave, Glendale, AZ 85304 ",85304,0.5,295000,https://www.zillow.com/homedetails/5301-W-Surrey-Ave-Glendale-AZ-85304/7911284_zpid/,33.6047,-112.17299999999999
198972,22432310,"5449 S 15th Ave, Phoenix, AZ 85041 ",85041,0.5,224900,https://www.zillow.com/homedetails/5449-S-15th-Ave-Phoenix-AZ-85041/7504037_zpid/,33.396,-112.09100000000001
1263221,21975996,"2756 S Sailors Way, Gilbert, AZ 85295 ",85295,0.5,275000,https://www.zillow.com/homedetails/2756-S-Sailors-Way-Gilbert-AZ-85295/62734830_zpid/,33.3002,-111.765
67198,21976119,"2825 E Trigger Way, Gilbert, AZ 85297 ",85297,0.5,305000,https://www.zillow.com/homedetails/2825-E-Trigger-Way-Gilbert-AZ-85297/89220613_zpid/,33.2792,-111.729
197666,22432115,"4138 W Saint Kateri Dr, Phoenix, AZ 85041 ",85041,0.5,289000,https://www.zillow.com/homedetails/4138-W-Saint-Kateri-Dr-Phoenix-AZ-85041/71599138_zpid/,33.385,-112.148
1264888,21976678,"2964 E Franklin Ave, Gilbert, AZ 85295 ",85295,0.5,272000,https://www.zillow.com/homedetails/2964-E-Franklin-Ave-Gilbert-AZ-85295/81987950_zpid/,33.3187,-111.726
386104,22432060,"3621 W Cheryl Dr, Phoenix, AZ 85051 ",85051,0.5,225000,https://www.zillow.com/homedetails/3621-W-Cheryl-Dr-Phoenix-AZ-85051/7745288_zpid/,33.5786,-112.137
874358,21837082,"20140 N 269th Dr, Buckeye, AZ 85396 ",85396,0.5,299000,https://www.zillow.com/homedetails/20140-N-269th-Dr-Buckeye-AZ-85396/89137013_zpid/,33.6673,-112.631
7431182,22431994,"358 W Hackamore Ave, Gilbert, AZ 85233 ",85233,0.5,282500,https://www.zillow.com/homedetails/358-W-Hackamore-Ave-Gilbert-AZ-85233/8178568_zpid/,33.3429,-111.79899999999999
1265763,21977190,"3068 S Southwind Dr, Gilbert, AZ 85295 ",85295,0.5,276900,https://www.zillow.com/homedetails/3068-S-Southwind-Dr-Gilbert-AZ-85295/60035041_zpid/,33.2944,-111.766
34817,22431686,"2328 E Bowker St, Phoenix, AZ 85040 ",85040,0.5,254900,https://www.zillow.com/homedetails/2328-E-Bowker-St-Phoenix-AZ-85040/71612757_zpid/,33.3971,-112.031
7563930,21978307,"3419 E Amber Ln, Gilbert, AZ 85296 ",85296,0.5,307750,https://www.zillow.com/homedetails/3419-E-Amber-Ln-Gilbert-AZ-85296/95121913_zpid/,33.3451,-111.71700000000001
34635,22431627,"2238 E Bowker St, Phoenix, AZ 85040 ",85040,0.5,275000,https://www.zillow.com/homedetails/2238-E-Bowker-St-Phoenix-AZ-85040/71612766_zpid/,33.3971,-112.03299999999999
438402,21837072,"2017 N 109th Ave, Avondale, AZ 85392 ",85392,0.5,261000,https://www.zillow.com/homedetails/2017-N-109th-Ave-Avondale-AZ-85392/7473207_zpid/,33.4688,-112.295
7441969,22431621,"2219 E Bowker St, Phoenix, AZ 85040 ",85040,0.5,282500,https://www.zillow.com/homedetails/2219-E-Bowker-St-Phoenix-AZ-85040/71612773_zpid/,33.3969,-112.03399999999999
69340,21978523,"3485 S Seneca Way, Gilbert, AZ 85297 ",85297,0.5,265000,https://www.zillow.com/homedetails/3485-S-Seneca-Way-Gilbert-AZ-85297/95085895_zpid/,33.2877,-111.691
938511,21978651,"3487 S 257th Ln, Buckeye, AZ 85326 ",85326,0.5,215000,https://www.zillow.com/homedetails/3487-S-257th-Ln-Buckeye-AZ-85326/67787172_zpid/,33.4147,-112.605
445197,22432228,"4628 N 111th Dr, Phoenix, AZ 85037 ",85037,0.5,225000,https://www.zillow.com/homedetails/4628-N-111th-Dr-Phoenix-AZ-85037/71619169_zpid/,33.5029,-112.29799999999999
7445987,22432338,"571 S Peppertree Dr, Gilbert, AZ 85296 ",85296,0.5,275000,https://www.zillow.com/homedetails/571-S-Peppertree-Dr-Gilbert-AZ-85296/8237782_zpid/,33.3393,-111.74799999999999
191628,22431471,"2002 W Carson Rd, Phoenix, AZ 85041 ",85041,0.5,254000,https://www.zillow.com/homedetails/2002-W-Carson-Rd-Phoenix-AZ-85041/67781919_zpid/,33.3828,-112.101
200631,22432485,"6806 S 42nd Dr, Phoenix, AZ 85041 ",85041,0.5,210000,https://www.zillow.com/homedetails/6806-S-42nd-Dr-Phoenix-AZ-85041/60047648_zpid/,33.3844,-112.15
8952653,22433121,"16166 W Hilton Ave, Goodyear, AZ 85338 ",85338,0.5,271590,https://www.zillow.com/homedetails/16166-W-Hilton-Ave-Goodyear-AZ-85338/67783531_zpid/,33.4262,-112.40700000000001
928970,21974256,"24051 W Antelope Trl, Buckeye, AZ 85326 ",85326,0.5,189000,https://www.zillow.com/homedetails/24051-W-Antelope-Trl-Buckeye-AZ-85326/61631293_zpid/,33.4394,-112.568
8928017,22433119,"16170 W Meade Ln, Goodyear, AZ 85338 ",85338,0.5,249000,https://www.zillow.com/homedetails/16170-W-Meade-Ln-Goodyear-AZ-85338/63202198_zpid/,33.427,-112.40700000000001
637057,22433072,"8415 S 47th Ln, Laveen, AZ 85339 ",85339,0.5,275000,https://www.zillow.com/homedetails/8415-S-47th-Ln-Laveen-AZ-85339/67766402_zpid/,33.3693,-112.162
8974246,22433071,"5115 W Sunland Ave, Laveen, AZ 85339 ",85339,0.5,235000,https://www.zillow.com/homedetails/5115-W-Sunland-Ave-Laveen-AZ-85339/67773380_zpid/,33.3958,-112.169
8973246,22433065,"6411 S 50th Dr, Laveen, AZ 85339 ",85339,0.5,259900,https://www.zillow.com/homedetails/6411-S-50th-Dr-Laveen-AZ-85339/71604610_zpid/,33.388000000000005,-112.166
8955864,22433062,"5611 W Maldonado Rd, Laveen, AZ 85339 ",85339,0.5,259000,https://www.zillow.com/homedetails/5611-W-Maldonado-Rd-Laveen-AZ-85339/67764799_zpid/,33.3828,-112.18
930059,21974673,"24764 W Wedgewood Ave, Buckeye, AZ 85326 ",85326,0.5,209990,https://www.zillow.com/homedetails/24764-W-Wedgewood-Ave-Buckeye-AZ-85326/95142199_zpid/,33.4107,-112.584
930591,21974705,"24862 W Rancho Vista Dr, Buckeye, AZ 85326 ",85326,0.5,199000,https://www.zillow.com/homedetails/24862-W-Rancho-Vista-Dr-Buckeye-AZ-85326/71598995_zpid/,33.4104,-112.586
933684,21975036,"25557 W St Kateri Dr, Buckeye, AZ 85326 ",85326,0.5,239000,https://www.zillow.com/homedetails/25557-W-St-Kateri-Dr-Buckeye-AZ-85326/81998195_zpid/,33.3855,-112.601
8962076,21975250,"25741 W Watkins St, Buckeye, AZ 85326 ",85326,0.5,232950,https://www.zillow.com/homedetails/25741-W-Watkins-St-Buckeye-AZ-85326/2093889774_zpid/,33.4266,-112.556
8957471,21975281,"25756 W Watkins St, Buckeye, AZ 85326 ",85326,0.5,229456,https://www.zillow.com/homedetails/25756-W-Watkins-St-Buckeye-AZ-85326/2093960925_zpid/,33.4266,-112.556
8980437,22432897,"929 W Curry St, Chandler, AZ 85225 ",85225,0.5,285000,https://www.zillow.com/homedetails/929-W-Curry-St-Chandler-AZ-85225/8198799_zpid/,33.3523,-111.859
8959480,21975350,"25811 W Watkins St, Buckeye, AZ 85326 ",85326,0.5,234900,https://www.zillow.com/homedetails/25811-W-Watkins-St-Buckeye-AZ-85326/2093856636_zpid/,33.4246,-112.60600000000001
200848,22432493,"6831 S 42nd Ln, Phoenix, AZ 85041 ",85041,0.5,275000,https://www.zillow.com/homedetails/6831-S-42nd-Ln-Phoenix-AZ-85041/60047651_zpid/,33.3834,-112.15
7416923,22431472,"2011 E Pinto Dr, Gilbert, AZ 85296 ",85296,0.5,289900,https://www.zillow.com/homedetails/2011-E-Pinto-Dr-Gilbert-AZ-85296/8275293_zpid/,33.3369,-111.74700000000001
231542,22431387,"1936 E Renee Dr, Phoenix, AZ 85024 ",85024,0.5,310000,https://www.zillow.com/homedetails/1936-E-Renee-Dr-Phoenix-AZ-85024/7995105_zpid/,33.6557,-112.041
223080,22430051,"1115 E Mohawk Dr, Phoenix, AZ 85024 ",85024,0.5,320000,https://www.zillow.com/homedetails/1115-E-Mohawk-Dr-Phoenix-AZ-85024/50181926_zpid/,33.673,-112.05799999999999
431721,22430769,"11301 W Piccadilly Rd, Avondale, AZ 85392 ",85392,0.5,270000,https://www.zillow.com/homedetails/11301-W-Piccadilly-Rd-Avondale-AZ-85392/7486372_zpid/,33.4912,-112.304
7439293,21836004,"15051 W Whitton Ave, Goodyear, AZ 85395 ",85395,0.5,269000,https://www.zillow.com/homedetails/15051-W-Whitton-Ave-Goodyear-AZ-85395/8303996_zpid/,33.4875,-112.383
5734,17749569,"16405 W Remuda Dr, Surprise, AZ 85387 ",85387,0.5,204900,https://www.zillow.com/homedetails/16405-W-Remuda-Dr-Surprise-AZ-85387/71610104_zpid/,33.721,-112.414
415959,21982678,"4403 W Laurie Ln, Glendale, AZ 85302 ",85302,0.5,310000,https://www.zillow.com/homedetails/4403-W-Laurie-Ln-Glendale-AZ-85302/7731642_zpid/,33.5588,-112.154
409651,21982838,"4464 W Corrine Dr, Glendale, AZ 85304 ",85304,0.5,239900,https://www.zillow.com/homedetails/4464-W-Corrine-Dr-Glendale-AZ-85304/7954918_zpid/,33.6005,-112.155
1575859,22430558,"10052 W Concord Ave, Sun City, AZ 85351 ",85351,0.5,179500,https://www.zillow.com/homedetails/10052-W-Concord-Ave-Sun-City-AZ-85351/7689001_zpid/,33.576,-112.277
8980181,22430542,"1001 S Canfield, Mesa, AZ 85208 ",85208,0.5,240000,https://www.zillow.com/homedetails/1001-S-Canfield-Mesa-AZ-85208/8088923_zpid/,33.3967,-111.603
1150883,22430491,"12707 W Lisbon Ln, El Mirage, AZ 85335 ",85335,0.5,250000,https://www.zillow.com/homedetails/12707-W-Lisbon-Ln-El-Mirage-AZ-85335/62740894_zpid/,33.6179,-112.337
409728,21983011,"4518 W Paradise Dr, Glendale, AZ 85304 ",85304,0.5,250000,https://www.zillow.com/homedetails/4518-W-Paradise-Dr-Glendale-AZ-85304/7727161_zpid/,33.595,-112.156
409836,21983156,"4544 W Cholla St, Glendale, AZ 85304 ",85304,0.5,230000,https://www.zillow.com/homedetails/4544-W-Cholla-St-Glendale-AZ-85304/7727053_zpid/,33.5891,-112.15700000000001
8980174,22430434,"12606 N 42nd Ave, Phoenix, AZ 85029 ",85029,0.5,279900,https://www.zillow.com/homedetails/12606-N-42nd-Ave-Phoenix-AZ-85029/7742252_zpid/,33.6003,-112.15
416890,21983512,"4620 W North Ln, Glendale, AZ 85302 ",85302,0.5,235000,https://www.zillow.com/homedetails/4620-W-North-Ln-Glendale-AZ-85302/7729018_zpid/,33.5814,-112.15899999999999
8927992,21835840,"14621 W Verde Ln, Goodyear, AZ 85395 ",85395,0.5,314000,https://www.zillow.com/homedetails/14621-W-Verde-Ln-Goodyear-AZ-85395/50202639_zpid/,33.4796,-112.374
1458646,21835800,"14566 W Mulberry Dr, Goodyear, AZ 85395 ",85395,0.5,295000,https://www.zillow.com/homedetails/14566-W-Mulberry-Dr-Goodyear-AZ-85395/8299781_zpid/,33.4847,-112.37299999999999
430779,21984809,"5010 N 103rd Dr, Glendale, AZ 85307 ",85307,0.5,218000,https://www.zillow.com/homedetails/5010-N-103rd-Dr-Glendale-AZ-85307/7488375_zpid/,33.5089,-112.28200000000001
349813,22430060,"18426 N 2nd St, Phoenix, AZ 85022 ",85022,0.5,220000,https://www.zillow.com/homedetails/18426-N-2nd-St-Phoenix-AZ-85022/7955875_zpid/,33.6538,-112.072
7553366,22430647,"1078 S Butte Ln, Gilbert, AZ 85296 ",85296,0.5,279500,https://www.zillow.com/homedetails/1078-S-Butte-Ln-Gilbert-AZ-85296/8241035_zpid/,33.3307,-111.759
432814,22430773,"11140 W Hazelwood St, Phoenix, AZ 85037 ",85037,0.5,226900,https://www.zillow.com/homedetails/11140-W-Hazelwood-St-Phoenix-AZ-85037/71619248_zpid/,33.5034,-112.29899999999999
438088,21836956,"1814 N 113th Ave, Avondale, AZ 85392 ",85392,0.5,249000,https://www.zillow.com/homedetails/1814-N-113th-Ave-Avondale-AZ-85392/89135870_zpid/,33.4672,-112.304
431984,22430783,"11318 W Rosewood Dr, Avondale, AZ 85392 ",85392,0.5,259900,https://www.zillow.com/homedetails/11318-W-Rosewood-Dr-Avondale-AZ-85392/7472553_zpid/,33.4906,-112.303
8958859,22431359,"19224 N 14th St, Phoenix, AZ 85024 ",85024,0.5,283500,https://www.zillow.com/homedetails/19224-N-14th-St-Phoenix-AZ-85024/7995426_zpid/,33.6614,-112.052
7449805,21979289,"3623 S 256th Ave, Buckeye, AZ 85326 ",85326,0.5,244978,https://www.zillow.com/homedetails/3623-S-256th-Ave-Buckeye-AZ-85326/95172982_zpid/,33.4135,-112.602
