property_id,transaction_id,address,zipcode,ypred,list,url,lat,long
8959467,22239251,"20566 W Valley View Dr, Buckeye, AZ 85396 ",85396,0.5684599876403809,326990,https://www.zillow.com/homedetails/20566-W-Valley-View-Dr-Buckeye-AZ-85396/125123497_zpid/,33.3657,-112.605
935720,22168028,"25768 W Pleasant Ln, Buckeye, AZ 85326 ",85326,0.56800776720047,159900,https://www.zillow.com/homedetails/25768-W-Pleasant-Ln-Buckeye-AZ-85326/81994172_zpid/,33.3912,-112.605
934976,22270988,"25702 W Forest Grove Ave, Buckeye, AZ 85326 ",85326,0.5652579665184021,219000,https://www.zillow.com/homedetails/25702-W-Forest-Grove-Ave-Buckeye-AZ-85326/67796951_zpid/,33.4147,-112.604
8959480,21975350,"25811 W Watkins St, Buckeye, AZ 85326 ",85326,0.5625777244567871,234900,https://www.zillow.com/homedetails/25811-W-Watkins-St-Buckeye-AZ-85326/2093856636_zpid/,33.4246,-112.60600000000001
926566,21973917,"23712 W La Salle St, Buckeye, AZ 85326 ",85326,0.5624452829360962,163000,https://www.zillow.com/homedetails/23712-W-La-Salle-St-Buckeye-AZ-85326/82828752_zpid/,33.3975,-112.561
7471728,21901687,"2623 S 172nd Dr, Goodyear, AZ 85338 ",85338,0.5612948536872864,259000,https://www.zillow.com/homedetails/2623-S-172nd-Dr-Goodyear-AZ-85338/95150127_zpid/,33.423,-112.43
8894104,22218627,"10430 E Nido Ave, Mesa, AZ 85209 ",85209,0.5610954165458679,329900,https://www.zillow.com/homedetails/10430-E-Nido-Ave-Mesa-AZ-85209/124427350_zpid/,,
7540228,21898609,"17825 W Lincoln St, Goodyear, AZ 85338 ",85338,0.560869574546814,234900,https://www.zillow.com/homedetails/17825-W-Lincoln-St-Goodyear-AZ-85338/89221054_zpid/,33.4409,-112.44200000000001
934897,22127865,"25694 W Victory St, Buckeye, AZ 85326 ",85326,0.5603469014167786,226900,https://www.zillow.com/homedetails/25694-W-Victory-St-Buckeye-AZ-85326/67796928_zpid/,33.4156,-112.604
928709,21974127,"24005 W Chambers St, Buckeye, AZ 85326 ",85326,0.5577576160430908,166000,https://www.zillow.com/homedetails/24005-W-Chambers-St-Buckeye-AZ-85326/82827236_zpid/,33.398,-112.56700000000001
887293,22029307,"29642 W Columbus Ave, Buckeye, AZ 85396 ",85396,0.5566046833992004,255000,https://www.zillow.com/homedetails/29642-W-Columbus-Ave-Buckeye-AZ-85396/71625955_zpid/,33.4889,-112.689
889057,22029538,"30206 W Cheery Lynn Rd, Buckeye, AZ 85396 ",85396,0.5566046833992004,229999,https://www.zillow.com/homedetails/30206-W-Cheery-Lynn-Rd-Buckeye-AZ-85396/81983777_zpid/,33.4841,-112.70200000000001
5336327,21895061,"10128 S 186th Ln, Goodyear, AZ 85338 ",85338,0.5563088655471802,270000,https://www.zillow.com/homedetails/10128-S-186th-Ln-Goodyear-AZ-85338/8288505_zpid/,33.3545,-112.45200000000001
930591,21974705,"24862 W Rancho Vista Dr, Buckeye, AZ 85326 ",85326,0.5547967553138733,199000,https://www.zillow.com/homedetails/24862-W-Rancho-Vista-Dr-Buckeye-AZ-85326/71598995_zpid/,33.4104,-112.586
921192,21973306,"22639 W Tonto St, Buckeye, AZ 85326 ",85326,0.5547840595245361,155000,https://www.zillow.com/homedetails/22639-W-Tonto-St-Buckeye-AZ-85326/81990995_zpid/,33.4369,-112.56200000000001
938511,21978651,"3487 S 257th Ln, Buckeye, AZ 85326 ",85326,0.5543496012687683,215000,https://www.zillow.com/homedetails/3487-S-257th-Ln-Buckeye-AZ-85326/67787172_zpid/,33.4147,-112.605
8962076,21975250,"25741 W Watkins St, Buckeye, AZ 85326 ",85326,0.5542256236076355,232950,https://www.zillow.com/homedetails/25741-W-Watkins-St-Buckeye-AZ-85326/2093889774_zpid/,33.4266,-112.556
8957471,21975281,"25756 W Watkins St, Buckeye, AZ 85326 ",85326,0.5542256236076355,229456,https://www.zillow.com/homedetails/25756-W-Watkins-St-Buckeye-AZ-85326/2093960925_zpid/,33.4266,-112.556
8944927,21974537,"24640 W Sheraton Ln, Buckeye, AZ 85326 ",85326,0.55417799949646,178900,https://www.zillow.com/homedetails/24640-W-Sheraton-Ln-Buckeye-AZ-85326/95186732_zpid/,33.4007,-112.581
7385512,21896172,"12577 S 176th Ave, Goodyear, AZ 85338 ",85338,0.5534276962280273,302900,https://www.zillow.com/homedetails/12577-S-176th-Ave-Goodyear-AZ-85338/55281722_zpid/,33.3325,-112.427
8955871,21959396,"6929 W Sophie Ln, Laveen, AZ 85339 ",85339,0.5532466769218445,249800,https://www.zillow.com/homedetails/6929-W-Sophie-Ln-Laveen-AZ-85339/81981174_zpid/,33.3765,-112.20700000000001
8853030,21897584,"16139 W Hualapai St, Goodyear, AZ 85338 ",85338,0.5526807308197021,309900,https://www.zillow.com/homedetails/16139-W-Hualapai-St-Goodyear-AZ-85338/95119016_zpid/,33.4295,-112.406
7540223,22027261,"17542 W Wind Drift Ct, Goodyear, AZ 85338 ",85338,0.5513667464256287,259000,https://www.zillow.com/homedetails/17542-W-Wind-Drift-Ct-Goodyear-AZ-85338/54274650_zpid/,33.3384,-112.427
1051251,22130022,"763 E Lynx Pl, Chandler, AZ 85249 ",85249,0.5511243939399719,385000,https://www.zillow.com/homedetails/763-E-Lynx-Pl-Chandler-AZ-85249/60986025_zpid/,,
1022711,21813236,"1432 E Mead Dr, Chandler, AZ 85249 ",85249,0.5511243939399719,400000,https://www.zillow.com/homedetails/1432-E-Mead-Dr-Chandler-AZ-85249/8212876_zpid/,,
1049847,22039965,"692 E Torrey Pines Pl, Chandler, AZ 85249 ",85249,0.5511243939399719,399900,https://www.zillow.com/homedetails/692-E-Torrey-Pines-Pl-Chandler-AZ-85249/60986439_zpid/,,
8799151,21958021,"5107 W Glass Ln, Laveen, AZ 85339 ",85339,0.5511102676391602,205000,https://www.zillow.com/homedetails/5107-W-Glass-Ln-Laveen-AZ-85339/67789279_zpid/,33.3843,-112.169
8951488,21899311,"2026 S 172nd Ln, Goodyear, AZ 85338 ",85338,0.5509663224220276,174900,https://www.zillow.com/homedetails/2026-S-172nd-Ln-Goodyear-AZ-85338/55287385_zpid/,33.4278,-112.431
956291,22133091,"220 S Rush Cir E, Chandler, AZ 85226 ",85226,0.5507763624191284,285000,https://www.zillow.com/homedetails/220-S-Rush-Cir-E-Chandler-AZ-85226/8166120_zpid/,,
940741,21987084,"5764 S 236th Dr, Buckeye, AZ 85326 ",85326,0.5505786538124084,183900,https://www.zillow.com/homedetails/5764-S-236th-Dr-Buckeye-AZ-85326/82826956_zpid/,33.3942,-112.56
1009141,21986611,"564 W Thompson Pl, Chandler, AZ 85286 ",85286,0.5505030155181885,374999,https://www.zillow.com/homedetails/564-W-Thompson-Pl-Chandler-AZ-85286/52430982_zpid/,,
8959362,21956929,"12593 S 176th Ave, Goodyear, AZ 85338 ",85338,0.5503896474838257,307500,https://www.zillow.com/homedetails/12593-S-176th-Ave-Goodyear-AZ-85338/55281723_zpid/,33.3323,-112.427
8954659,21982207,"4251 E Erie St, Gilbert, AZ 85295 ",85295,0.5497704148292542,284500,https://www.zillow.com/homedetails/4251-E-Erie-St-Gilbert-AZ-85295/2094205835_zpid/,33.3103,-111.699
8945264,22080673,"9517 E Jadecrest Dr, Sun Lakes, AZ 85248 ",85248,0.5495448708534241,284000,https://www.zillow.com/homedetails/9517-E-Jadecrest-Dr-Sun-Lakes-AZ-85248/8214019_zpid/,,
5218084,22102301,"10417 E Sebring Ave, Mesa, AZ 85212 ",85212,0.5491049885749817,324900,https://www.zillow.com/homedetails/10417-E-Sebring-Ave-Mesa-AZ-85212/125119313_zpid/,33.3327,-111.59899999999999
912985,22286715,"1842 S 222nd Ln, Buckeye, AZ 85326 ",85326,0.5487775206565857,235900,https://www.zillow.com/homedetails/1842-S-222nd-Ln-Buckeye-AZ-85326/71615713_zpid/,33.4299,-112.53
1024299,22068987,"1640 E Yellowstone Pl, Chandler, AZ 85249 ",85249,0.5486726760864258,392000,https://www.zillow.com/homedetails/1640-E-Yellowstone-Pl-Chandler-AZ-85249/60987249_zpid/,,
8955388,22182832,"14830 W Jenan Dr, Surprise, AZ 85379 ",85379,0.5482393503189087,235000,https://www.zillow.com/homedetails/14830-W-Jenan-Dr-Surprise-AZ-85379/60999898_zpid/,33.591,-112.38
916454,21972705,"21849 W Pima St, Buckeye, AZ 85326 ",85326,0.5482301115989685,205000,https://www.zillow.com/homedetails/21849-W-Pima-St-Buckeye-AZ-85326/71631306_zpid/,33.4333,-112.521
1502426,21995589,"18409 W Port Au Prince Ln, Surprise, AZ 85388 ",85388,0.5482301115989685,299900,https://www.zillow.com/homedetails/18409-W-Port-Au-Prince-Ln-Surprise-AZ-85388/67779038_zpid/,33.6226,-112.455
7461103,21928271,"15054 W Riviera Dr, Surprise, AZ 85379 ",85379,0.5475625395774841,289900,https://www.zillow.com/homedetails/15054-W-Riviera-Dr-Surprise-AZ-85379/61000014_zpid/,33.5928,-112.384
7478654,21975344,"25780 W Watkins St, Buckeye, AZ 85326 ",85326,0.54754638671875,204898,https://www.zillow.com/homedetails/25780-W-Watkins-St-Buckeye-AZ-85326/2094788129_zpid/,33.4245,-112.60600000000001
896109,21972222,"209 N 110th Dr, Avondale, AZ 85323 ",85323,0.5475408434867859,235900,https://www.zillow.com/homedetails/209-N-110th-Dr-Avondale-AZ-85323/71611987_zpid/,33.4485,-112.29799999999999
8958121,21982102,"4242 E Gail Dr, Gilbert, AZ 85296 ",85296,0.5474490523338318,242000,https://www.zillow.com/homedetails/4242-E-Gail-Dr-Gilbert-AZ-85296/59209408_zpid/,33.3241,-111.699
2078288,21892828,"18552 W Acacia Dr Goodyear, AZ 85338 ",85338,0.5470669865608215,305378,http://www.zillow.com/homedetails/18552-W-Acacia-Dr-Goodyear-AZ-85338/125154247_zpid/,33.3366,-112.44
2078287,21892826,"18570 W Acacia Dr Goodyear, AZ 85338 ",85338,0.5470669865608215,314071,http://www.zillow.com/homedetails/18570-W-Acacia-Dr-Goodyear-AZ-85338/125133802_zpid/,33.3366,-112.44
1603789,21949441,"18551 W Sunnyslope Ln, Waddell, AZ 85355 ",85355,0.5470662117004395,242777,https://www.zillow.com/homedetails/18551-W-Sunnyslope-Ln-Waddell-AZ-85355/71624880_zpid/,33.5692,-112.459
8944527,21968431,"1493 S Ponderosa Dr, Gilbert, AZ 85296 ",85296,0.5465613007545471,313000,https://www.zillow.com/homedetails/1493-S-Ponderosa-Dr-Gilbert-AZ-85296/92348547_zpid/,33.3233,-111.713
445968,22251225,"2921 N 113th Ln, Avondale, AZ 85392 ",85392,0.546226441860199,274500,https://www.zillow.com/homedetails/2921-N-113th-Ln-Avondale-AZ-85392/7486674_zpid/,33.48,-112.303
1140418,21895366,"11601 W Poinsettia Dr, El Mirage, AZ 85335 ",85335,0.546145498752594,158000,https://www.zillow.com/homedetails/11601-W-Poinsettia-Dr-El-Mirage-AZ-85335/59277980_zpid/,33.5917,-112.311
1320925,21986417,"5541 S Joshua Tree Ln, Gilbert, AZ 85298 ",85298,0.5460111498832703,324900,https://www.zillow.com/homedetails/5541-S-Joshua-Tree-Ln-Gilbert-AZ-85298/121422374_zpid/,33.2496,-111.704
1254731,21969862,"1689 S Parkcrest St, Gilbert, AZ 85295 ",85295,0.5460111498832703,324000,https://www.zillow.com/homedetails/1689-S-Parkcrest-St-Gilbert-AZ-85295/81984914_zpid/,33.3191,-111.73299999999999
69340,21978523,"3485 S Seneca Way, Gilbert, AZ 85297 ",85297,0.5459165573120117,265000,https://www.zillow.com/homedetails/3485-S-Seneca-Way-Gilbert-AZ-85297/95085895_zpid/,33.2877,-111.691
8952461,21974494,"24617 W Sheraton Ln, Buckeye, AZ 85326 ",85326,0.5453421473503113,191900,https://www.zillow.com/homedetails/24617-W-Sheraton-Ln-Buckeye-AZ-85326/95127725_zpid/,33.4002,-112.58
1271136,22127942,"3944 E Fairview St, Gilbert, AZ 85295 ",85295,0.5451781153678894,299000,https://www.zillow.com/homedetails/3944-E-Fairview-St-Gilbert-AZ-85295/67801310_zpid/,33.2961,-111.705
1466642,21930148,"17471 N 91st Dr, Peoria, AZ 85382 ",85382,0.5450099110603333,264900,https://www.zillow.com/homedetails/17471-N-91st-Dr-Peoria-AZ-85382/95156135_zpid/,33.6425,-112.255
7402283,21899147,"18591 W Kendall St, Goodyear, AZ 85338 ",85338,0.5448848009109497,299900,https://www.zillow.com/homedetails/18591-W-Kendall-St-Goodyear-AZ-85338/95130497_zpid/,33.4203,-112.459
1154648,21896677,"12926 W Laurel Ln, El Mirage, AZ 85335 ",85335,0.5448027849197388,155000,https://www.zillow.com/homedetails/12926-W-Laurel-Ln-El-Mirage-AZ-85335/52932591_zpid/,33.5932,-112.339
927870,21974002,"23870 W Twilight Trl, Buckeye, AZ 85326 ",85326,0.5445057153701782,174000,https://www.zillow.com/homedetails/23870-W-Twilight-Trl-Buckeye-AZ-85326/61631270_zpid/,33.4404,-112.564
990686,21968400,"1489 E Iris Dr, Chandler, AZ 85286 ",85286,0.5441717505455017,360000,https://www.zillow.com/homedetails/1489-E-Iris-Dr-Chandler-AZ-85286/60049671_zpid/,,
1050614,21831904,"709 E Prescott Dr, Chandler, AZ 85249 ",85249,0.544097900390625,399000,https://www.zillow.com/homedetails/709-E-Prescott-Dr-Chandler-AZ-85249/60986104_zpid/,,
1050243,22040124,"6960 S Turquoise Pl, Chandler, AZ 85249 ",85249,0.543846607208252,284500,https://www.zillow.com/homedetails/6960-S-Turquoise-Pl-Chandler-AZ-85249/67777737_zpid/,33.2054,-111.765
1026886,22105114,"2036 E Riviera Dr, Chandler, AZ 85249 ",85249,0.543846607208252,275000,https://www.zillow.com/homedetails/2036-E-Riviera-Dr-Chandler-AZ-85249/52432037_zpid/,33.2122,-111.806
1053792,22133219,"979 E Indian Wells Pl, Chandler, AZ 85249 ",85249,0.543846607208252,319000,https://www.zillow.com/homedetails/979-E-Indian-Wells-Pl-Chandler-AZ-85249/60986632_zpid/,33.218,-111.82799999999999
927136,21973950,"23802 W Chipman Rd, Buckeye, AZ 85326 ",85326,0.543835461139679,219900,https://www.zillow.com/homedetails/23802-W-Chipman-Rd-Buckeye-AZ-85326/95158921_zpid/,33.4021,-112.559
438088,21836956,"1814 N 113th Ave, Avondale, AZ 85392 ",85392,0.5437018871307373,249000,https://www.zillow.com/homedetails/1814-N-113th-Ave-Avondale-AZ-85392/89135870_zpid/,33.4672,-112.304
527882,22045907,"9520 W Monte Vista Rd, Phoenix, AZ 85037 ",85037,0.543695330619812,192000,https://www.zillow.com/homedetails/9520-W-Monte-Vista-Rd-Phoenix-AZ-85037/60975025_zpid/,33.4702,-112.26700000000001
8962795,21938686,"7753 E Boise St, Mesa, AZ 85207 ",85207,0.5436481833457947,265000,https://www.zillow.com/homedetails/7753-E-Boise-St-Mesa-AZ-85207/60982442_zpid/,33.42,-111.664
582162,22106103,"10849 E Stanton Ave, Mesa, AZ 85212 ",85212,0.5436481833457947,299000,https://www.zillow.com/homedetails/10849-E-Stanton-Ave-Mesa-AZ-85212/81987813_zpid/,33.3265,-111.59899999999999
1310330,21976875,"2994 E Sports Ct, Gilbert, AZ 85298 ",85298,0.5436369776725769,325000,https://www.zillow.com/homedetails/2994-E-Sports-Ct-Gilbert-AZ-85298/89220206_zpid/,33.2299,-111.725
1145331,22260940,"12229 W Larkspur Rd, El Mirage, AZ 85335 ",85335,0.5435881614685059,150000,https://www.zillow.com/homedetails/12229-W-Larkspur-Rd-El-Mirage-AZ-85335/29618318_zpid/,33.5965,-112.323
19637,22261254,"9810 S 44th Dr, Laveen, AZ 85339 ",85339,0.5435003042221069,309000,https://www.zillow.com/homedetails/9810-S-44th-Dr-Laveen-AZ-85339/67771621_zpid/,33.3573,-112.155
7435912,22103058,"2112 N 88th St, Mesa, AZ 85207 ",85207,0.5434849262237549,362000,https://www.zillow.com/homedetails/2112-N-88th-St-Mesa-AZ-85207/125143247_zpid/,,
75239,21982996,"4512 E Santa Fe Ln, Gilbert, AZ 85297 ",85297,0.5434600114822388,272000,https://www.zillow.com/homedetails/4512-E-Santa-Fe-Ln-Gilbert-AZ-85297/71623848_zpid/,33.2798,-111.69200000000001
1025798,22133093,"1866 E Lindrick Dr, Chandler, AZ 85249 ",85249,0.5434272885322571,163000,https://www.zillow.com/homedetails/1866-E-Lindrick-Dr-Chandler-AZ-85249/8224975_zpid/,33.2067,-111.80799999999999
345909,22262250,"5313 W Raymond St, Phoenix, AZ 85043 ",85043,0.5433753728866577,150000,https://www.zillow.com/homedetails/5313-W-Raymond-St-Phoenix-AZ-85043/67788825_zpid/,33.4148,-112.17399999999999
7563175,22089860,"27264 N Skipping Rock Rd, Peoria, AZ 85383 ",85383,0.5432938933372498,329000,https://www.zillow.com/homedetails/27264-N-Skipping-Rock-Rd-Peoria-AZ-85383/2094544487_zpid/,33.7327,-112.28
8968767,22267743,"2558 N Beverly Pl, Buckeye, AZ 85396 ",85396,0.5432729721069336,394290,https://www.zillow.com/homedetails/2558-N-Beverly-Pl-Buckeye-AZ-85396/125143240_zpid/,33.4752,-112.499
885739,21839347,"27044 W Escuda Dr, Buckeye, AZ 85396 ",85396,0.5432126522064209,185000,https://www.zillow.com/homedetails/27044-W-Escuda-Dr-Buckeye-AZ-85396/89137010_zpid/,33.6675,-112.633
1052770,21833216,"883 E Gemini Pl, Chandler, AZ 85249 ",85249,0.5432119965553284,324000,https://www.zillow.com/homedetails/883-E-Gemini-Pl-Chandler-AZ-85249/55725593_zpid/,33.2202,-111.82700000000001
364147,21964133,"9335 W Payson Rd, Tolleson, AZ 85353 ",85353,0.543182373046875,210000,https://www.zillow.com/homedetails/9335-W-Payson-Rd-Tolleson-AZ-85353/81982004_zpid/,33.4203,-112.26100000000001
1497273,22069105,"17748 W Gelding Dr, Surprise, AZ 85388 ",85388,0.5431635975837708,324000,https://www.zillow.com/homedetails/17748-W-Gelding-Dr-Surprise-AZ-85388/60996415_zpid/,33.6154,-112.44
8945436,22185595,"17631 Cavedale Dr, Surprise, AZ 85387 ",85387,0.5431240200996399,224900,https://www.zillow.com/homedetails/17631-Cavedale-Dr-Surprise-AZ-85387/71631259_zpid/,33.7266,-112.441
74033,21982091,"4239 E Marshall Ave, Gilbert, AZ 85297 ",85297,0.543118953704834,324999,https://www.zillow.com/homedetails/4239-E-Marshall-Ave-Gilbert-AZ-85297/55281070_zpid/,33.2688,-111.699
1498604,22214951,"17808 W Voltaire St, Surprise, AZ 85388 ",85388,0.542994499206543,272000,https://www.zillow.com/homedetails/17808-W-Voltaire-St-Surprise-AZ-85388/82386267_zpid/,33.6089,-112.44200000000001
8847810,22183198,"849 E Devon Rd, Gilbert, AZ 85296 ",85296,0.5429834127426147,249900,https://www.zillow.com/homedetails/849-E-Devon-Rd-Gilbert-AZ-85296/67766936_zpid/,,
884137,22020141,"26310 W Mohawk Ln, Buckeye, AZ 85396 ",85396,0.542957603931427,263800,https://www.zillow.com/homedetails/26310-W-Mohawk-Ln-Buckeye-AZ-85396/81994763_zpid/,33.6712,-112.617
7454230,21929822,"16074 W Banff Ln, Surprise, AZ 85379 ",85379,0.5429489016532898,215000,https://www.zillow.com/homedetails/16074-W-Banff-Ln-Surprise-AZ-85379/60999200_zpid/,33.6177,-112.406
8964149,22051912,"13227 W Indianola Ave, Litchfield Park, AZ 85340 ",85340,0.5428754091262817,305000,https://www.zillow.com/homedetails/13227-W-Indianola-Ave-Litchfield-Park-AZ-85340/67780051_zpid/,33.4893,-112.346
42786,22191850,"7114 W Globe Ave, Phoenix, AZ 85043 ",85043,0.5428145527839661,275000,https://www.zillow.com/homedetails/7114-W-Globe-Ave-Phoenix-AZ-85043/67788720_zpid/,33.4194,-112.213
585793,22243018,"11225 E Sylvan Ave, Mesa, AZ 85212 ",85212,0.5425977110862732,329999,https://www.zillow.com/homedetails/11225-E-Sylvan-Ave-Mesa-AZ-85212/71623105_zpid/,33.3314,-111.59100000000001
8948692,21898010,"16781 W Watkins St, Goodyear, AZ 85338 ",85338,0.5425781011581421,354900,https://www.zillow.com/homedetails/16781-W-Watkins-St-Goodyear-AZ-85338/95138466_zpid/,33.4248,-112.42
1269421,22183091,"3615 E Larson Ln, Gilbert, AZ 85295 ",85295,0.5423797369003296,279900,https://www.zillow.com/homedetails/3615-E-Larson-Ln-Gilbert-AZ-85295/95075938_zpid/,33.2976,-111.712
362682,21963096,"8917 W Toronto Way, Tolleson, AZ 85353 ",85353,0.5423640012741089,185500,https://www.zillow.com/homedetails/8917-W-Toronto-Way-Tolleson-AZ-85353/67772783_zpid/,33.4232,-112.25200000000001
8955372,21929373,"15630 W Yucatan Dr, Surprise, AZ 85379 ",85379,0.5420596599578857,279900,https://www.zillow.com/homedetails/15630-W-Yucatan-Dr-Surprise-AZ-85379/71609328_zpid/,33.5873,-112.397
926082,21973871,"23629 W Tamarisk Ave, Buckeye, AZ 85326 ",85326,0.5420367121696472,185000,https://www.zillow.com/homedetails/23629-W-Tamarisk-Ave-Buckeye-AZ-85326/88785570_zpid/,33.4037,-112.559
1603217,21949374,"18468 W Carol Ave, Waddell, AZ 85355 ",85355,0.5417734384536743,240000,https://www.zillow.com/homedetails/18468-W-Carol-Ave-Waddell-AZ-85355/95117522_zpid/,33.5711,-112.45700000000001
1269043,21978876,"3546 E Bridgeport Pkwy, Gilbert, AZ 85295 ",85295,0.5417448282241821,324900,https://www.zillow.com/homedetails/3546-E-Bridgeport-Pkwy-Gilbert-AZ-85295/55276815_zpid/,33.3013,-111.713
1266934,21977834,"3271 E Canyon Creek Dr, Gilbert, AZ 85295 ",85295,0.5417448282241821,314900,https://www.zillow.com/homedetails/3271-E-Canyon-Creek-Dr-Gilbert-AZ-85295/55276704_zpid/,33.3035,-111.72
5331372,21921930,"13360 N 149th Ave Surprise, AZ 85379 ",85379,0.5417433977127075,304386,http://www.zillow.com/homedetails/13360-N-149th-Ave-Surprise-AZ-85379/95121209_zpid/,33.6054,-112.381
501545,22080380,"7823 W Palm Ln, Phoenix, AZ 85035 ",85035,0.5417045950889587,165000,https://www.zillow.com/homedetails/7823-W-Palm-Ln-Phoenix-AZ-85035/95136297_zpid/,33.4685,-112.228
43388,22198810,"7908 W Williams St, Phoenix, AZ 85043 ",85043,0.5416803956031799,189000,https://www.zillow.com/homedetails/7908-W-Williams-St-Phoenix-AZ-85043/67764494_zpid/,33.4213,-112.23
8958113,22270075,"1187 S Rebecca Ct, Gilbert, AZ 85296 ",85296,0.5415662527084351,285000,https://www.zillow.com/homedetails/1187-S-Rebecca-Ct-Gilbert-AZ-85296/8243054_zpid/,33.329,-111.73200000000001
7459442,21957558,"21675 N 91st Dr, Peoria, AZ 85382 ",85382,0.5414538979530334,284000,https://www.zillow.com/homedetails/21675-N-91st-Dr-Peoria-AZ-85382/52429863_zpid/,33.6776,-112.256
1039957,22105394,"4274 E Gleneagle Dr, Chandler, AZ 85249 ",85249,0.5413882732391357,271500,https://www.zillow.com/homedetails/4274-E-Gleneagle-Dr-Chandler-AZ-85249/62736880_zpid/,33.2053,-111.76700000000001
1038378,21828702,"4093 E Cherry Hills Dr, Chandler, AZ 85249 ",85249,0.5413882732391357,278900,https://www.zillow.com/homedetails/4093-E-Cherry-Hills-Dr-Chandler-AZ-85249/94638354_zpid/,33.2162,-111.771
8959150,21929449,"15701 W Yucatan Dr, Surprise, AZ 85379 ",85379,0.5413813591003418,295000,https://www.zillow.com/homedetails/15701-W-Yucatan-Dr-Surprise-AZ-85379/71609317_zpid/,33.5876,-112.398
8962333,21906962,"16329 W Fillmore St, Goodyear, AZ 85338 ",85338,0.5413717031478882,365000,https://www.zillow.com/homedetails/16329-W-Fillmore-St-Goodyear-AZ-85338/59256408_zpid/,33.453,-112.41
1146764,21895873,"12408 N 121st Ave, El Mirage, AZ 85335 ",85335,0.5413504838943481,159900,https://www.zillow.com/homedetails/12408-N-121st-Ave-El-Mirage-AZ-85335/11884762_zpid/,33.5964,-112.32
915987,21972605,"21607 W Durango St, Buckeye, AZ 85326 ",85326,0.5413005948066711,209000,https://www.zillow.com/homedetails/21607-W-Durango-St-Buckeye-AZ-85326/95136061_zpid/,33.4286,-112.516
8954624,21968115,"1438 E Cheyenne St, Gilbert, AZ 85296 ",85296,0.5411123037338257,299999,https://www.zillow.com/homedetails/1438-E-Cheyenne-St-Gilbert-AZ-85296/8238716_zpid/,33.3466,-111.759
7385686,21957409,"17198 W Ashley Dr, Goodyear, AZ 85338 ",85338,0.5410154461860657,268999,https://www.zillow.com/homedetails/17198-W-Ashley-Dr-Goodyear-AZ-85338/64440721_zpid/,33.4261,-112.429
308825,22243781,"41025 N Iron Horse Way, Anthem, AZ 85086 ",85086,0.5409598350524902,324700,https://www.zillow.com/homedetails/41025-N-Iron-Horse-Way-Anthem-AZ-85086/55264170_zpid/,33.8576,-112.115
26685,22125543,"8462 W Lewis Ave, Phoenix, AZ 85037 ",85037,0.5406243205070496,159999,https://www.zillow.com/homedetails/8462-W-Lewis-Ave-Phoenix-AZ-85037/82823097_zpid/,33.4739,-112.242
933684,21975036,"25557 W St Kateri Dr, Buckeye, AZ 85326 ",85326,0.5406073331832886,239000,https://www.zillow.com/homedetails/25557-W-St-Kateri-Dr-Buckeye-AZ-85326/81998195_zpid/,33.3855,-112.601
8957018,21840057,"3535 N Carlton St, Buckeye, AZ 85396 ",85396,0.5402827858924866,333544,https://www.zillow.com/homedetails/3535-N-Carlton-St-Buckeye-AZ-85396/95086371_zpid/,33.4869,-112.506
508295,21923448,"10311 W Foothill Dr, Peoria, AZ 85383 ",85383,0.5400682687759399,299900,https://www.zillow.com/homedetails/10311-W-Foothill-Dr-Peoria-AZ-85383/67790505_zpid/,33.687,-112.281
1080658,22056189,"2452 E Morelos St, Chandler, AZ 85225 ",85225,0.5400561094284058,315000,https://www.zillow.com/homedetails/2452-E-Morelos-St-Chandler-AZ-85225/50195689_zpid/,,
1272234,21981977,"4228 E Del Rio St, Gilbert, AZ 85295 ",85295,0.5397313237190247,289000,https://www.zillow.com/homedetails/4228-E-Del-Rio-St-Gilbert-AZ-85295/55275919_zpid/,33.3159,-111.698
806294,22078685,"619 S 27th Pl, Mesa, AZ 85204 ",85204,0.5396484136581421,279900,http://www.zillow.com/homedetails/619-S-27th-Pl-Mesa-AZ-85204/59270175_zpid/,33.4045,-111.772
1483892,21930376,"18065 N 113th Ave, Surprise, AZ 85378 ",85378,0.5395699143409729,216900,https://www.zillow.com/homedetails/18065-N-113th-Ave-Surprise-AZ-85378/52426025_zpid/,33.6513,-112.302
8708656,21948735,"17992 N Painted Spurge Ct, Surprise, AZ 85374 ",85374,0.5395513772964478,244000,https://www.zillow.com/homedetails/17992-N-Painted-Spurge-Ct-Surprise-AZ-85374/8126581_zpid/,,
8847803,21991757,"885 S Porter Ct, Gilbert, AZ 85296 ",85296,0.5395513772964478,205000,https://www.zillow.com/homedetails/885-S-Porter-Ct-Gilbert-AZ-85296/60990033_zpid/,,
1477275,22253015,"11354 W Austin Thomas Dr, Surprise, AZ 85378 ",85378,0.5394402146339417,244900,https://www.zillow.com/homedetails/11354-W-Austin-Thomas-Dr-Surprise-AZ-85378/52426007_zpid/,33.6487,-112.303
193698,22138371,"2507 W Maldonado Rd, Phoenix, AZ 85041 ",85041,0.5393894910812378,269000,https://www.zillow.com/homedetails/2507-W-Maldonado-Rd-Phoenix-AZ-85041/62727653_zpid/,33.3829,-112.113
680850,22126163,"8727 E Knowles Ave, Mesa, AZ 85209 ",85209,0.539364218711853,245000,https://www.zillow.com/homedetails/8727-E-Knowles-Ave-Mesa-AZ-85209/59258871_zpid/,33.3786,-111.646
600664,21819946,"7662 E Caballero St, Mesa, AZ 85207 ",85207,0.5392816662788391,258999,https://www.zillow.com/homedetails/7662-E-Caballero-St-Mesa-AZ-85207/55269195_zpid/,33.4234,-111.665
67198,21976119,"2825 E Trigger Way, Gilbert, AZ 85297 ",85297,0.5392739772796631,305000,https://www.zillow.com/homedetails/2825-E-Trigger-Way-Gilbert-AZ-85297/89220613_zpid/,33.2792,-111.729
940340,21986309,"5461 S Dove Hl, Buckeye, AZ 85326 ",85326,0.5392087697982788,184900,https://www.zillow.com/homedetails/5461-S-Dove-Hl-Buckeye-AZ-85326/62739577_zpid/,33.3974,-112.587
884058,21839065,"26293 W Sierra Pinta Dr, Buckeye, AZ 85396 ",85396,0.539207398891449,299999,https://www.zillow.com/homedetails/26293-W-Sierra-Pinta-Dr-Buckeye-AZ-85396/81987587_zpid/,33.6671,-112.617
1603312,21957498,"18516 W Turquoise Ave, Waddell, AZ 85355 ",85355,0.5391156077384949,315000,https://www.zillow.com/homedetails/18516-W-Turquoise-Ave-Waddell-AZ-85355/95113716_zpid/,33.5742,-112.458
43572,22124718,"8011 W Gibson Ln, Phoenix, AZ 85043 ",85043,0.5390855073928833,225000,https://www.zillow.com/homedetails/8011-W-Gibson-Ln-Phoenix-AZ-85043/50123894_zpid/,33.428000000000004,-112.23200000000001
1544805,22017075,"2075 W Olive Way, Chandler, AZ 85248 ",85248,0.53902268409729,317500,https://www.zillow.com/homedetails/2075-W-Olive-Way-Chandler-AZ-85248/52273194_zpid/,33.2468,-111.876
1226586,22030398,"3467 E Gary Way, Gilbert, AZ 85234 ",85234,0.53902268409729,303990,https://www.zillow.com/homedetails/3467-E-Gary-Way-Gilbert-AZ-85234/88794684_zpid/,33.3748,-111.71700000000001
1553239,22117091,"3915 S Nebraska St, Chandler, AZ 85248 ",85248,0.53902268409729,289900,https://www.zillow.com/homedetails/3915-S-Nebraska-St-Chandler-AZ-85248/50196036_zpid/,33.2497,-111.846
7485224,21957925,"4830 W Donner Dr, Laveen, AZ 85339 ",85339,0.5389983654022217,224900,https://www.zillow.com/homedetails/4830-W-Donner-Dr-Laveen-AZ-85339/81954212_zpid/,33.3781,-112.163
8947525,21898227,"17172 W Ashley Dr, Goodyear, AZ 85338 ",85338,0.5388661026954651,220000,https://www.zillow.com/homedetails/17172-W-Ashley-Dr-Goodyear-AZ-85338/55287573_zpid/,33.4259,-112.429
69050,21978382,"3441 E Robin Ln, Gilbert, AZ 85296 ",85296,0.5388126969337463,335000,https://www.zillow.com/homedetails/3441-E-Robin-Ln-Gilbert-AZ-85296/95017775_zpid/,33.3446,-111.71600000000001
8962323,21906914,"15926 W Pima St, Goodyear, AZ 85338 ",85338,0.5387297868728638,250000,https://www.zillow.com/homedetails/15926-W-Pima-St-Goodyear-AZ-85338/71628722_zpid/,33.4317,-112.40100000000001
7443803,22046761,"9865 E Idaho Ave, Mesa, AZ 85209 ",85209,0.538618266582489,364500,https://www.zillow.com/homedetails/9865-E-Idaho-Ave-Mesa-AZ-85209/8090881_zpid/,,
922631,21973474,"22933 W Arrow Dr, Buckeye, AZ 85326 ",85326,0.5386167764663696,169000,https://www.zillow.com/homedetails/22933-W-Arrow-Dr-Buckeye-AZ-85326/71599362_zpid/,33.4367,-112.544
1130436,21813670,"715 N Yucca St, Chandler, AZ 85224 ",85224,0.5385650992393494,385000,https://www.zillow.com/homedetails/715-N-Yucca-St-Chandler-AZ-85224/8189818_zpid/,,
351686,21921581,"1953 E Wagoner Rd, Phoenix, AZ 85022 ",85022,0.5385583639144897,274450,https://www.zillow.com/homedetails/1953-E-Wagoner-Rd-Phoenix-AZ-85022/8000506_zpid/,33.6531,-112.04
564892,21992620,"10521 E Pantera Ave, Mesa, AZ 85212 ",85212,0.5383870601654053,329000,https://www.zillow.com/homedetails/10521-E-Pantera-Ave-Mesa-AZ-85212/50199512_zpid/,33.3587,-111.60600000000001
564819,22214906,"10512 E Obispo Ave, Mesa, AZ 85212 ",85212,0.5383122563362122,335000,https://www.zillow.com/homedetails/10512-E-Obispo-Ave-Mesa-AZ-85212/14094820_zpid/,33.3625,-111.60799999999999
1485090,22027283,"20051 N Coyote Lakes Pkwy, Surprise, AZ 85378 ",85378,0.5382593274116516,165000,https://www.zillow.com/homedetails/20051-N-Coyote-Lakes-Pkwy-Surprise-AZ-85378/8318853_zpid/,33.6658,-112.30799999999999
1190809,22072401,"558 N Jackson St, Gilbert, AZ 85233 ",85233,0.5382575392723083,325000,https://www.zillow.com/homedetails/558-N-Jackson-St-Gilbert-AZ-85233/8175500_zpid/,33.3597,-111.82799999999999
1272323,21982032,"4236 E Carla Vista Dr, Gilbert, AZ 85295 ",85295,0.5381602644920349,234900,https://www.zillow.com/homedetails/4236-E-Carla-Vista-Dr-Gilbert-AZ-85295/81994361_zpid/,33.3119,-111.699
1492957,21994968,"17523 W Ventura St, Surprise, AZ 85388 ",85388,0.5381190180778503,175000,https://www.zillow.com/homedetails/17523-W-Ventura-St-Surprise-AZ-85388/60995928_zpid/,33.6123,-112.436
1223925,22029444,"3051 E Millbrae Ln, Gilbert, AZ 85234 ",85234,0.5381000638008118,320000,https://www.zillow.com/homedetails/3051-E-Millbrae-Ln-Gilbert-AZ-85234/8232714_zpid/,33.375,-111.726
74649,21982550,"4353 S Hemet St, Gilbert, AZ 85297 ",85297,0.5380702614784241,245000,https://www.zillow.com/homedetails/4353-S-Hemet-St-Gilbert-AZ-85297/62736035_zpid/,33.2714,-111.711
8955733,21840482,"4001 N 294th Ln, Buckeye, AZ 85396 ",85396,0.538061797618866,214900,https://www.zillow.com/homedetails/4001-N-294th-Ln-Buckeye-AZ-85396/71625872_zpid/,33.4925,-112.684
7393299,21929721,"15950 W Desert Mirage Dr, Surprise, AZ 85379 ",85379,0.5380011796951294,229000,https://www.zillow.com/homedetails/15950-W-Desert-Mirage-Dr-Surprise-AZ-85379/81984746_zpid/,33.5846,-112.40299999999999
8951911,21972867,"22124 W Cantilever Ct, Buckeye, AZ 85326 ",85326,0.5379919409751892,230000,https://www.zillow.com/homedetails/22124-W-Cantilever-Ct-Buckeye-AZ-85326/2094185244_zpid/,33.4483,-112.52600000000001
1108480,22016787,"1137 N Apollo Dr, Chandler, AZ 85224 ",85224,0.5379776358604431,295000,https://www.zillow.com/homedetails/1137-N-Apollo-Dr-Chandler-AZ-85224/8203765_zpid/,33.3232,-111.874
8957267,22214933,"14312 W Country Gables Dr, Surprise, AZ 85379 ",85379,0.537970244884491,375000,https://www.zillow.com/homedetails/14312-W-Country-Gables-Dr-Surprise-AZ-85379/62740648_zpid/,33.62,-112.368
1042644,22235671,"4824 E Bellerive Dr, Chandler, AZ 85249 ",85249,0.5379016399383545,254900,https://www.zillow.com/homedetails/4824-E-Bellerive-Dr-Chandler-AZ-85249/58595643_zpid/,33.2165,-111.76
2028177,21961574,"8223 W Salter Dr, Peoria, AZ 85382 ",85382,0.5377628803253174,319950,https://www.zillow.com/homedetails/8223-W-Salter-Dr-Peoria-AZ-85382/7886604_zpid/,33.6792,-112.23700000000001
1257148,21971066,"1902 E Dublin St, Gilbert, AZ 85295 ",85295,0.5377628803253174,330000,https://www.zillow.com/homedetails/1902-E-Dublin-St-Gilbert-AZ-85295/54487639_zpid/,33.3194,-111.749
1857068,21931216,"20888 N 90th Ave, Peoria, AZ 85382 ",85382,0.5377232432365417,274900,https://www.zillow.com/homedetails/20888-N-90th-Ave-Peoria-AZ-85382/54485038_zpid/,33.6735,-112.25299999999999
8956713,22299452,"7908 W Rose Garden Ln, Peoria, AZ 85382 ",85382,0.5375934839248657,325000,https://www.zillow.com/homedetails/7908-W-Rose-Garden-Ln-Peoria-AZ-85382/7886242_zpid/,33.6725,-112.23
921437,22183062,"22733 W Papago St, Buckeye, AZ 85326 ",85326,0.5375726222991943,169000,https://www.zillow.com/homedetails/22733-W-Papago-St-Buckeye-AZ-85326/60997275_zpid/,33.4344,-112.54
8962077,21975249,"25748 W Watkins St, Buckeye, AZ 85326 ",85326,0.5375710129737854,212900,https://www.zillow.com/homedetails/25748-W-Watkins-St-Buckeye-AZ-85326/2093772852_zpid/,33.4266,-112.556
7554883,21967348,"1318 S Owl Dr, Gilbert, AZ 85296 ",85296,0.5375252366065979,184900,https://www.zillow.com/homedetails/1318-S-Owl-Dr-Gilbert-AZ-85296/2131442074_zpid/,33.3266,-111.697
8947432,22060574,"9429 E Desert Lake Dr, Sun Lakes, AZ 85248 ",85248,0.5373848080635071,299900,https://www.zillow.com/homedetails/9429-E-Desert-Lake-Dr-Sun-Lakes-AZ-85248/8213607_zpid/,,
928970,21974256,"24051 W Antelope Trl, Buckeye, AZ 85326 ",85326,0.5373568534851074,189000,https://www.zillow.com/homedetails/24051-W-Antelope-Trl-Buckeye-AZ-85326/61631293_zpid/,33.4394,-112.568
1309391,21976102,"2832 E Sports Ct, Gilbert, AZ 85298 ",85298,0.5373521447181702,294000,https://www.zillow.com/homedetails/2832-E-Sports-Ct-Gilbert-AZ-85298/89026576_zpid/,33.23,-111.728
7453793,22104579,"9861 E Lindner Ave, Mesa, AZ 85209 ",85209,0.5372961163520813,337900,https://www.zillow.com/homedetails/9861-E-Lindner-Ave-Mesa-AZ-85209/55205633_zpid/,33.3774,-111.635
1271446,22180478,"4071 E Vest Ave, Gilbert, AZ 85295 ",85295,0.537269651889801,249900,http://www.zillow.com/homedetails/4071-E-Vest-Ave-Gilbert-AZ-85295/82385889_zpid,33.3105,-111.70200000000001
8962970,21977987,"3324 E Windsor Dr, Gilbert, AZ 85296 ",85296,0.5370596051216125,323000,https://www.zillow.com/homedetails/3324-E-Windsor-Dr-Gilbert-AZ-85296/71623779_zpid/,33.3265,-111.71799999999999
1372195,21991448,"8501 W Nicolet Ave, Glendale, AZ 85305 ",85305,0.5370439887046814,329000,https://www.zillow.com/homedetails/8501-W-Nicolet-Ave-Glendale-AZ-85305/61627790_zpid/,33.5417,-112.245
7433027,22243221,"10352 W Devonshire Ave, Phoenix, AZ 85037 ",85037,0.5369918346405029,192500,https://www.zillow.com/homedetails/10352-W-Devonshire-Ave-Phoenix-AZ-85037/95131190_zpid/,33.4955,-112.28299999999999
7389333,22056416,"26242 N 68th Dr, Peoria, AZ 85383 ",85383,0.5369651913642883,294995,https://www.zillow.com/homedetails/26242-N-68th-Dr-Peoria-AZ-85383/25776340_zpid/,33.7233,-112.20700000000001
8949433,21999273,"26162 N 67th Dr, Peoria, AZ 85383 ",85383,0.5369651913642883,306500,https://www.zillow.com/homedetails/26162-N-67th-Dr-Peoria-AZ-85383/50185145_zpid/,33.7224,-112.204
8077,21961314,"7584 W Andrea Dr, Peoria, AZ 85383 ",85383,0.5369651913642883,295000,https://www.zillow.com/homedetails/7584-W-Andrea-Dr-Peoria-AZ-85383/95148499_zpid/,33.7272,-112.223
7448554,21929983,"16325 N 73rd Dr, Peoria, AZ 85382 ",85382,0.5369651913642883,289900,https://www.zillow.com/homedetails/16325-N-73rd-Dr-Peoria-AZ-85382/95167141_zpid/,33.6335,-112.21600000000001
1990539,21836855,"18046 W Turney Ave, Goodyear, AZ 85395 ",85395,0.5369227528572083,382500,https://www.zillow.com/homedetails/18046-W-Turney-Ave-Goodyear-AZ-85395/95073726_zpid/,33.5003,-112.448
7460564,22102268,"10229 E Starion Ave, Mesa, AZ 85212 ",85212,0.5368115305900574,278990,https://www.zillow.com/homedetails/10229-E-Starion-Ave-Mesa-AZ-85212/121423476_zpid/,33.3258,-111.61399999999999
584531,22101206,"11115 E Shepperd Ave, Mesa, AZ 85212 ",85212,0.5368115305900574,252900,http://www.zillow.com/homedetails/11115-E-Shepperd-Ave-Mesa-AZ-85212/95161400_zpid/,33.334,-111.594
425940,22228695,"10021 W Sells Dr, Phoenix, AZ 85037 ",85037,0.5367746353149414,160000,https://www.zillow.com/homedetails/10021-W-Sells-Dr-Phoenix-AZ-85037/7484304_zpid/,33.5004,-112.277
7448500,21942476,"10432 W Chickasaw St Tolleson, AZ 85353 ",85353,0.5367646813392639,260844,https://www.zillow.com/homedetails/10432-W-Chickasaw-St-Tolleson-AZ-85353/2095005880_zpid/,33.4299,-112.24600000000001
2043003,22101262,"1163 W Argon St, Mesa, AZ 85201 ",85201,0.5367566347122192,238900,http://www.zillow.com/homedetails/1163-W-Argon-St-Mesa-AZ-85201/95176902_zpid/,33.433,-111.845
7447964,22061356,"20560 W Nelson Pl, Buckeye, AZ 85396 ",85396,0.536680281162262,254930,https://www.zillow.com/homedetails/20560-W-Nelson-Pl-Buckeye-AZ-85396/125123775_zpid/,33.4689,-112.501
1272307,21982003,"4235 E Loma Vista St, Gilbert, AZ 85295 ",85295,0.5366422533988953,340000,https://www.zillow.com/homedetails/4235-E-Loma-Vista-St-Gilbert-AZ-85295/55199268_zpid/,33.3147,-111.698
870236,22035513,"509 S 112th Dr, Avondale, AZ 85323 ",85323,0.5366209149360657,245000,https://www.zillow.com/homedetails/509-S-112th-Dr-Avondale-AZ-85323/67787713_zpid/,33.44,-112.301
991747,22133088,"1590 S Sycamore Pl, Chandler, AZ 85286 ",85286,0.5365781188011169,315000,https://www.zillow.com/homedetails/1590-S-Sycamore-Pl-Chandler-AZ-85286/8208469_zpid/,33.2836,-111.869
610526,22016741,"10448 E Medina Ave, Mesa, AZ 85209 ",85209,0.5365604758262634,294900,https://www.zillow.com/homedetails/10448-E-Medina-Ave-Mesa-AZ-85209/62735737_zpid/,33.3756,-111.611
1604606,21957480,"18173 W Ruth Ave, Waddell, AZ 85355 ",85355,0.5362433195114136,385000,https://www.zillow.com/homedetails/18173-W-Ruth-Ave-Waddell-AZ-85355/88062150_zpid/,33.5622,-112.45
135377,21948208,"17343 N 169th Dr, Surprise, AZ 85374 ",85374,0.5361713171005249,239000,https://www.zillow.com/homedetails/17343-N-169th-Dr-Surprise-AZ-85374/67785976_zpid/,33.641999999999996,-112.42299999999999
1319353,21984699,"4986 S Harvest Ct, Gilbert, AZ 85298 ",85298,0.536166787147522,298000,https://www.zillow.com/homedetails/4986-S-Harvest-Ct-Gilbert-AZ-85298/25776640_zpid/,33.2606,-111.70100000000001
8958862,22214569,"214 E Bluefield Ave, Phoenix, AZ 85022 ",85022,0.5361630320549011,149900,https://www.zillow.com/homedetails/214-E-Bluefield-Ave-Phoenix-AZ-85022/7955753_zpid/,33.6531,-112.071
73327,22215158,"4129 S Ponderosa Dr, Gilbert, AZ 85297 ",85297,0.5361570715904236,259900,https://www.zillow.com/homedetails/4129-S-Ponderosa-Dr-Gilbert-AZ-85297/67777467_zpid/,33.2756,-111.71
1459544,21836702,"16154 W Devonshire Ave, Goodyear, AZ 85395 ",85395,0.5360562205314636,250000,https://www.zillow.com/homedetails/16154-W-Devonshire-Ave-Goodyear-AZ-85395/71618743_zpid/,33.4956,-112.406
8947229,22128019,"6834 W Darrel Rd, Laveen, AZ 85339 ",85339,0.5359008312225342,255000,https://www.zillow.com/homedetails/6834-W-Darrel-Rd-Laveen-AZ-85339/64628549_zpid/,33.385,-112.206
62428,22208693,"39517 N Hillerman Way, Anthem, AZ 85086 ",85086,0.5358972549438477,262900,https://www.zillow.com/homedetails/39517-N-Hillerman-Way-Anthem-AZ-85086/62730961_zpid/,33.8439,-112.09899999999999
8959479,21975342,"25773 W Watkins St, Buckeye, AZ 85326 ",85326,0.5358566641807556,222025,https://www.zillow.com/homedetails/25773-W-Watkins-St-Buckeye-AZ-85326/2093889466_zpid/,33.4266,-112.556
1047160,22102216,"6438 S Nash Way, Chandler, AZ 85249 ",85249,0.5357799530029297,224900,http://www.zillow.com/homedetails/6438-S-Nash-Way-Chandler-AZ-85249/8215978_zpid,33.2129,-111.79700000000001
7490986,22128098,"9036 W Banff Ln, Peoria, AZ 85381 ",85381,0.5357595682144165,284900,https://www.zillow.com/homedetails/9036-W-Banff-Ln-Peoria-AZ-85381/2133373143_zpid/,33.6188,-112.25299999999999
8945102,22185698,"6797 W Rowel Rd, Peoria, AZ 85383 ",85383,0.5356564521789551,325000,https://www.zillow.com/homedetails/6797-W-Rowel-Rd-Peoria-AZ-85383/7925487_zpid/,33.7244,-112.206
435323,22069317,"2103 N Rascon Loop, Phoenix, AZ 85037 ",85037,0.5356564521789551,269900,https://www.zillow.com/homedetails/2103-N-Rascon-Loop-Phoenix-AZ-85037/60046966_zpid/,33.4705,-112.259
130901,21957236,"15051 W Rockrose Way, Surprise, AZ 85374 ",85374,0.5355430841445923,235000,https://www.zillow.com/homedetails/15051-W-Rockrose-Way-Surprise-AZ-85374/8122965_zpid/,33.6391,-112.385
1190085,22131310,"519 W Encinas St, Gilbert, AZ 85233 ",85233,0.5355101227760315,299000,https://www.zillow.com/homedetails/519-W-Encinas-St-Gilbert-AZ-85233/8281033_zpid/,33.3687,-111.801
1472225,21964634,"9543 W Albert Ln, Peoria, AZ 85382 ",85382,0.5352600812911987,299900,https://www.zillow.com/homedetails/9543-W-Albert-Ln-Peoria-AZ-85382/82800806_zpid/,33.6777,-112.265
505728,22118935,"4439 W Magellan Dr, Phoenix, AZ 85087 ",85087,0.5352565050125122,279000,https://www.zillow.com/homedetails/4439-W-Magellan-Dr-Phoenix-AZ-85087/71601978_zpid/,33.8765,-112.156
1085937,22091958,"360 S Dodge Dr, Chandler, AZ 85225 ",85225,0.5351941585540771,354900,https://www.zillow.com/homedetails/360-S-Dodge-Dr-Chandler-AZ-85225/50195732_zpid/,,
959596,22070044,"3751 W Linda Ln, Chandler, AZ 85226 ",85226,0.5351201891899109,329900,https://www.zillow.com/homedetails/3751-W-Linda-Ln-Chandler-AZ-85226/8265071_zpid/,33.3169,-111.906
1271328,22246281,"4050 E Loma Vista St, Gilbert, AZ 85295 ",85295,0.5351044535636902,399000,http://www.zillow.com/homedetails/4050-E-Loma-Vista-St-Gilbert-AZ-85295/55199388_zpid,33.315,-111.70299999999999
581640,22192840,"10721 E Vivid Ave, Mesa, AZ 85212 ",85212,0.5349810123443604,354900,https://www.zillow.com/homedetails/10721-E-Vivid-Ave-Mesa-AZ-85212/121424361_zpid/,33.3256,-111.602
8952445,21929795,"16050 W Jenan Dr, Surprise, AZ 85379 ",85379,0.5349177718162537,373900,https://www.zillow.com/homedetails/16050-W-Jenan-Dr-Surprise-AZ-85379/95098994_zpid/,33.5914,-112.405
7451521,22102756,"15826 S 32nd Pl, Phoenix, AZ 85048 ",85048,0.534873902797699,334900,https://www.zillow.com/homedetails/15826-S-32nd-Pl-Phoenix-AZ-85048/8257387_zpid/,33.3022,-112.014
7434349,21965276,"9834 W El Caminito Dr, Peoria, AZ 85345 ",85345,0.5345803499221802,337500,https://www.zillow.com/homedetails/9834-W-El-Caminito-Dr-Peoria-AZ-85345/60048138_zpid/,33.5573,-112.271
7444087,21898201,"17131 S 174th Dr, Goodyear, AZ 85338 ",85338,0.5345608592033386,229900,https://www.zillow.com/homedetails/17131-S-174th-Dr-Goodyear-AZ-85338/95102746_zpid/,33.2915,-112.425
1271179,21980707,"3951 E Yeager Dr, Gilbert, AZ 85295 ",85295,0.5345545411109924,370000,https://www.zillow.com/homedetails/3951-E-Yeager-Dr-Gilbert-AZ-85295/71608350_zpid/,33.2986,-111.705
787391,22055055,"1704 S Robin Ln, Mesa, AZ 85204 ",85204,0.534553587436676,159900,https://www.zillow.com/homedetails/1704-S-Robin-Ln-Mesa-AZ-85204/7653648_zpid/,33.3842,-111.771
1941614,22102218,"8624 E Fairbrook St Mesa, AZ 85207 ",85207,0.5345110893249512,259950,http://www.zillow.com/homedetails/8624-E-Fairbrook-St-Mesa-AZ-85207/2097273131_zpid/,33.4364,-111.645
1158809,21897068,"14812 N El Frio St, El Mirage, AZ 85335 ",85335,0.5344873070716858,174900,https://www.zillow.com/homedetails/14812-N-El-Frio-St-El-Mirage-AZ-85335/71609102_zpid/,33.6193,-112.31700000000001
196200,22115965,"3440 W Saint Anne Ave, Phoenix, AZ 85041 ",85041,0.5344685316085815,194500,https://www.zillow.com/homedetails/3440-W-Saint-Anne-Ave-Phoenix-AZ-85041/71605364_zpid/,33.3869,-112.133
8964815,22100956,"13309 S 176th Dr, Goodyear, AZ 85338 ",85338,0.5344312191009521,255000,https://www.zillow.com/homedetails/13309-S-176th-Dr-Goodyear-AZ-85338/60991923_zpid/,33.3259,-112.429
587262,22420073,"11315 E Shelley Ave, Mesa, AZ 85212 ",85212,0.534430742263794,305000,https://www.zillow.com/homedetails/11315-E-Shelley-Ave-Mesa-AZ-85212/95153575_zpid/,33.3233,-111.589
583387,22420066,"11013 E Sutter Ave, Mesa, AZ 85212 ",85212,0.534430742263794,296900,https://www.zillow.com/homedetails/11013-E-Sutter-Ave-Mesa-AZ-85212/95158336_zpid/,33.3223,-111.596
588562,22406925,"11410 E Sebring Cir, Mesa, AZ 85212 ",85212,0.534430742263794,309999,https://www.zillow.com/homedetails/11410-E-Sebring-Cir-Mesa-AZ-85212/71617077_zpid/,33.3332,-111.588
8962363,22252724,"327 N 169th Ave, Goodyear, AZ 85338 ",85338,0.5343412160873413,140000,https://www.zillow.com/homedetails/327-N-169th-Ave-Goodyear-AZ-85338/88788226_zpid/,33.4507,-112.42200000000001
8962791,21938665,"325 S Aaron, Mesa, AZ 85208 ",85208,0.5342885255813599,190000,https://www.zillow.com/homedetails/325-S-Aaron-Mesa-AZ-85208/81989888_zpid/,33.4092,-111.625
8707371,21928277,"15062 W Larkspur Dr, Surprise, AZ 85379 ",85379,0.5342665910720825,231900,https://www.zillow.com/homedetails/15062-W-Larkspur-Dr-Surprise-AZ-85379/60993795_zpid/,33.5986,-112.384
8953532,21926589,"14168 W Calavar Rd, Surprise, AZ 85379 ",85379,0.5342665910720825,249900,https://www.zillow.com/homedetails/14168-W-Calavar-Rd-Surprise-AZ-85379/67781163_zpid/,33.6109,-112.365
1156466,21896799,"13030 W Larkspur Rd, El Mirage, AZ 85335 ",85335,0.5342641472816467,200000,https://www.zillow.com/homedetails/13030-W-Larkspur-Rd-El-Mirage-AZ-85335/59252331_zpid/,33.5973,-112.34100000000001
876777,21837764,"20751 W Carlton Mnr, Buckeye, AZ 85396 ",85396,0.5342573523521423,275000,https://www.zillow.com/homedetails/20751-W-Carlton-Mnr-Buckeye-AZ-85396/95095261_zpid/,33.4699,-112.506
258956,21970555,"18056 N 45th Ave, Glendale, AZ 85308 ",85308,0.5341007113456726,145000,https://www.zillow.com/homedetails/18056-N-45th-Ave-Glendale-AZ-85308/7948897_zpid/,33.6506,-112.15700000000001
125760,21945208,"13537 W Nogales Dr, Sun City West, AZ 85375 ",85375,0.5340922474861145,330000,https://www.zillow.com/homedetails/13537-W-Nogales-Dr-Sun-City-West-AZ-85375/68520584_zpid/,33.6949,-112.352
447597,22030642,"3616 N 106th Dr, Avondale, AZ 85392 ",85392,0.5340825915336609,169000,https://www.zillow.com/homedetails/3616-N-106th-Dr-Avondale-AZ-85392/7471478_zpid/,33.489000000000004,-112.288
7550962,22091787,"349 N 88th St, Mesa, AZ 85207 ",85207,0.5340643525123596,145900,https://www.zillow.com/homedetails/349-N-88th-St-Mesa-AZ-85207/8071420_zpid/,33.4219,-111.641
1094836,21813744,"821 E Kesler Ln, Chandler, AZ 85225 ",85225,0.5340596437454224,297900,https://www.zillow.com/homedetails/821-E-Kesler-Ln-Chandler-AZ-85225/8206262_zpid/,33.2924,-111.82799999999999
8954671,21835119,"12014 W Granada Rd, Avondale, AZ 85392 ",85392,0.5339503884315491,189900,https://www.zillow.com/homedetails/12014-W-Granada-Rd-Avondale-AZ-85392/8300968_zpid/,33.4673,-112.318
7438093,21926987,"14345 W Wethersfield Rd Surprise, AZ 85379 ",85379,0.5339495539665222,288839,https://www.zillow.com/homedetails/14345-W-Wethersfield-Rd-Surprise-AZ-85379/2095080848_zpid/,33.5954,-112.367
594902,22069277,"2056 N 89th Pl, Mesa, AZ 85207 ",85207,0.533940851688385,390000,https://www.zillow.com/homedetails/2056-N-89th-Pl-Mesa-AZ-85207/123846977_zpid/,33.453,-111.639
8947806,21964043,"9318 W Mcrae Way, Peoria, AZ 85382 ",85382,0.5339258313179016,165000,https://www.zillow.com/homedetails/9318-W-Mcrae-Way-Peoria-AZ-85382/7893492_zpid/,33.653,-112.26
1320139,22215164,"5173 S Eucalyptus Dr, Gilbert, AZ 85298 ",85298,0.5339213609695435,349900,https://www.zillow.com/homedetails/5173-S-Eucalyptus-Dr-Gilbert-AZ-85298/67767125_zpid/,33.2565,-111.697
585279,22106164,"11149 E Stearn Ave, Mesa, AZ 85212 ",85212,0.5338807702064514,265000,https://www.zillow.com/homedetails/11149-E-Stearn-Ave-Mesa-AZ-85212/82824911_zpid/,33.3298,-111.59299999999999
7399929,22070550,"4450 S Brice, Mesa, AZ 85212 ",85212,0.5338807702064514,264800,https://www.zillow.com/homedetails/4450-S-Brice-Mesa-AZ-85212/71617144_zpid/,33.334,-111.586
8956729,22080642,"9197 W Black Hill Rd, Peoria, AZ 85383 ",85383,0.5338718295097351,295000,https://www.zillow.com/homedetails/9197-W-Black-Hill-Rd-Peoria-AZ-85383/81952701_zpid/,33.7355,-112.258
429032,21880018,"10913 W Morten Ave, Glendale, AZ 85307 ",85307,0.5338546633720398,264000,https://www.zillow.com/homedetails/10913-W-Morten-Ave-Glendale-AZ-85307/7692511_zpid/,33.5452,-112.295
70922,22127931,"3763 E Sebastian Ln, Gilbert, AZ 85297 ",85297,0.5337830781936646,270000,https://www.zillow.com/homedetails/3763-E-Sebastian-Ln-Gilbert-AZ-85297/64588424_zpid/,33.2767,-111.708
8953941,21928120,"14959 W Cortez St, Surprise, AZ 85379 ",85379,0.5335866808891296,299900,https://www.zillow.com/homedetails/14959-W-Cortez-St-Surprise-AZ-85379/67770370_zpid/,33.5919,-112.383
914282,21971463,"1945 S 235th Dr, Buckeye, AZ 85326 ",85326,0.5335774421691895,237000,https://www.zillow.com/homedetails/1945-S-235th-Dr-Buckeye-AZ-85326/88788916_zpid/,33.4289,-112.557
8952673,21959891,"7211 W Dreyfus Dr, Peoria, AZ 85381 ",85381,0.5335671305656433,299900,https://www.zillow.com/homedetails/7211-W-Dreyfus-Dr-Peoria-AZ-85381/7924857_zpid/,33.6037,-112.215
15417,22214151,"1461 N Balboa, Mesa, AZ 85205 ",85205,0.533527135848999,255000,https://www.zillow.com/homedetails/1461-N-Balboa-Mesa-AZ-85205/2095271592_zpid/,33.4301,-111.72
1044917,22037773,"5990 S Mesquite Grove Way, Chandler, AZ 85249 ",85249,0.5334335565567017,369900,https://www.zillow.com/homedetails/5990-S-Mesquite-Grove-Way-Chandler-AZ-85249/59261985_zpid/,33.2197,-111.786
8952688,22081385,"30899 N 125th Dr, Peoria, AZ 85383 ",85383,0.5333725810050964,284900,https://www.zillow.com/homedetails/30899-N-125th-Dr-Peoria-AZ-85383/71616055_zpid/,33.7622,-112.33
8945913,21929902,"16211 W Desert Mirage Dr, Surprise, AZ 85379 ",85379,0.5333378911018372,259900,https://www.zillow.com/homedetails/16211-W-Desert-Mirage-Dr-Surprise-AZ-85379/67795037_zpid/,33.5846,-112.40799999999999
7491251,21945113,"13437 W Marlette Ct, Litchfield Park, AZ 85340 ",85340,0.533305287361145,270000,https://www.zillow.com/homedetails/13437-W-Marlette-Ct-Litchfield-Park-AZ-85340/59254354_zpid/,33.5275,-112.34899999999999
1033931,21827989,"3075 E Scorpio Pl, Chandler, AZ 85249 ",85249,0.5332232713699341,377000,https://www.zillow.com/homedetails/3075-E-Scorpio-Pl-Chandler-AZ-85249/59261997_zpid/,33.2215,-111.788
1050104,21831798,"6946 S Kimberlee Way, Chandler, AZ 85249 ",85249,0.5332232713699341,395000,https://www.zillow.com/homedetails/6946-S-Kimberlee-Way-Chandler-AZ-85249/59263289_zpid/,33.2061,-111.794
67261,21976211,"2847 E Baars Ct, Gilbert, AZ 85297 ",85297,0.5331935882568359,343000,https://www.zillow.com/homedetails/2847-E-Baars-Ct-Gilbert-AZ-85297/88782669_zpid/,33.2798,-111.728
7554115,21976640,"2944 E Melrose St, Gilbert, AZ 85297 ",85297,0.5331935882568359,359000,https://www.zillow.com/homedetails/2944-E-Melrose-St-Gilbert-AZ-85297/95129662_zpid/,33.2809,-111.726
1499077,21588246,"17836 W Eugene Ter, Surprise, AZ 85388 ",85388,0.533130943775177,279500,https://www.zillow.com/homedetails/17836-W-Eugene-Ter-Surprise-AZ-85388/82825319_zpid/,33.6083,-112.443
920808,21973257,"22602 W Ashleigh Marie Dr, Buckeye, AZ 85326 ",85326,0.533130943775177,284900,https://www.zillow.com/homedetails/22602-W-Ashleigh-Marie-Dr-Buckeye-AZ-85326/67796824_zpid/,33.4306,-112.537
881091,22182019,"2256 N Alsap Rd, Buckeye, AZ 85396 ",85396,0.533130943775177,277000,https://www.zillow.com/homedetails/2256-N-Alsap-Rd-Buckeye-AZ-85396/95172453_zpid/,33.4716,-112.508
911299,21968395,"148 N 227th Ln, Buckeye, AZ 85326 ",85326,0.533130943775177,209900,https://www.zillow.com/homedetails/148-N-227th-Ln-Buckeye-AZ-85326/68960954_zpid/,33.4489,-112.541
1599987,21948815,"18033 W Onyx Ave, Waddell, AZ 85355 ",85355,0.5331278443336487,320000,https://www.zillow.com/homedetails/18033-W-Onyx-Ave-Waddell-AZ-85355/71625204_zpid/,33.5745,-112.447
8959147,21929229,"15507 W Lisbon Ln, Surprise, AZ 85379 ",85379,0.5331242084503174,205000,https://www.zillow.com/homedetails/15507-W-Lisbon-Ln-Surprise-AZ-85379/55286519_zpid/,33.6176,-112.39399999999999
8953934,22182814,"12872 N 142nd Ln, Surprise, AZ 85379 ",85379,0.5331242084503174,235000,https://www.zillow.com/homedetails/12872-N-142nd-Ln-Surprise-AZ-85379/71609355_zpid/,33.6009,-112.367
7445433,21957646,"4052 W Milada Dr, Laveen, AZ 85339 ",85339,0.5331027507781982,279990,https://www.zillow.com/homedetails/4052-W-Milada-Dr-Laveen-AZ-85339/95121806_zpid/,33.3635,-112.147
203244,22245973,"9605 S 23rd Dr, Phoenix, AZ 85041 ",85041,0.5330321192741394,279900,https://www.zillow.com/homedetails/9605-S-23rd-Dr-Phoenix-AZ-85041/95098616_zpid/,33.3594,-112.109
1286213,21982216,"4282 E Jasper Dr, Gilbert, AZ 85296 ",85296,0.5328917503356934,176900,https://www.zillow.com/homedetails/4282-E-Jasper-Dr-Gilbert-AZ-85296/63179341_zpid/,33.3275,-111.698
7422515,22228396,"25753 N Sandstone Way, Surprise, AZ 85387 ",85387,0.5328755378723145,235900,https://www.zillow.com/homedetails/25753-N-Sandstone-Way-Surprise-AZ-85387/81975994_zpid/,33.7188,-112.417
1310725,21977337,"3091 E Lynx Way, Gilbert, AZ 85298 ",85298,0.5328659415245056,355000,https://www.zillow.com/homedetails/3091-E-Lynx-Way-Gilbert-AZ-85298/71614489_zpid/,33.2378,-111.723
8962799,22186363,"9937 E Empress Ave, Mesa, AZ 85208 ",85208,0.5328582525253296,207900,https://www.zillow.com/homedetails/9937-E-Empress-Ave-Mesa-AZ-85208/71621505_zpid/,33.3996,-111.616
8988968,22501752,"7741 E Billings St, Mesa, AZ 85207 ",85207,0.5327985286712646,279000,https://www.zillow.com/homedetails/7741-E-Billings-St-Mesa-AZ-85207/2105058574_zpid/,33.4207,-111.664
1310771,21977324,"3101 E Muirfield St, Gilbert, AZ 85298 ",85298,0.5327969789505005,365000,https://www.zillow.com/homedetails/3101-E-Muirfield-St-Gilbert-AZ-85298/62734145_zpid/,33.2249,-111.723
1031926,22133125,"2684 E Birchwood Pl, Chandler, AZ 85249 ",85249,0.5327220559120178,380000,https://www.zillow.com/homedetails/2684-E-Birchwood-Pl-Chandler-AZ-85249/55274351_zpid/,33.2275,-111.794
134647,21947823,"16851 W Tonbridge St, Surprise, AZ 85374 ",85374,0.5326924920082092,249900,https://www.zillow.com/homedetails/16851-W-Tonbridge-St-Surprise-AZ-85374/62732168_zpid/,33.6459,-112.421
678798,22105596,"8425 E Milagro Cir, Mesa, AZ 85209 ",85209,0.5325185656547546,233000,https://www.zillow.com/homedetails/8425-E-Milagro-Cir-Mesa-AZ-85209/52434474_zpid/,33.3703,-111.65299999999999
195134,22228830,"3114 W Wayland Dr, Phoenix, AZ 85041 ",85041,0.5324819087982178,207000,https://www.zillow.com/homedetails/3114-W-Wayland-Dr-Phoenix-AZ-85041/67781653_zpid/,33.3943,-112.126
857604,21966427,"11253 W Chase Dr, Avondale, AZ 85323 ",85323,0.5324382781982422,209000,https://www.zillow.com/homedetails/11253-W-Chase-Dr-Avondale-AZ-85323/60973903_zpid/,33.4277,-112.303
194812,22103379,"2928 W Shumway Farm Rd, Phoenix, AZ 85041 ",85041,0.5322969555854797,230000,https://www.zillow.com/homedetails/2928-W-Shumway-Farm-Rd-Phoenix-AZ-85041/67764863_zpid/,33.3836,-112.12200000000001
427337,21879895,"10467 W Pasadena Ave, Glendale, AZ 85307 ",85307,0.5322809219360352,204000,https://www.zillow.com/homedetails/10467-W-Pasadena-Ave-Glendale-AZ-85307/7488218_zpid/,33.5086,-112.285
8962794,22186280,"7759 E Decatur Cir, Mesa, AZ 85207 ",85207,0.5322619080543518,284900,https://www.zillow.com/homedetails/7759-E-Decatur-Cir-Mesa-AZ-85207/8068076_zpid/,33.426,-111.663
7563911,22240731,"1238 W Sea Crest Dr, Gilbert, AZ 85233 ",85233,0.5322549343109131,297500,https://www.zillow.com/homedetails/1238-W-Sea-Crest-Dr-Gilbert-AZ-85233/8202865_zpid/,33.3421,-111.81700000000001
8947477,22054970,"16456 W Honeysuckle Dr, Surprise, AZ 85387 ",85387,0.5321953296661377,225000,https://www.zillow.com/homedetails/16456-W-Honeysuckle-Dr-Surprise-AZ-85387/81972899_zpid/,33.7195,-112.415
7448556,21985360,"5161 W Muriel Dr, Glendale, AZ 85308 ",85308,0.5321527123451233,275000,https://www.zillow.com/homedetails/5161-W-Muriel-Dr-Glendale-AZ-85308/8099962_zpid/,33.6459,-112.17
1578025,22182772,"10121 W Campana Dr, Sun City, AZ 85351 ",85351,0.5320913195610046,138500,https://www.zillow.com/homedetails/10121-W-Campana-Dr-Sun-City-AZ-85351/8092679_zpid/,33.6367,-112.27799999999999
8974247,22332192,"7716 S 53rd Dr, Laveen, AZ 85339 ",85339,0.5320727825164795,268000,https://www.zillow.com/homedetails/7716-S-53rd-Dr-Laveen-AZ-85339/81982916_zpid/,33.376,-112.17399999999999
8966236,22232707,"6920 S 54th Ln, Laveen, AZ 85339 ",85339,0.5320727825164795,220000,https://www.zillow.com/homedetails/6920-S-54th-Ln-Laveen-AZ-85339/71619413_zpid/,33.3835,-112.176
8968958,22320065,"4822 W St Charles Ave, Laveen, AZ 85339 ",85339,0.5320727825164795,239777,https://www.zillow.com/homedetails/4822-W-St-Charles-Ave-Laveen-AZ-85339/71599841_zpid/,33.385999999999996,-112.163
8965863,22387559,"7016 S 54th Ln, Laveen, AZ 85339 ",85339,0.5320727825164795,215000,https://www.zillow.com/homedetails/7016-S-54th-Ln-Laveen-AZ-85339/71619419_zpid/,33.3825,-112.176
531880,22279882,"6106 S 46th Ln, Laveen, AZ 85339 ",85339,0.5320727825164795,259900,https://www.zillow.com/homedetails/6106-S-46th-Ln-Laveen-AZ-85339/67773452_zpid/,33.391,-112.15899999999999
7537588,22320125,"8216 S 54th Ln, Laveen, AZ 85339 ",85339,0.5320727825164795,245000,https://www.zillow.com/homedetails/8216-S-54th-Ln-Laveen-AZ-85339/55272756_zpid/,33.3709,-112.177
17286,22369727,"4928 W Gary Way, Laveen, AZ 85339 ",85339,0.5320727825164795,280000,https://www.zillow.com/homedetails/4928-W-Gary-Way-Laveen-AZ-85339/71614028_zpid/,33.3725,-112.166
8963811,22387497,"5510 W Vineyard Rd, Laveen, AZ 85339 ",85339,0.5320727825164795,240000,https://www.zillow.com/homedetails/5510-W-Vineyard-Rd-Laveen-AZ-85339/60975998_zpid/,33.3862,-112.179
530986,22387524,"5409 S 51st Dr, Laveen, AZ 85339 ",85339,0.5320727825164795,255000,https://www.zillow.com/homedetails/5409-S-51st-Dr-Laveen-AZ-85339/67773393_zpid/,33.3969,-112.169
633087,22297394,"7503 S 45th Dr, Laveen, AZ 85339 ",85339,0.5320727825164795,255000,https://www.zillow.com/homedetails/7503-S-45th-Dr-Laveen-AZ-85339/67700728_zpid/,33.3787,-112.156
8965862,22217760,"5312 W Glass Ln, Laveen, AZ 85339 ",85339,0.5320727825164795,220000,https://www.zillow.com/homedetails/5312-W-Glass-Ln-Laveen-AZ-85339/67789160_zpid/,33.3842,-112.17299999999999
8963799,22320066,"4930 W Shumway Farm Rd, Laveen, AZ 85339 ",85339,0.5320727825164795,219000,https://www.zillow.com/homedetails/4930-W-Shumway-Farm-Rd-Laveen-AZ-85339/71599775_zpid/,33.3837,-112.166
8938458,22350482,"5310 W Beautiful Ln, Laveen, AZ 85339 ",85339,0.5320727825164795,259900,https://www.zillow.com/homedetails/5310-W-Beautiful-Ln-Laveen-AZ-85339/81951847_zpid/,33.3759,-112.17299999999999
639482,22217776,"9808 S 46th Ln, Laveen, AZ 85339 ",85339,0.5320727825164795,306400,https://www.zillow.com/homedetails/9808-S-46th-Ln-Laveen-AZ-85339/67771798_zpid/,33.3573,-112.15899999999999
693830,22245056,"5420 W Glass Ln, Laveen, AZ 85339 ",85339,0.5320727825164795,259500,https://www.zillow.com/homedetails/5420-W-Glass-Ln-Laveen-AZ-85339/71617889_zpid/,33.3849,-112.175
1098645,22179161,"952 W Saragosa St, Chandler, AZ 85225 ",85225,0.5320414900779724,269999,https://www.zillow.com/homedetails/952-W-Saragosa-St-Chandler-AZ-85225/8206939_zpid/,33.2948,-111.85799999999999
998555,21972744,"2180 S Navajo Way, Chandler, AZ 85286 ",85286,0.5320019721984863,255000,https://www.zillow.com/homedetails/2180-S-Navajo-Way-Chandler-AZ-85286/8227237_zpid/,33.2738,-111.86399999999999
1499722,21995148,"17904 W Maui Ln, Surprise, AZ 85388 ",85388,0.5319833159446716,249000,https://www.zillow.com/homedetails/17904-W-Maui-Ln-Surprise-AZ-85388/67778887_zpid/,33.6221,-112.444
940479,21986526,"555 S 219th Dr, Buckeye, AZ 85326 ",85326,0.5319833159446716,299870,https://www.zillow.com/homedetails/555-S-219th-Dr-Buckeye-AZ-85326/71626302_zpid/,33.442,-112.522
968287,22133163,"5138 W Jupiter Way, Chandler, AZ 85226 ",85226,0.5318601727485657,218000,https://www.zillow.com/homedetails/5138-W-Jupiter-Way-Chandler-AZ-85226/8165981_zpid/,,
8959284,22016793,"1147 N 90th St, Mesa, AZ 85207 ",85207,0.5318127274513245,229900,https://www.zillow.com/homedetails/1147-N-90th-St-Mesa-AZ-85207/25776388_zpid/,33.436,-111.637
8956728,22128116,"9567 W Sunnyslope Ln, Peoria, AZ 85345 ",85345,0.531724750995636,178000,https://www.zillow.com/homedetails/9567-W-Sunnyslope-Ln-Peoria-AZ-85345/7697874_zpid/,33.5693,-112.266
1046757,21831026,"6322 S Onyx Dr, Chandler, AZ 85249 ",85249,0.5317052602767944,236100,https://www.zillow.com/homedetails/6322-S-Onyx-Dr-Chandler-AZ-85249/67807441_zpid/,33.2144,-111.771
7427735,21981420,"4143 E Dubois Ave, Gilbert, AZ 85298 ",85298,0.531704306602478,368000,https://www.zillow.com/homedetails/4143-E-Dubois-Ave-Gilbert-AZ-85298/81994948_zpid/,33.2228,-111.7
1404112,21878345,"5781 N 72nd Dr, Glendale, AZ 85303 ",85303,0.531655490398407,230000,http://www.zillow.com/homedetails/5781-N-72nd-Dr-Glendale-AZ-85303/95181688_zpid/,33.5205,-112.215
8949196,22534370,"4656 S Hassett, Mesa, AZ 85212 ",85212,0.5316230654716492,277000,https://www.zillow.com/homedetails/4656-S-Hassett-Mesa-AZ-85212/81982904_zpid/,33.3278,-111.595
1884110,21971328,"19310 N 77th Ave, Glendale, AZ 85308 ",85308,0.5316027402877808,295000,https://www.zillow.com/homedetails/19310-N-77th-Ave-Glendale-AZ-85308/8101515_zpid/,33.6596,-112.22399999999999
8959132,21926568,"14166 W Shaw Butte Dr, Surprise, AZ 85379 ",85379,0.5315501093864441,214900,https://www.zillow.com/homedetails/14166-W-Shaw-Butte-Dr-Surprise-AZ-85379/71600784_zpid/,33.5941,-112.365
7439631,22034300,"4630 W Dunbar Dr, Laveen, AZ 85339 ",85339,0.5315223932266235,227000,https://www.zillow.com/homedetails/4630-W-Dunbar-Dr-Laveen-AZ-85339/71605123_zpid/,33.3792,-112.15899999999999
1212444,22068688,"1248 E Linda Ln, Gilbert, AZ 85234 ",85234,0.5315163135528564,339000,https://www.zillow.com/homedetails/1248-E-Linda-Ln-Gilbert-AZ-85234/8269729_zpid/,33.3523,-111.762
1848463,21929661,"15911 W Cameron Dr, Surprise, AZ 85379 ",85379,0.5315107107162476,348950,https://www.zillow.com/homedetails/15911-W-Cameron-Dr-Surprise-AZ-85379/95123308_zpid/,33.5881,-112.402
1096818,22286140,"887 W Ivanhoe St, Chandler, AZ 85225 ",85225,0.531494677066803,230000,https://www.zillow.com/homedetails/887-W-Ivanhoe-St-Chandler-AZ-85225/52149691_zpid/,33.3172,-111.85700000000001
632133,22486824,"7233 S 45th Ave, Laveen, AZ 85339 ",85339,0.5314914584159851,252000,https://www.zillow.com/homedetails/7233-S-45th-Ave-Laveen-AZ-85339/67789315_zpid/,33.3805,-112.156
8974666,22502093,"4325 W Monte Way, Laveen, AZ 85339 ",85339,0.5314914584159851,299500,https://www.zillow.com/homedetails/4325-W-Monte-Way-Laveen-AZ-85339/61629828_zpid/,33.3601,-112.154
8963833,22486847,"8519 S 55th Ln, Laveen, AZ 85339 ",85339,0.5314914584159851,279900,https://www.zillow.com/homedetails/8519-S-55th-Ln-Laveen-AZ-85339/81985281_zpid/,33.3687,-112.179
7478106,22419892,"4939 W Apollo Rd, Laveen, AZ 85339 ",85339,0.5314914584159851,254900,https://www.zillow.com/homedetails/4939-W-Apollo-Rd-Laveen-AZ-85339/67788904_zpid/,33.3859,-112.166
532344,22486795,"6411 S 49th Gln, Laveen, AZ 85339 ",85339,0.5314914584159851,264700,https://www.zillow.com/homedetails/6411-S-49th-Gln-Laveen-AZ-85339/71604661_zpid/,33.3879,-112.165
8955864,22433062,"5611 W Maldonado Rd, Laveen, AZ 85339 ",85339,0.5314914584159851,259000,https://www.zillow.com/homedetails/5611-W-Maldonado-Rd-Laveen-AZ-85339/67764799_zpid/,33.3828,-112.18
8973246,22433065,"6411 S 50th Dr, Laveen, AZ 85339 ",85339,0.5314914584159851,259900,https://www.zillow.com/homedetails/6411-S-50th-Dr-Laveen-AZ-85339/71604610_zpid/,33.388000000000005,-112.166
638805,22498331,"9609 S 46th Dr, Laveen, AZ 85339 ",85339,0.5314914584159851,295000,https://www.zillow.com/homedetails/9609-S-46th-Dr-Laveen-AZ-85339/67771729_zpid/,33.3593,-112.15799999999999
8973245,22486800,"6520 S 50th Ln, Laveen, AZ 85339 ",85339,0.5314914584159851,259000,https://www.zillow.com/homedetails/6520-S-50th-Ln-Laveen-AZ-85339/71604647_zpid/,33.3868,-112.16799999999999
8983364,22486848,"8223 S 53rd Dr, Laveen, AZ 85339 ",85339,0.5314914584159851,295000,https://www.zillow.com/homedetails/8223-S-53rd-Dr-Laveen-AZ-85339/67760292_zpid/,33.3708,-112.17399999999999
185930,22108827,"16267 S 12th Pl, Phoenix, AZ 85048 ",85048,0.5314225554466248,305000,https://www.zillow.com/homedetails/16267-S-12th-Pl-Phoenix-AZ-85048/8130384_zpid/,33.2979,-112.055
582459,22270068,"10902 E Roselle Ave, Mesa, AZ 85212 ",85212,0.531412661075592,325000,https://www.zillow.com/homedetails/10902-E-Roselle-Ave-Mesa-AZ-85212/92348268_zpid/,33.3397,-111.59899999999999
8983041,22450231,"10907 E Thatcher Ave, Mesa, AZ 85212 ",85212,0.531412661075592,319995,https://www.zillow.com/homedetails/10907-E-Thatcher-Ave-Mesa-AZ-85212/122067162_zpid/,33.3204,-111.598
1660566,21943346,"11026 W Sierra Pinta Dr, Sun City, AZ 85373 ",85373,0.5313888788223267,250000,https://www.zillow.com/homedetails/11026-W-Sierra-Pinta-Dr-Sun-City-AZ-85373/7895701_zpid/,33.6665,-112.29700000000001
920747,22270980,"22593 W Solano Dr, Buckeye, AZ 85326 ",85326,0.5313370227813721,180000,https://www.zillow.com/homedetails/22593-W-Solano-Dr-Buckeye-AZ-85326/71492592_zpid/,33.4472,-112.537
66572,21972157,"2075 E Stottler Ct, Gilbert, AZ 85296 ",85296,0.5312820672988892,235000,https://www.zillow.com/homedetails/2075-E-Stottler-Ct-Gilbert-AZ-85296/8242188_zpid/,33.3321,-111.745
1283610,22127829,"2332 E Stottler Dr, Gilbert, AZ 85296 ",85296,0.5312820672988892,217000,https://www.zillow.com/homedetails/2332-E-Stottler-Dr-Gilbert-AZ-85296/8242019_zpid/,33.332,-111.74
8955371,22027225,"15181 N 138th Ln, Surprise, AZ 85379 ",85379,0.5312226414680481,212000,https://www.zillow.com/homedetails/15181-N-138th-Ln-Surprise-AZ-85379/62737688_zpid/,33.6218,-112.35799999999999
661283,22164561,"4653 S Romano, Mesa, AZ 85212 ",85212,0.5311638116836548,269900,https://www.zillow.com/homedetails/4653-S-Romano-Mesa-AZ-85212/88792137_zpid/,33.3303,-111.59700000000001
835682,22236716,"3732 W Oregon Ave, Phoenix, AZ 85019 ",85019,0.5311614871025085,155650,https://www.zillow.com/homedetails/3732-W-Oregon-Ave-Phoenix-AZ-85019/50188099_zpid/,33.5146,-112.14
8966162,22440347,"3407 E Riverdale St, Mesa, AZ 85213 ",85213,0.5311609506607056,299990,https://www.zillow.com/homedetails/3407-E-Riverdale-St-Mesa-AZ-85213/125133207_zpid/,33.4788,-111.758
1000753,22281772,"2380 S Apache Dr, Chandler, AZ 85286 ",85286,0.5310955047607422,279000,https://www.zillow.com/homedetails/2380-S-Apache-Dr-Chandler-AZ-85286/8210341_zpid/,33.271,-111.861
1555122,22094981,"5101 S Mcclelland Dr, Chandler, AZ 85248 ",85248,0.5310683250427246,349900,https://www.zillow.com/homedetails/5101-S-Mcclelland-Dr-Chandler-AZ-85248/8225434_zpid/,33.2314,-111.85600000000001
874337,21837085,"20093 N 259th Ln, Buckeye, AZ 85396 ",85396,0.5310533046722412,230000,https://www.zillow.com/homedetails/20093-N-259th-Ln-Buckeye-AZ-85396/82828515_zpid/,33.6678,-112.61
359944,21957620,"3215 S 89th Ave, Tolleson, AZ 85353 ",85353,0.5310386419296265,215000,https://www.zillow.com/homedetails/3215-S-89th-Ave-Tolleson-AZ-85353/95170020_zpid/,33.4177,-112.251
447369,22075810,"8308 W Sheridan St, Phoenix, AZ 85037 ",85037,0.5309643745422363,176000,https://www.zillow.com/homedetails/8308-W-Sheridan-St-Phoenix-AZ-85037/81967429_zpid/,33.4752,-112.238
527835,22217632,"9514 W Monte Vista Rd, Phoenix, AZ 85037 ",85037,0.530960738658905,179900,https://www.zillow.com/homedetails/9514-W-Monte-Vista-Rd-Phoenix-AZ-85037/60975027_zpid/,33.4702,-112.265
1310198,22230553,"2976 E Meadowview Dr, Gilbert, AZ 85298 ",85298,0.5309414863586426,312000,https://www.zillow.com/homedetails/2976-E-Meadowview-Dr-Gilbert-AZ-85298/95119187_zpid/,33.2332,-111.725
1009255,22416556,"633 E Flintlock Pl, Chandler, AZ 85286 ",85286,0.5309414863586426,265000,https://www.zillow.com/homedetails/633-E-Flintlock-Pl-Chandler-AZ-85286/59262338_zpid/,33.2892,-111.83200000000001
1028729,22262192,"2234 E Cherry Hills Pl, Chandler, AZ 85249 ",85249,0.5309414863586426,300000,https://www.zillow.com/homedetails/2234-E-Cherry-Hills-Pl-Chandler-AZ-85249/8215635_zpid/,33.217,-111.803
1046344,22446098,"6251 S Pearl Dr, Chandler, AZ 85249 ",85249,0.5309414863586426,274900,https://www.zillow.com/homedetails/6251-S-Pearl-Dr-Chandler-AZ-85249/71623424_zpid/,33.2155,-111.76899999999999
1311747,22328650,"3334 E Lafayette Ave, Gilbert, AZ 85298 ",85298,0.5309414863586426,300000,https://www.zillow.com/homedetails/3334-E-Lafayette-Ave-Gilbert-AZ-85298/67794037_zpid/,33.2218,-111.71799999999999
1257807,22427034,"1971 E Los Alamos St, Gilbert, AZ 85295 ",85295,0.5309414863586426,307900,https://www.zillow.com/homedetails/1971-E-Los-Alamos-St-Gilbert-AZ-85295/55205886_zpid/,33.3142,-111.74799999999999
1311419,22426006,"3260 E Fandango Dr, Gilbert, AZ 85298 ",85298,0.5309414863586426,311640,https://www.zillow.com/homedetails/3260-E-Fandango-Dr-Gilbert-AZ-85298/71602464_zpid/,33.2275,-111.719
8976568,22366874,"3444 E Robin Ln, Gilbert, AZ 85296 ",85296,0.5309414863586426,305000,https://www.zillow.com/homedetails/3444-E-Robin-Ln-Gilbert-AZ-85296/94638575_zpid/,33.3449,-111.71600000000001
1312404,22427402,"3408 E Flower St, Gilbert, AZ 85298 ",85298,0.5309414863586426,270000,https://www.zillow.com/homedetails/3408-E-Flower-St-Gilbert-AZ-85298/59261882_zpid/,33.2347,-111.71600000000001
1265966,22458886,"3099 E Patrick St, Gilbert, AZ 85295 ",85295,0.5309414863586426,315000,https://www.zillow.com/homedetails/3099-E-Patrick-St-Gilbert-AZ-85295/95102318_zpid/,33.3169,-111.723
1372155,22356196,"8477 W Heather Ct, Glendale, AZ 85305 ",85305,0.5309129357337952,316900,https://www.zillow.com/homedetails/8477-W-Heather-Ct-Glendale-AZ-85305/61627784_zpid/,33.5417,-112.243
582697,22068515,"10914 E Storia Ave, Mesa, AZ 85212 ",85212,0.5308622121810913,334250,https://www.zillow.com/homedetails/10914-E-Storia-Ave-Mesa-AZ-85212/81996692_zpid/,33.328,-111.59899999999999
582115,22378157,"10846 E Ramona Ave, Mesa, AZ 85212 ",85212,0.5308622121810913,324500,https://www.zillow.com/homedetails/10846-E-Ramona-Ave-Mesa-AZ-85212/88793701_zpid/,33.3386,-111.59899999999999
7567285,21901833,"2768 S 155th Ln, Goodyear, AZ 85338 ",85338,0.5308606624603271,225000,https://www.zillow.com/homedetails/2768-S-155th-Ln-Goodyear-AZ-85338/67778363_zpid/,33.4215,-112.39399999999999
8977781,22468617,"7834 E Butte St, Mesa, AZ 85207 ",85207,0.5308312773704529,329995,https://www.zillow.com/homedetails/7834-E-Butte-St-Mesa-AZ-85207/125145641_zpid/,33.4214,-111.664
593819,22484519,"11317 E Enrose St, Mesa, AZ 85207 ",85207,0.5308312773704529,335000,https://www.zillow.com/homedetails/11317-E-Enrose-St-Mesa-AZ-85207/67763383_zpid/,33.4306,-111.587
531280,21958276,"5440 W Coles Rd, Laveen, AZ 85339 ",85339,0.5308072566986084,315000,https://www.zillow.com/homedetails/5440-W-Coles-Rd-Laveen-AZ-85339/71621658_zpid/,33.3696,-112.177
8951388,21927561,"14655 W Lisbon Ln, Surprise, AZ 85379 ",85379,0.5307905077934265,265000,https://www.zillow.com/homedetails/14655-W-Lisbon-Ln-Surprise-AZ-85379/71601088_zpid/,33.6186,-112.375
1496728,22079326,"17729 W Mandalay Ln, Surprise, AZ 85388 ",85388,0.5307866334915161,187500,https://www.zillow.com/homedetails/17729-W-Mandalay-Ln-Surprise-AZ-85388/81985109_zpid/,33.6171,-112.44
73087,21981158,"4084 E Reins Rd, Gilbert, AZ 85297 ",85297,0.5307644605636597,349900,https://www.zillow.com/homedetails/4084-E-Reins-Rd-Gilbert-AZ-85297/55281150_zpid/,33.2655,-111.70100000000001
1265678,21977157,"3059 E Parkview Dr, Gilbert, AZ 85295 ",85295,0.5307368636131287,399000,https://www.zillow.com/homedetails/3059-E-Parkview-Dr-Gilbert-AZ-85295/55276449_zpid/,33.3011,-111.72399999999999
1285329,21979713,"3741 E Liberty Ln, Gilbert, AZ 85296 ",85296,0.5307368636131287,380000,https://www.zillow.com/homedetails/3741-E-Liberty-Ln-Gilbert-AZ-85296/59263588_zpid/,33.321999999999996,-111.71
8947232,22463817,"7127 W Irwin Ave, Laveen, AZ 85339 ",85339,0.5306833386421204,289900,https://www.zillow.com/homedetails/7127-W-Irwin-Ave-Laveen-AZ-85339/82823277_zpid/,33.382,-112.213
8947233,22428495,"7254 W St Charles Ave, Laveen, AZ 85339 ",85339,0.5306833386421204,219900,https://www.zillow.com/homedetails/7254-W-St-Charles-Ave-Laveen-AZ-85339/71605024_zpid/,33.3865,-112.215
876433,22061360,"20704 W Hamilton St, Buckeye, AZ 85396 ",85396,0.5306486487388611,273000,https://www.zillow.com/homedetails/20704-W-Hamilton-St-Buckeye-AZ-85396/95174669_zpid/,33.4813,-112.50399999999999
8978764,22522434,"219 N Sandal, Mesa, AZ 85205 ",85205,0.5306196212768555,272210,https://www.zillow.com/homedetails/219-N-Sandal-Mesa-AZ-85205/2095499187_zpid/,33.4475,-111.706
7404811,22522426,"206 N Sandal, Mesa, AZ 85205 ",85205,0.5306196212768555,274585,https://www.zillow.com/homedetails/206-N-Sandal-Mesa-AZ-85205/2095405409_zpid/,33.4475,-111.706
7442578,22392987,"8857 N 101st Dr, Peoria, AZ 85345 ",85345,0.5305699706077576,307830,https://www.zillow.com/homedetails/8857-N-101st-Dr-Peoria-AZ-85345/2095045472_zpid/,33.6731,-112.27799999999999
527986,22447124,"9530 W Hazelwood St, Phoenix, AZ 85037 ",85037,0.5305699706077576,220000,https://www.zillow.com/homedetails/9530-W-Hazelwood-St-Phoenix-AZ-85037/55256244_zpid/,33.5032,-112.266
1373428,22356199,"8759 W Lane Ave, Glendale, AZ 85305 ",85305,0.5305699706077576,309995,https://www.zillow.com/homedetails/8759-W-Lane-Ave-Glendale-AZ-85305/67770805_zpid/,33.5513,-112.24700000000001
1467,22122216,"6254 W Raymond St, Phoenix, AZ 85043 ",85043,0.5305244326591492,169000,https://www.zillow.com/homedetails/6254-W-Raymond-St-Phoenix-AZ-85043/53206308_zpid/,33.4152,-112.194
8952005,17960839,"12330 W Cactus Blossom Trl, Peoria, AZ 85383 ",85383,0.5304731726646423,259732,https://www.zillow.com/homedetails/12330-W-Cactus-Blossom-Trl-Peoria-AZ-85383/2094171832_zpid/,33.7487,-112.32600000000001
43008,22074428,"7218 W Getty Dr, Phoenix, AZ 85043 ",85043,0.5304707884788513,227500,https://www.zillow.com/homedetails/7218-W-Getty-Dr-Phoenix-AZ-85043/89026358_zpid/,33.4102,-112.21600000000001
874837,22183204,"923 E Randy St, Avondale, AZ 85323 ",85323,0.5304388403892517,199900,https://www.zillow.com/homedetails/923-E-Randy-St-Avondale-AZ-85323/81996826_zpid/,33.4285,-112.339
8938463,21959196,"6816 W Burgess Ln, Laveen, AZ 85339 ",85339,0.5304292440414429,275000,https://www.zillow.com/homedetails/6816-W-Burgess-Ln-Laveen-AZ-85339/71604730_zpid/,33.3892,-112.206
584744,22430761,"11125 E Sorpresa Ave, Mesa, AZ 85212 ",85212,0.5304046869277954,284900,https://www.zillow.com/homedetails/11125-E-Sorpresa-Ave-Mesa-AZ-85212/82824953_zpid/,33.3263,-111.595
580824,22501685,"10536 E Lincoln Ave, Mesa, AZ 85212 ",85212,0.5304046869277954,320000,https://www.zillow.com/homedetails/10536-E-Lincoln-Ave-Mesa-AZ-85212/121423092_zpid/,33.3227,-111.60600000000001
631372,22182925,"7103 S 53rd Ln, Laveen, AZ 85339 ",85339,0.5304002165794373,219900,https://www.zillow.com/homedetails/7103-S-53rd-Ln-Laveen-AZ-85339/68956947_zpid/,33.3817,-112.17299999999999
589335,21819831,"11445 E Quade Ave, Mesa, AZ 85212 ",85212,0.5303910374641418,283000,https://www.zillow.com/homedetails/11445-E-Quade-Ave-Mesa-AZ-85212/55103220_zpid/,33.3497,-111.589
49405,22028147,"16671 S 24th Pl, Phoenix, AZ 85048 ",85048,0.530386745929718,340000,https://www.zillow.com/homedetails/16671-S-24th-Pl-Phoenix-AZ-85048/8257012_zpid/,33.2947,-112.031
1030291,22489700,"2451 E Palm Beach Dr, Chandler, AZ 85249 ",85249,0.5303600430488586,259000,https://www.zillow.com/homedetails/2451-E-Palm-Beach-Dr-Chandler-AZ-85249/52432586_zpid/,33.2064,-111.79799999999999
566499,22508109,"10204 E Kiva Ave, Mesa, AZ 85209 ",85209,0.5303600430488586,295900,https://www.zillow.com/homedetails/10204-E-Kiva-Ave-Mesa-AZ-85209/62735533_zpid/,33.3756,-111.611
662836,22484780,"7350 E Onza Ave, Mesa, AZ 85212 ",85212,0.5303600430488586,310000,https://www.zillow.com/homedetails/7350-E-Onza-Ave-Mesa-AZ-85212/121851360_zpid/,33.3629,-111.676
991351,22493478,"1549 W Lark Dr, Chandler, AZ 85286 ",85286,0.5303600430488586,309900,https://www.zillow.com/homedetails/1549-W-Lark-Dr-Chandler-AZ-85286/8227205_zpid/,33.2689,-111.869
563538,22501678,"10066 E Plata Ave, Mesa, AZ 85212 ",85212,0.5303600430488586,279900,https://www.zillow.com/homedetails/10066-E-Plata-Ave-Mesa-AZ-85212/8278338_zpid/,33.3615,-111.616
1263391,22489252,"2772 E Los Alamos Ct, Gilbert, AZ 85295 ",85295,0.5303600430488586,295000,https://www.zillow.com/homedetails/2772-E-Los-Alamos-Ct-Gilbert-AZ-85295/50197266_zpid/,33.3146,-111.73
1029746,22489693,"2391 E Augusta Ave, Chandler, AZ 85249 ",85249,0.5303600430488586,298000,https://www.zillow.com/homedetails/2391-E-Augusta-Ave-Chandler-AZ-85249/8215563_zpid/,33.2181,-111.8
1874214,22526790,"1338 S Palomino Creek Dr, Gilbert, AZ 85296 ",85296,0.5303600430488586,307900,https://www.zillow.com/homedetails/1338-S-Palomino-Creek-Dr-Gilbert-AZ-85296/8277742_zpid/,33.3259,-111.76100000000001
7495330,21959283,"6814 W Gary Way, Laveen, AZ 85339 ",85339,0.5302949547767639,195000,https://www.zillow.com/homedetails/6814-W-Gary-Way-Laveen-AZ-85339/67782782_zpid/,33.3717,-112.204
7385729,21898933,"18376 W Sweet Acacia Dr, Goodyear, AZ 85338 ",85338,0.5302393436431885,374900,https://www.zillow.com/homedetails/18376-W-Sweet-Acacia-Dr-Goodyear-AZ-85338/2130063558_zpid/,33.3586,-112.446
8962622,22295503,"20829 N 39th Dr, Glendale, AZ 85308 ",85308,0.5302252769470215,309900,https://www.zillow.com/homedetails/20829-N-39th-Dr-Glendale-AZ-85308/59266320_zpid/,33.6757,-112.145
308661,22342772,"40756 N Citrus Canyon Trl, Anthem, AZ 85086 ",85086,0.5302252769470215,270000,https://www.zillow.com/homedetails/40756-N-Citrus-Canyon-Trl-Anthem-AZ-85086/61628908_zpid/,33.8541,-112.113
34593,22355377,"2229 E La Salle St, Phoenix, AZ 85040 ",85040,0.5302252769470215,269900,https://www.zillow.com/homedetails/2229-E-La-Salle-St-Phoenix-AZ-85040/71612740_zpid/,33.3975,-112.03299999999999
195618,22239725,"3236 W Pleasant Ln, Phoenix, AZ 85041 ",85041,0.5302252769470215,257000,https://www.zillow.com/homedetails/3236-W-Pleasant-Ln-Phoenix-AZ-85041/67789580_zpid/,33.3916,-112.12899999999999
64785,22357094,"43213 N Vista Hills Dr, Anthem, AZ 85086 ",85086,0.5302252769470215,275000,https://www.zillow.com/homedetails/43213-N-Vista-Hills-Dr-Anthem-AZ-85086/67802406_zpid/,33.8761,-112.14399999999999
924090,21973586,"23199 W Mohave St, Buckeye, AZ 85326 ",85326,0.5302061438560486,210000,https://www.zillow.com/homedetails/23199-W-Mohave-St-Buckeye-AZ-85326/67779856_zpid/,33.4315,-112.554
8964834,22104744,"6925 W Beverly Rd, Laveen, AZ 85339 ",85339,0.5301328301429749,244900,https://www.zillow.com/homedetails/6925-W-Beverly-Rd-Laveen-AZ-85339/71613670_zpid/,33.3749,-112.20700000000001
7495347,21959590,"7028 W Shumway Farm Rd, Laveen, AZ 85339 ",85339,0.5301328301429749,255000,https://www.zillow.com/homedetails/7028-W-Shumway-Farm-Rd-Laveen-AZ-85339/81988315_zpid/,33.3836,-112.211
8981742,22442626,"7456 W Lone Cactus Dr, Glendale, AZ 85308 ",85308,0.5301089286804199,299900,https://www.zillow.com/homedetails/7456-W-Lone-Cactus-Dr-Glendale-AZ-85308/7887782_zpid/,33.6793,-112.219
8984370,22486817,"7018 S 70th Dr, Laveen, AZ 85339 ",85339,0.5301018357276917,249900,https://www.zillow.com/homedetails/7018-S-70th-Dr-Laveen-AZ-85339/81973518_zpid/,33.383,-112.211
8985878,22486797,"6503 S 68th Ln, Laveen, AZ 85339 ",85339,0.5301018357276917,279900,https://www.zillow.com/homedetails/6503-S-68th-Ln-Laveen-AZ-85339/67788934_zpid/,33.3873,-112.206
8988239,22494120,"7707 S 69th Ln, Laveen, AZ 85339 ",85339,0.5301018357276917,249500,https://www.zillow.com/homedetails/7707-S-69th-Ln-Laveen-AZ-85339/71613732_zpid/,33.376,-112.20700000000001
8963827,22486826,"7253 W St Catherine Ave, Laveen, AZ 85339 ",85339,0.5301018357276917,259000,https://www.zillow.com/homedetails/7253-W-St-Catherine-Ave-Laveen-AZ-85339/71605010_zpid/,33.387,-112.215
8978947,22486837,"7434 W Carter Rd, Laveen, AZ 85339 ",85339,0.5301018357276917,226900,https://www.zillow.com/homedetails/7434-W-Carter-Rd-Laveen-AZ-85339/88791130_zpid/,33.3816,-112.219
9739,22508612,"6825 W Burgess Ln, Laveen, AZ 85339 ",85339,0.5301018357276917,265000,https://www.zillow.com/homedetails/6825-W-Burgess-Ln-Laveen-AZ-85339/71604743_zpid/,33.3888,-112.206
8969579,22486808,"6845 W Alta Vista Rd, Laveen, AZ 85339 ",85339,0.5301018357276917,275000,https://www.zillow.com/homedetails/6845-W-Alta-Vista-Rd-Laveen-AZ-85339/67788919_zpid/,33.3881,-112.20700000000001
8988530,22498356,"7114 S 74th Ln, Laveen, AZ 85339 ",85339,0.5301018357276917,249900,https://www.zillow.com/homedetails/7114-S-74th-Ln-Laveen-AZ-85339/88787389_zpid/,33.3813,-112.219
8988531,22498362,"6916 W Harwell Rd, Laveen, AZ 85339 ",85339,0.5301018357276917,259500,https://www.zillow.com/homedetails/6916-W-Harwell-Rd-Laveen-AZ-85339/88785031_zpid/,33.3743,-112.208
201118,22123122,"7005 S 41st Dr, Phoenix, AZ 85041 ",85041,0.5300731658935547,185000,https://www.zillow.com/homedetails/7005-S-41st-Dr-Phoenix-AZ-85041/60047567_zpid/,33.3828,-112.147
669240,22246782,"7251 E Monte Ave, Mesa, AZ 85209 ",85209,0.5300695896148682,245000,https://www.zillow.com/homedetails/7251-E-Monte-Ave-Mesa-AZ-85209/8273160_zpid/,33.3698,-111.677
7553366,22430647,"1078 S Butte Ln, Gilbert, AZ 85296 ",85296,0.5300619602203369,279500,https://www.zillow.com/homedetails/1078-S-Butte-Ln-Gilbert-AZ-85296/8241035_zpid/,33.3307,-111.759
1232904,22105390,"4259 E Lexington Ave, Gilbert, AZ 85234 ",85234,0.5300519466400146,290000,https://www.zillow.com/homedetails/4259-E-Lexington-Ave-Gilbert-AZ-85234/81952026_zpid/,33.354,-111.7
1286732,21987126,"582 S Brett St, Gilbert, AZ 85296 ",85296,0.5300519466400146,245900,https://www.zillow.com/homedetails/582-S-Brett-St-Gilbert-AZ-85296/8237628_zpid/,33.339,-111.755
8958678,22240727,"11035 E Wier Ave, Mesa, AZ 85208 ",85208,0.5300493836402893,209900,https://www.zillow.com/homedetails/11035-E-Wier-Ave-Mesa-AZ-85208/50192777_zpid/,33.4042,-111.59299999999999
1258975,21972807,"2204 S Quartz Ct, Gilbert, AZ 85295 ",85295,0.5300488471984863,339900,https://www.zillow.com/homedetails/2204-S-Quartz-Ct-Gilbert-AZ-85295/8278778_zpid/,33.3099,-111.76100000000001
7408055,21926217,"13906 N 146th Ln, Surprise, AZ 85379 ",85379,0.5300456881523132,177400,https://www.zillow.com/homedetails/13906-N-146th-Ln-Surprise-AZ-85379/60998852_zpid/,33.61,-112.376
22526,22102174,"28736 N 20th Ln, Phoenix, AZ 85085 ",85085,0.530015230178833,265000,http://www.zillow.com/homedetails/28736-N-20th-Ln-Phoenix-AZ-85085/82823608_zpid/,33.7456,-112.104
8946887,22059605,"7234 E Tyndall St, Mesa, AZ 85207 ",85207,0.5299962759017944,309000,https://www.zillow.com/homedetails/7234-E-Tyndall-St-Mesa-AZ-85207/52478473_zpid/,33.4902,-111.678
525269,22488257,"9205 W Coolidge St, Phoenix, AZ 85037 ",85037,0.5299884676933289,218000,https://www.zillow.com/homedetails/9205-W-Coolidge-St-Phoenix-AZ-85037/38433054_zpid/,33.5046,-112.258
8959597,22490821,"8356 N 98th Ln, Peoria, AZ 85345 ",85345,0.5299884676933289,290000,https://www.zillow.com/homedetails/8356-N-98th-Ln-Peoria-AZ-85345/60048097_zpid/,33.5573,-112.272
8972332,22458952,"309 E Ingram St, Mesa, AZ 85201 ",85201,0.5299848914146423,284900,https://www.zillow.com/homedetails/309-E-Ingram-St-Mesa-AZ-85201/55259498_zpid/,33.4448,-111.82700000000001
203254,22232484,"9616 S 26th Ln, Phoenix, AZ 85041 ",85041,0.5299738645553589,339900,https://www.zillow.com/homedetails/9616-S-26th-Ln-Phoenix-AZ-85041/60984097_zpid/,33.3583,-112.117
1154232,21896624,"12917 W Columbine Dr, El Mirage, AZ 85335 ",85335,0.5299302935600281,169900,https://www.zillow.com/homedetails/12917-W-Columbine-Dr-El-Mirage-AZ-85335/58477866_zpid/,33.5965,-112.338
7452309,22237128,"7261 E Norwood St, Mesa, AZ 85207 ",85207,0.5299193263053894,234500,https://www.zillow.com/homedetails/7261-E-Norwood-St-Mesa-AZ-85207/55269792_zpid/,33.4632,-111.67399999999999
8986929,22486790,"5704 W Milada Dr, Laveen, AZ 85339 ",85339,0.5299167633056641,215000,https://www.zillow.com/homedetails/5704-W-Milada-Dr-Laveen-AZ-85339/95169292_zpid/,33.3637,-112.182
8963797,22486773,"4825 W Donner Dr, Laveen, AZ 85339 ",85339,0.5299167633056641,209999,https://www.zillow.com/homedetails/4825-W-Donner-Dr-Laveen-AZ-85339/95121124_zpid/,33.378,-112.163
987137,22127744,"1242 S Bridger Dr, Chandler, AZ 85286 ",85286,0.5298923850059509,220999,https://www.zillow.com/homedetails/1242-S-Bridger-Dr-Chandler-AZ-85286/8209270_zpid/,33.288000000000004,-111.831
532694,22269785,"6607 S 44th Ln, Laveen, AZ 85339 ",85339,0.5298894047737122,255900,https://www.zillow.com/homedetails/6607-S-44th-Ln-Laveen-AZ-85339/67773825_zpid/,33.3864,-112.155
8976554,22393050,"9326 W Vogel Ave, Peoria, AZ 85345 ",85345,0.5298894047737122,239000,https://www.zillow.com/homedetails/9326-W-Vogel-Ave-Peoria-AZ-85345/7697361_zpid/,33.5718,-112.26100000000001
445967,22387960,"4718 N 92nd Ln, Phoenix, AZ 85037 ",85037,0.5298894047737122,244900,https://www.zillow.com/homedetails/4718-N-92nd-Ln-Phoenix-AZ-85037/7466593_zpid/,33.5064,-112.26
657126,22394148,"2052 S Luther, Mesa, AZ 85209 ",85209,0.5298894047737122,245000,https://www.zillow.com/homedetails/2052-S-Luther-Mesa-AZ-85209/60050803_zpid/,33.3778,-111.65100000000001
59112,22311661,"1727 W Kuralt Dr, Anthem, AZ 85086 ",85086,0.5298894047737122,280000,https://www.zillow.com/homedetails/1727-W-Kuralt-Dr-Anthem-AZ-85086/67785798_zpid/,33.8465,-112.09700000000001
7816198,22338629,"4918 W Desert Ln, Laveen, AZ 85339 ",85339,0.5298894047737122,285000,https://www.zillow.com/homedetails/4918-W-Desert-Ln-Laveen-AZ-85339/71614044_zpid/,33.3717,-112.165
7550648,22378131,"10504 E Dolphin Ave, Mesa, AZ 85208 ",85208,0.5298113226890564,295000,https://www.zillow.com/homedetails/10504-E-Dolphin-Ave-Mesa-AZ-85208/52429516_zpid/,33.4009,-111.604
17137,21943018,"10821 W Peoria Ave, Sun City, AZ 85351 ",85351,0.529768168926239,154300,https://www.zillow.com/homedetails/10821-W-Peoria-Ave-Sun-City-AZ-85351/7690678_zpid/,33.5798,-112.29299999999999
7552429,21901988,"2911 S 164th Dr, Goodyear, AZ 85338 ",85338,0.5297138094902039,389900,https://www.zillow.com/homedetails/2911-S-164th-Dr-Goodyear-AZ-85338/81968330_zpid/,33.4199,-112.412
7563930,21978307,"3419 E Amber Ln, Gilbert, AZ 85296 ",85296,0.5296756029129028,307750,https://www.zillow.com/homedetails/3419-E-Amber-Ln-Gilbert-AZ-85296/95121913_zpid/,33.3451,-111.71700000000001
62533,22117186,"39625 N Prairie Ln, Anthem, AZ 85086 ",85086,0.5296746492385864,289900,https://www.zillow.com/homedetails/39625-N-Prairie-Ln-Anthem-AZ-85086/64717597_zpid/,33.8454,-112.094
619238,22505624,"5523 E Elena Ave, Mesa, AZ 85206 ",85206,0.5296590328216553,285000,https://www.zillow.com/homedetails/5523-E-Elena-Ave-Mesa-AZ-85206/7676242_zpid/,33.3998,-111.712
8914407,22364544,"17359 W Jackson St, Goodyear, AZ 85338 ",85338,0.5296555757522583,269000,https://www.zillow.com/homedetails/17359-W-Jackson-St-Goodyear-AZ-85338/71624673_zpid/,,
199462,22419897,"6014 S 37th Ln, Phoenix, AZ 85041 ",85041,0.529643714427948,210000,https://www.zillow.com/homedetails/6014-S-37th-Ln-Phoenix-AZ-85041/67774233_zpid/,33.3916,-112.14
194262,22494823,"2616 W Beverly Rd, Phoenix, AZ 85041 ",85041,0.529643714427948,271000,https://www.zillow.com/homedetails/2616-W-Beverly-Rd-Phoenix-AZ-85041/95186993_zpid/,33.3749,-112.116
195547,22486754,"3223 W Lynne Ln, Phoenix, AZ 85041 ",85041,0.529643714427948,259900,https://www.zillow.com/homedetails/3223-W-Lynne-Ln-Phoenix-AZ-85041/67789638_zpid/,33.3904,-112.12799999999999
195789,22498323,"3313 W Nancy Ln, Phoenix, AZ 85041 ",85041,0.529643714427948,234900,https://www.zillow.com/homedetails/3313-W-Nancy-Ln-Phoenix-AZ-85041/67789656_zpid/,33.3897,-112.13
34833,22494832,"2331 E La Salle St, Phoenix, AZ 85040 ",85040,0.529643714427948,285000,https://www.zillow.com/homedetails/2331-E-La-Salle-St-Phoenix-AZ-85040/71612750_zpid/,33.3977,-112.031
195607,22486755,"3234 W Apollo Rd, Phoenix, AZ 85041 ",85041,0.529643714427948,270000,https://www.zillow.com/homedetails/3234-W-Apollo-Rd-Phoenix-AZ-85041/71605367_zpid/,33.3864,-112.12899999999999
201964,22508614,"7410 S 29th Ln, Phoenix, AZ 85041 ",85041,0.529643714427948,230000,https://www.zillow.com/homedetails/7410-S-29th-Ln-Phoenix-AZ-85041/67716214_zpid/,33.3787,-112.12299999999999
8989000,22502105,"3407 W Saint Kateri Dr, Phoenix, AZ 85041 ",85041,0.529643714427948,269995,https://www.zillow.com/homedetails/3407-W-Saint-Kateri-Dr-Phoenix-AZ-85041/95142289_zpid/,33.3852,-112.131
303034,22493047,"2459 W Shackleton Dr, Anthem, AZ 85086 ",85086,0.529643714427948,315000,https://www.zillow.com/homedetails/2459-W-Shackleton-Dr-Anthem-AZ-85086/61908480_zpid/,33.8433,-112.113
59128,22493023,"1735 W Kuralt Dr, Anthem, AZ 85086 ",85086,0.529643714427948,269000,https://www.zillow.com/homedetails/1735-W-Kuralt-Dr-Anthem-AZ-85086/67785800_zpid/,33.8465,-112.09700000000001
185082,22494499,"528 W Mountain Sage Dr, Phoenix, AZ 85045 ",85045,0.529643714427948,309000,https://www.zillow.com/homedetails/528-W-Mountain-Sage-Dr-Phoenix-AZ-85045/50200953_zpid/,33.3097,-112.081
34817,22431686,"2328 E Bowker St, Phoenix, AZ 85040 ",85040,0.529643714427948,254900,https://www.zillow.com/homedetails/2328-E-Bowker-St-Phoenix-AZ-85040/71612757_zpid/,33.3971,-112.031
8977524,22378236,"12140 W Cottontail Ln, Peoria, AZ 85383 ",85383,0.5296412110328674,279000,https://www.zillow.com/homedetails/12140-W-Cottontail-Ln-Peoria-AZ-85383/95116165_zpid/,33.7173,-112.214
1068438,22406631,"1121 N Mason Dr, Chandler, AZ 85225 ",85225,0.5295516848564148,299999,https://www.zillow.com/homedetails/1121-N-Mason-Dr-Chandler-AZ-85225/81956598_zpid/,33.3229,-111.819
1263315,22281635,"2767 S Southwind Dr, Gilbert, AZ 85295 ",85295,0.5295516848564148,272500,https://www.zillow.com/homedetails/2767-S-Southwind-Dr-Gilbert-AZ-85295/62734837_zpid/,33.2999,-111.765
1670239,21950006,"20449 N 110th Ave, Sun City, AZ 85373 ",85373,0.529538094997406,274900,https://www.zillow.com/homedetails/20449-N-110th-Ave-Sun-City-AZ-85373/7883160_zpid/,33.6702,-112.296
603764,22422084,"9235 E Fairfield St, Mesa, AZ 85207 ",85207,0.5295360088348389,279900,https://www.zillow.com/homedetails/9235-E-Fairfield-St-Mesa-AZ-85207/8084958_zpid/,33.4341,-111.631
8968842,22345619,"10041 N 85th Dr, Peoria, AZ 85345 ",85345,0.5295231342315674,279000,https://www.zillow.com/homedetails/10041-N-85th-Dr-Peoria-AZ-85345/67774454_zpid/,33.5762,-112.243
8928252,22201692,"10606 E Elmhurst Dr, Sun Lakes, AZ 85248 ",85248,0.5294829607009888,256900,https://www.zillow.com/homedetails/10606-E-Elmhurst-Dr-Sun-Lakes-AZ-85248/8217717_zpid/,,
590353,22420113,"11527 E Segura Ave, Mesa, AZ 85212 ",85212,0.5294668078422546,239900,https://www.zillow.com/homedetails/11527-E-Segura-Ave-Mesa-AZ-85212/71618131_zpid/,33.3319,-111.585
8945079,21923664,"10605 W Melinda Ln, Peoria, AZ 85382 ",85382,0.5294232964515686,359900,https://www.zillow.com/homedetails/10605-W-Melinda-Ln-Peoria-AZ-85382/55261905_zpid/,33.6804,-112.288
7480965,22431245,"1733 W Wildwood Dr, Phoenix, AZ 85045 ",85045,0.5294216275215149,294900,https://www.zillow.com/homedetails/1733-W-Wildwood-Dr-Phoenix-AZ-85045/49940410_zpid/,33.2988,-112.09700000000001
8987661,22493528,"16524 N 70th Dr, Peoria, AZ 85382 ",85382,0.5293077826499939,300000,https://www.zillow.com/homedetails/16524-N-70th-Dr-Peoria-AZ-85382/7903043_zpid/,33.6364,-112.21
1273215,22489385,"4339 E Harrison St, Gilbert, AZ 85295 ",85295,0.5293077826499939,290000,https://www.zillow.com/homedetails/4339-E-Harrison-St-Gilbert-AZ-85295/55275929_zpid/,33.3162,-111.696
63264,22493063,"40716 N Territory Trl, Anthem, AZ 85086 ",85086,0.5293077826499939,264900,https://www.zillow.com/homedetails/40716-N-Territory-Trl-Anthem-AZ-85086/50184065_zpid/,33.8543,-112.12799999999999
8977482,22494585,"20623 N 71st Dr, Glendale, AZ 85308 ",85308,0.5293077826499939,310000,https://www.zillow.com/homedetails/20623-N-71st-Dr-Glendale-AZ-85308/8106617_zpid/,33.6718,-112.213
34635,22431627,"2238 E Bowker St, Phoenix, AZ 85040 ",85040,0.5293077826499939,275000,https://www.zillow.com/homedetails/2238-E-Bowker-St-Phoenix-AZ-85040/71612766_zpid/,33.3971,-112.03299999999999
445868,22488198,"4712 N 95th Ln, Phoenix, AZ 85037 ",85037,0.5293077826499939,270000,https://www.zillow.com/homedetails/4712-N-95th-Ln-Phoenix-AZ-85037/55256213_zpid/,33.5044,-112.265
8946357,22486801,"6518 W Branham Ln, Laveen, AZ 85339 ",85339,0.5293077826499939,284900,https://www.zillow.com/homedetails/6518-W-Branham-Ln-Laveen-AZ-85339/67782743_zpid/,33.3761,-112.20100000000001
8969575,22486775,"4917 W Melody Ln, Laveen, AZ 85339 ",85339,0.5293077826499939,290000,https://www.zillow.com/homedetails/4917-W-Melody-Ln-Laveen-AZ-85339/71614018_zpid/,33.3731,-112.165
2028220,22490870,"9598 W Alice Ave, Peoria, AZ 85345 ",85345,0.5293077826499939,295000,https://www.zillow.com/homedetails/9598-W-Alice-Ave-Peoria-AZ-85345/62728619_zpid/,33.5639,-112.266
1144167,21895616,"12061 W Dreyfus Dr, El Mirage, AZ 85335 ",85335,0.5293039679527283,200000,https://www.zillow.com/homedetails/12061-W-Dreyfus-Dr-El-Mirage-AZ-85335/61000229_zpid/,33.6034,-112.321
8952007,22106699,"13708 W Chaparosa Way, Peoria, AZ 85383 ",85383,0.5293039679527283,299900,https://www.zillow.com/homedetails/13708-W-Chaparosa-Way-Peoria-AZ-85383/89136833_zpid/,33.7658,-112.35600000000001
71900,21980298,"3882 E Santa Fe Ln, Gilbert, AZ 85297 ",85297,0.5292343497276306,230000,https://www.zillow.com/homedetails/3882-E-Santa-Fe-Ln-Gilbert-AZ-85297/81992417_zpid/,33.279,-111.706
8984148,22484809,"865 S Chatsworth Cir, Mesa, AZ 85208 ",85208,0.5292297005653381,254900,https://www.zillow.com/homedetails/865-S-Chatsworth-Cir-Mesa-AZ-85208/52429655_zpid/,33.3994,-111.609
566402,22449512,"10650 E Arbor Ave, Mesa, AZ 85208 ",85208,0.5292297005653381,309900,https://www.zillow.com/homedetails/10650-E-Arbor-Ave-Mesa-AZ-85208/8087382_zpid/,33.4124,-111.601
588026,22501681,"11345 E Roscoe Ave, Mesa, AZ 85212 ",85212,0.5292295217514038,285000,https://www.zillow.com/homedetails/11345-E-Roscoe-Ave-Mesa-AZ-85212/56392392_zpid/,33.3369,-111.589
987588,21967181,"1283 S Anvil Pl, Chandler, AZ 85286 ",85286,0.5292253494262695,234900,https://www.zillow.com/homedetails/1283-S-Anvil-Pl-Chandler-AZ-85286/8209313_zpid/,33.2867,-111.83
712382,22039365,"6611 E Sugarloaf St, Mesa, AZ 85215 ",85215,0.5291986465454102,259000,https://www.zillow.com/homedetails/6611-E-Sugarloaf-St-Mesa-AZ-85215/7671542_zpid/,33.4857,-111.68799999999999
508877,22461838,"10397 W Foothill Dr, Peoria, AZ 85383 ",85383,0.5291800498962402,289900,https://www.zillow.com/homedetails/10397-W-Foothill-Dr-Peoria-AZ-85383/81965470_zpid/,33.687,-112.28299999999999
508376,22456298,"10322 W Foothill Dr, Peoria, AZ 85383 ",85383,0.5291800498962402,305000,https://www.zillow.com/homedetails/10322-W-Foothill-Dr-Peoria-AZ-85383/67790487_zpid/,33.687,-112.281
434897,22353042,"2010 N 94th Gln, Phoenix, AZ 85037 ",85037,0.5291800498962402,279700,https://www.zillow.com/homedetails/2010-N-94th-Gln-Phoenix-AZ-85037/67773005_zpid/,33.4703,-112.264
712123,22446120,"6545 E Snowdon St, Mesa, AZ 85215 ",85215,0.5291768908500671,274999,https://www.zillow.com/homedetails/6545-E-Snowdon-St-Mesa-AZ-85215/7671426_zpid/,33.4842,-111.689
584660,22261613,"11121 E Sonrisa Ave, Mesa, AZ 85212 ",85212,0.5291558504104614,265000,https://www.zillow.com/homedetails/11121-E-Sonrisa-Ave-Mesa-AZ-85212/82240393_zpid/,33.3305,-111.594
988123,21967371,"1314 W Lark Dr, Chandler, AZ 85286 ",85286,0.5291551947593689,255000,https://www.zillow.com/homedetails/1314-W-Lark-Dr-Chandler-AZ-85286/8226989_zpid/,33.2701,-111.86399999999999
533416,22239733,"6841 W Lynne Ln, Laveen, AZ 85339 ",85339,0.5291082859039307,224900,https://www.zillow.com/homedetails/6841-W-Lynne-Ln-Laveen-AZ-85339/71604703_zpid/,33.3904,-112.20700000000001
1187969,22209073,"429 W Sagebrush St, Gilbert, AZ 85233 ",85233,0.5291032195091248,346000,https://www.zillow.com/homedetails/429-W-Sagebrush-St-Gilbert-AZ-85233/8179699_zpid/,33.3408,-111.79899999999999
8986850,22484837,"9902 E Acceleration Dr, Mesa, AZ 85212 ",85212,0.52907395362854,310210,https://www.zillow.com/homedetails/9902-E-Acceleration-Dr-Mesa-AZ-85212/2094404872_zpid/,,
1233835,22499840,"4384 E Page Ave, Gilbert, AZ 85234 ",85234,0.52907395362854,303000,https://www.zillow.com/homedetails/4384-E-Page-Ave-Gilbert-AZ-85234/71615023_zpid/,,
671472,22501758,"7448 E Navarro Ave, Mesa, AZ 85209 ",85209,0.5290622711181641,284900,https://www.zillow.com/homedetails/7448-E-Navarro-Ave-Mesa-AZ-85209/8274161_zpid/,33.3675,-111.67399999999999
7445987,22432338,"571 S Peppertree Dr, Gilbert, AZ 85296 ",85296,0.5290622711181641,275000,https://www.zillow.com/homedetails/571-S-Peppertree-Dr-Gilbert-AZ-85296/8237782_zpid/,33.3393,-111.74799999999999
8959087,22418019,"836 E Glenmere Dr, Chandler, AZ 85225 ",85225,0.5290622711181641,274000,https://www.zillow.com/homedetails/836-E-Glenmere-Dr-Chandler-AZ-85225/8206052_zpid/,33.2957,-111.82799999999999
202741,22392966,"8605 S 7th Dr, Phoenix, AZ 85041 ",85041,0.5290561318397522,268700,https://www.zillow.com/homedetails/8605-S-7th-Dr-Phoenix-AZ-85041/59265974_zpid/,33.3678,-112.084
194700,22395753,"2909 W Shumway Farm Rd, Phoenix, AZ 85041 ",85041,0.5290561318397522,278000,https://www.zillow.com/homedetails/2909-W-Shumway-Farm-Rd-Phoenix-AZ-85041/67764861_zpid/,33.3835,-112.12100000000001
8974669,22338676,"9105 S 41st Gln, Laveen, AZ 85339 ",85339,0.5290528535842896,330990,https://www.zillow.com/homedetails/9105-S-41st-Gln-Laveen-AZ-85339/95157583_zpid/,33.3638,-112.149
1471235,21963477,"9035 W Alex Ave, Peoria, AZ 85382 ",85382,0.5290490388870239,339000,https://www.zillow.com/homedetails/9035-W-Alex-Ave-Peoria-AZ-85382/7885619_zpid/,33.6811,-112.25399999999999
8954660,21982309,"4313 E Toledo St, Gilbert, AZ 85295 ",85295,0.5290364623069763,285993,https://www.zillow.com/homedetails/4313-E-Toledo-St-Gilbert-AZ-85295/2094172647_zpid/,33.3098,-111.698
1257688,21971448,"1950 S Falcon Dr, Gilbert, AZ 85295 ",85295,0.5290313363075256,230000,https://www.zillow.com/homedetails/1950-S-Falcon-Dr-Gilbert-AZ-85295/60987879_zpid/,33.3151,-111.695
1284408,22127869,"2705 E Calle Del Norte Dr, Gilbert, AZ 85296 ",85296,0.5290313363075256,229900,https://www.zillow.com/homedetails/2705-E-Calle-Del-Norte-Dr-Gilbert-AZ-85296/8243025_zpid/,33.3301,-111.73200000000001
927957,21974052,"23883 W Twilight Trl, Buckeye, AZ 85326 ",85326,0.5290292501449585,214900,https://www.zillow.com/homedetails/23883-W-Twilight-Trl-Buckeye-AZ-85326/61631263_zpid/,33.4404,-112.565
1131120,22418372,"891 S Apache Dr, Chandler, AZ 85224 ",85224,0.5290096998214722,313000,https://www.zillow.com/homedetails/891-S-Apache-Dr-Chandler-AZ-85224/8225681_zpid/,33.2927,-111.86200000000001
1265763,21977190,"3068 S Southwind Dr, Gilbert, AZ 85295 ",85295,0.529000997543335,276900,https://www.zillow.com/homedetails/3068-S-Southwind-Dr-Gilbert-AZ-85295/60035041_zpid/,33.2944,-111.766
1097058,22133191,"897 E Baylor Ln, Chandler, AZ 85225 ",85225,0.5289998054504395,263500,https://www.zillow.com/homedetails/897-E-Baylor-Ln-Chandler-AZ-85225/8182639_zpid/,33.324,-111.82700000000001
1848353,21929232,"15491 W Maui Ln, Surprise, AZ 85379 ",85379,0.5289737582206726,175000,https://www.zillow.com/homedetails/15491-W-Maui-Ln-Surprise-AZ-85379/55286216_zpid/,33.6209,-112.39299999999999
1252550,22502364,"1329 E Frances Ln, Gilbert, AZ 85295 ",85295,0.5289700031280518,292000,https://www.zillow.com/homedetails/1329-E-Frances-Ln-Gilbert-AZ-85295/67793059_zpid/,33.2939,-111.76100000000001
8927400,22489429,"827 S Reber Ave, Gilbert, AZ 85296 ",85296,0.5289700031280518,309000,https://www.zillow.com/homedetails/827-S-Reber-Ave-Gilbert-AZ-85296/95086588_zpid/,33.3355,-111.709
65166,22422802,"1052 S Reber Ave, Gilbert, AZ 85296 ",85296,0.5289700031280518,299999,https://www.zillow.com/homedetails/1052-S-Reber-Ave-Gilbert-AZ-85296/123981623_zpid/,33.3315,-111.709
1262517,22489258,"2699 S Hansen Dr, Gilbert, AZ 85295 ",85295,0.5289700031280518,295000,https://www.zillow.com/homedetails/2699-S-Hansen-Dr-Gilbert-AZ-85295/67786444_zpid/,33.3016,-111.71
71239,22489343,"3807 E Hans Dr, Gilbert, AZ 85296 ",85296,0.5289700031280518,299999,https://www.zillow.com/homedetails/3807-E-Hans-Dr-Gilbert-AZ-85296/121851425_zpid/,33.3303,-111.708
1180712,22493440,"1461 S Sahuaro Dr, Gilbert, AZ 85233 ",85233,0.5289700031280518,314900,https://www.zillow.com/homedetails/1461-S-Sahuaro-Dr-Gilbert-AZ-85233/8180613_zpid/,33.3234,-111.795
8985557,22489445,"950 S Wallrade Ln, Gilbert, AZ 85296 ",85296,0.5289700031280518,280000,https://www.zillow.com/homedetails/950-S-Wallrade-Ln-Gilbert-AZ-85296/95112968_zpid/,33.3333,-111.70700000000001
8978338,22393394,"10555 E Simone Ave, Mesa, AZ 85212 ",85212,0.5289453864097595,324999,https://www.zillow.com/homedetails/10555-E-Simone-Ave-Mesa-AZ-85212/123983057_zpid/,33.3316,-111.603
685105,22228617,"9717 E Jerome Ave, Mesa, AZ 85209 ",85209,0.5289342403411865,230000,https://www.zillow.com/homedetails/9717-E-Jerome-Ave-Mesa-AZ-85209/8090797_zpid/,33.3809,-111.62100000000001
121390,22467767,"12141 W Patrick Ln, Sun City, AZ 85373 ",85373,0.5288997888565063,292000,https://www.zillow.com/homedetails/12141-W-Patrick-Ln-Sun-City-AZ-85373/81997088_zpid/,33.6924,-112.323
1847885,21923883,"11437 W St John Rd Surprise, AZ 85378 ",85378,0.5288820862770081,227479,https://www.zillow.com/homedetails/11437-W-St-John-Rd-Surprise-AZ-85378/95141806_zpid/,33.644,-112.305
182258,22108570,"15846 S 17th Ln, Phoenix, AZ 85045 ",85045,0.5288709402084351,315000,https://www.zillow.com/homedetails/15846-S-17th-Ln-Phoenix-AZ-85045/8284857_zpid/,33.302,-112.09700000000001
595034,22471550,"2123 N Azurite Cir, Mesa, AZ 85207 ",85207,0.5288557410240173,299500,https://www.zillow.com/homedetails/2123-N-Azurite-Cir-Mesa-AZ-85207/8082610_zpid/,33.4539,-111.626
7376285,22486791,"5518 W Glass Ln, Laveen, AZ 85339 ",85339,0.5288399457931519,285895,https://www.zillow.com/homedetails/5518-W-Glass-Ln-Laveen-AZ-85339/60976095_zpid/,33.3852,-112.179
