property_id,transaction_id,address,zipcode,ypred,list,url,lat,long,date_listed,transaction_date
930303,20703245,"24813 W Durango St, Buckeye, AZ 85326 ",85326,0.9712987542152405,52000,http://www.zillow.com/homedetails/24813-W-Durango-St-Buckeye-AZ-85326/8314520_zpid,33.4276,-112.585,2010-07-15,2010-07-15
1190875,22681257,"564 W Orchard Way, Gilbert, AZ 85233 ",85233,0.8414353132247925,222900,https://www.zillow.com/homedetails/564-W-Orchard-Way-Gilbert-AZ-85233/8174530_zpid/,33.3525,-111.802,2017-09-13,2017-09-13
679392,22695008,"8503 E Keats Ave, Mesa, AZ 85209 ",85209,0.8182892799377441,245000,https://www.zillow.com/homedetails/8503-E-Keats-Ave-Mesa-AZ-85209/60050816_zpid/,33.3774,-111.65100000000001,2017-09-20,2017-09-20
1264136,22731232,"2870 E Megan St, Gilbert, AZ 85295 ",85295,0.8114636540412903,245000,https://www.zillow.com/homedetails/2870-E-Megan-St-Gilbert-AZ-85295/71618739_zpid/,33.3209,-111.728,2017-09-29,2017-09-29
195437,22710779,"3202 W Saint Catherine Ave, Phoenix, AZ 85041 ",85041,0.8103482127189636,235000,https://www.zillow.com/homedetails/3202-W-Saint-Catherine-Ave-Phoenix-AZ-85041/67764960_zpid/,33.388000000000005,-112.12700000000001,2017-09-21,2017-09-21
672105,22703447,"7520 E Medina Ave, Mesa, AZ 85209 ",85209,0.8093200325965881,245000,https://www.zillow.com/homedetails/7520-E-Medina-Ave-Mesa-AZ-85209/8273374_zpid/,33.3717,-111.67299999999999,2017-09-21,2017-09-21
59845,22647619,"2556 W Lewis And Clark Trl, Anthem, AZ 85086 ",85086,0.8077279925346375,239000,https://www.zillow.com/homedetails/2556-W-Lewis-And-Clark-Trl-Anthem-AZ-85086/59982877_zpid/,33.8484,-112.115,2017-09-08,2017-09-08
196517,22710785,"3714 W Burgess Ln, Phoenix, AZ 85041 ",85041,0.8068575859069824,229000,https://www.zillow.com/homedetails/3714-W-Burgess-Ln-Phoenix-AZ-85041/67774286_zpid/,33.3891,-112.139,2017-09-21,2017-09-21
806321,22628300,"637 S Hall, Mesa, AZ 85204 ",85204,0.8054978847503662,237000,https://www.zillow.com/homedetails/637-S-Hall-Mesa-AZ-85204/68957720_zpid/,33.4034,-111.79299999999999,2017-09-05,2017-09-05
445988,22692559,"4719 N 92nd Ave, Phoenix, AZ 85037 ",85037,0.8048576712608337,135000,https://www.zillow.com/homedetails/4719-N-92nd-Ave-Phoenix-AZ-85037/7466534_zpid/,33.5063,-112.258,2017-09-19,2017-09-19
1196579,22726918,"827 W Leah Ln, Gilbert, AZ 85233 ",85233,0.8047010898590088,249900,https://www.zillow.com/homedetails/827-W-Leah-Ln-Gilbert-AZ-85233/8173210_zpid/,33.3719,-111.809,2017-09-27,2017-09-27
935516,22675361,"25753 W St Charles Ct, Buckeye, AZ 85326 ",85326,0.8043728470802307,175000,https://www.zillow.com/homedetails/25753-W-St-Charles-Ct-Buckeye-AZ-85326/67787276_zpid/,33.3859,-112.605,2017-09-14,2017-09-14
94579,22736071,"22249 E Via Del Palo, Queen Creek, AZ 85142 ",85142,0.8034157156944275,216900,https://www.zillow.com/homedetails/22249-E-Via-Del-Palo-Queen-Creek-AZ-85142/71608498_zpid/,33.2381,-111.60700000000001,2017-09-16,2017-09-16
89596,22735932,"20896 E Desert Hills Blvd, Queen Creek, AZ 85142 ",85142,0.8031096458435059,229900,https://www.zillow.com/homedetails/20896-E-Desert-Hills-Blvd-Queen-Creek-AZ-85142/59260585_zpid/,33.2436,-111.631,2017-09-21,2017-09-21
195789,22642934,"3313 W Nancy Ln, Phoenix, AZ 85041 ",85041,0.8025339245796204,229900,https://www.zillow.com/homedetails/3313-W-Nancy-Ln-Phoenix-AZ-85041/67789656_zpid/,33.3897,-112.13,2017-09-07,2017-09-07
91342,22656906,"21251 E Avenida Del Valle, Queen Creek, AZ 85142 ",85142,0.802509069442749,235000,https://www.zillow.com/homedetails/21251-E-Avenida-Del-Valle-Queen-Creek-AZ-85142/60050853_zpid/,33.2442,-111.62299999999999,2017-09-10,2017-09-10
926829,22709179,"23761 W La Salle St, Buckeye, AZ 85326 ",85326,0.8023781776428223,175000,https://www.zillow.com/homedetails/23761-W-La-Salle-St-Buckeye-AZ-85326/82828886_zpid/,33.3973,-112.56200000000001,2017-09-22,2017-09-22
191577,22688185,"1926 W Burgess Ln, Phoenix, AZ 85041 ",85041,0.8021225929260254,236500,https://www.zillow.com/homedetails/1926-W-Burgess-Ln-Phoenix-AZ-85041/67781758_zpid/,33.3897,-112.101,2017-09-13,2017-09-13
9015638,22704145,"8444 W Lewis Ave, Phoenix, AZ 85037 ",85037,0.8021048903465271,176900,https://www.zillow.com/homedetails/8444-W-Lewis-Ave-Phoenix-AZ-85037/82823102_zpid/,33.4743,-112.241,2017-09-21,2017-09-21
796335,22719637,"2916 E Enid Ave, Mesa, AZ 85204 ",85204,0.8014691472053528,249900,https://www.zillow.com/homedetails/2916-E-Enid-Ave-Mesa-AZ-85204/7647976_zpid/,33.3974,-111.76700000000001,2017-09-25,2017-09-25
1068321,22710088,"111 N 130th Cir, Chandler, AZ 85225 ",85225,0.8008856177330017,249000,https://www.zillow.com/homedetails/111-N-130th-Cir-Chandler-AZ-85225/8204677_zpid/,33.3054,-111.801,2017-09-22,2017-09-22
914287,22706974,"19456 W Washington St, Buckeye, AZ 85326 ",85326,0.7986177802085876,177500,https://www.zillow.com/homedetails/19456-W-Washington-St-Buckeye-AZ-85326/88784612_zpid/,33.4474,-112.478,2017-09-21,2017-09-21
84629,22737912,"19083 E Pelican Dr, Queen Creek, AZ 85142 ",85142,0.7985404133796692,242900,https://www.zillow.com/homedetails/19083-E-Pelican-Dr-Queen-Creek-AZ-85142/82242640_zpid/,33.2776,-111.67200000000001,2017-09-29,2017-09-29
7447911,22576289,"8204 S 6th Ln, Phoenix, AZ 85041 ",85041,0.798126220703125,236900,https://www.zillow.com/homedetails/8204-S-6th-Ln-Phoenix-AZ-85041/95127702_zpid/,33.372,-112.083,2017-08-23,2017-08-23
672525,22677334,"7552 E Medina Ave, Mesa, AZ 85209 ",85209,0.7978304624557495,248500,https://www.zillow.com/homedetails/7552-E-Medina-Ave-Mesa-AZ-85209/8273379_zpid/,33.3717,-111.67200000000001,2017-09-13,2017-09-13
1235249,22741613,"4690 E Olney Ave, Gilbert, AZ 85234 ",85234,0.7977865934371948,239900,https://www.zillow.com/homedetails/4690-E-Olney-Ave-Gilbert-AZ-85234/67794179_zpid/,33.3584,-111.69,2017-10-05,2017-10-05
928938,22675342,"2404 S 238th Ln, Buckeye, AZ 85326 ",85326,0.7975924015045166,219900,https://www.zillow.com/homedetails/2404-S-238th-Ln-Buckeye-AZ-85326/92354814_zpid/,33.4247,-112.564,2017-09-14,2017-09-14
930884,22655468,"24931 W Jessica Ln, Buckeye, AZ 85326 ",85326,0.7975265383720398,219900,https://www.zillow.com/homedetails/24931-W-Jessica-Ln-Buckeye-AZ-85326/81967730_zpid/,33.394,-112.587,2017-09-11,2017-09-11
659521,22684348,"2309 S Ananea, Mesa, AZ 85209 ",85209,0.7972282767295837,225000,https://www.zillow.com/homedetails/2309-S-Ananea-Mesa-AZ-85209/8273238_zpid/,33.3732,-111.67200000000001,2017-09-15,2017-09-15
7447915,22576292,"8216 S 6th Ln, Phoenix, AZ 85041 ",85041,0.7958523035049438,234900,https://www.zillow.com/homedetails/8216-S-6th-Ln-Phoenix-AZ-85041/95089441_zpid/,33.3716,-112.083,2017-08-23,2017-08-23
7447909,22576290,"8225 S 5th Ln, Phoenix, AZ 85041 ",85041,0.7958523035049438,234900,https://www.zillow.com/homedetails/8225-S-5th-Ln-Phoenix-AZ-85041/95083688_zpid/,33.3714,-112.08200000000001,2017-08-23,2017-08-23
936384,22647196,"25816 W Elwood St, Buckeye, AZ 85326 ",85326,0.7958171963691711,230000,https://www.zillow.com/homedetails/25816-W-Elwood-St-Buckeye-AZ-85326/67787198_zpid/,33.4134,-112.60600000000001,2017-09-10,2017-09-10
95921,22621358,"22897 S 214th St, Queen Creek, AZ 85142 ",85142,0.7922133803367615,249900,https://www.zillow.com/homedetails/22897-S-214th-St-Queen-Creek-AZ-85142/60991241_zpid/,33.2402,-111.619,2017-08-30,2017-08-30
932494,22643058,"25269 W Darrel Dr, Buckeye, AZ 85326 ",85326,0.7921933531761169,209900,https://www.zillow.com/homedetails/25269-W-Darrel-Dr-Buckeye-AZ-85326/81997456_zpid/,33.3839,-112.595,2017-09-07,2017-09-07
918468,22627782,"22213 W Sonora St, Buckeye, AZ 85326 ",85326,0.7920053005218506,174800,https://www.zillow.com/homedetails/22213-W-Sonora-St-Buckeye-AZ-85326/67706871_zpid/,33.4331,-112.52799999999999,2017-09-05,2017-09-05
767740,22703435,"6145 E Ivy St, Mesa, AZ 85205 ",85205,0.7919251322746277,210000,https://www.zillow.com/homedetails/6145-E-Ivy-St-Mesa-AZ-85205/7676764_zpid/,33.4454,-111.698,2017-09-21,2017-09-21
682486,22601518,"9245 E Keats Ave, Mesa, AZ 85209 ",85209,0.7917105555534363,219000,https://www.zillow.com/homedetails/9245-E-Keats-Ave-Mesa-AZ-85209/52434576_zpid/,33.3723,-111.62899999999999,2017-08-31,2017-08-31
940116,22637991,"5284 S 239th Dr, Buckeye, AZ 85326 ",85326,0.7916816473007202,169900,https://www.zillow.com/homedetails/5284-S-239th-Dr-Buckeye-AZ-85326/82829098_zpid/,33.3985,-112.566,2017-09-07,2017-09-07
9013150,22688245,"7503 S 12th Ave, Phoenix, AZ 85041 ",85041,0.7915334105491638,219525,https://www.zillow.com/homedetails/7503-S-12th-Ave-Phoenix-AZ-85041/95154957_zpid/,33.3785,-112.087,2017-09-15,2017-09-15
928609,22707008,"23988 W Bowker St, Buckeye, AZ 85326 ",85326,0.7911462783813477,179900,https://www.zillow.com/homedetails/23988-W-Bowker-St-Buckeye-AZ-85326/82827167_zpid/,33.3966,-112.56700000000001,2017-09-20,2017-09-20
1258214,22553797,"2056 S Seton Ave, Gilbert, AZ 85295 ",85295,0.7904993295669556,229000,https://www.zillow.com/homedetails/2056-S-Seton-Ave-Gilbert-AZ-85295/92347479_zpid/,33.3132,-111.721,2017-08-21,2017-08-21
933875,22707024,"25579 W Northern Lights Way, Buckeye, AZ 85326 ",85326,0.7894521355628967,215000,https://www.zillow.com/homedetails/25579-W-Northern-Lights-Way-Buckeye-AZ-85326/60997636_zpid/,33.3844,-112.601,2017-09-22,2017-09-22
936949,22610835,"25852 W Lynne Ln, Buckeye, AZ 85326 ",85326,0.7894142866134644,176500,https://www.zillow.com/homedetails/25852-W-Lynne-Ln-Buckeye-AZ-85326/71610640_zpid/,33.3904,-112.60700000000001,2017-09-01,2017-09-01
306689,22565543,"39149 N Parker Ln, Anthem, AZ 85086 ",85086,0.7891944050788879,249900,https://www.zillow.com/homedetails/39149-N-Parker-Ln-Anthem-AZ-85086/68958935_zpid/,33.84,-112.137,2017-08-22,2017-08-22
195200,22694517,"3122 W Wayland Dr, Phoenix, AZ 85041 ",85041,0.7878859043121338,214900,https://www.zillow.com/homedetails/3122-W-Wayland-Dr-Phoenix-AZ-85041/63200375_zpid/,33.3945,-112.126,2017-09-19,2017-09-19
1264180,22595399,"2873 E Bart St, Gilbert, AZ 85295 ",85295,0.7872483134269714,229900,https://www.zillow.com/homedetails/2873-E-Bart-St-Gilbert-AZ-85295/81971571_zpid/,33.3157,-111.729,2017-08-28,2017-08-28
918528,22632391,"22219 W Desert Bloom St, Buckeye, AZ 85326 ",85326,0.7869653105735779,212900,https://www.zillow.com/homedetails/22219-W-Desert-Bloom-St-Buckeye-AZ-85326/71617590_zpid/,33.4364,-112.529,2017-09-06,2017-09-06
1273404,22685699,"4436 E Franklin Ave, Gilbert, AZ 85295 ",85295,0.786388099193573,248000,https://www.zillow.com/homedetails/4436-E-Franklin-Ave-Gilbert-AZ-85295/60987658_zpid/,33.3185,-111.695,2017-09-14,2017-09-14
1234842,22699575,"4616 E Laurel Ct, Gilbert, AZ 85234 ",85234,0.7862937450408936,238888,https://www.zillow.com/homedetails/4616-E-Laurel-Ct-Gilbert-AZ-85234/67786616_zpid/,33.3609,-111.69200000000001,2017-09-07,2017-09-07
795202,22716206,"2537 E Garnet Ave, Mesa, AZ 85204 ",85204,0.7862456440925598,234000,https://www.zillow.com/homedetails/2537-E-Garnet-Ave-Mesa-AZ-85204/7652287_zpid/,33.391999999999996,-111.777,2017-09-21,2017-09-21
8989829,22716200,"252 N Sandal, Mesa, AZ 85205 ",85205,0.7860429286956787,243400,https://www.zillow.com/homedetails/252-N-Sandal-Mesa-AZ-85205/2093127521_zpid/,33.4475,-111.706,2017-09-22,2017-09-22
93380,22621372,"21855 E Via Del Palo, Queen Creek, AZ 85142 ",85142,0.785993754863739,215000,https://www.zillow.com/homedetails/21855-E-Via-Del-Palo-Queen-Creek-AZ-85142/81981245_zpid/,33.2392,-111.61399999999999,2017-08-29,2017-08-29
942962,22610870,"7397 S 253rd Dr, Buckeye, AZ 85326 ",85326,0.7850737571716309,212900,https://www.zillow.com/homedetails/7397-S-253rd-Dr-Buckeye-AZ-85326/95090252_zpid/,33.3794,-112.596,2017-08-31,2017-08-31
8999014,22705403,"241 N 56th Pl, Mesa, AZ 85205 ",85205,0.7843905091285706,247965,https://www.zillow.com/homedetails/241-N-56th-Pl-Mesa-AZ-85205/2092982519_zpid/,33.4228,-111.71,2017-09-22,2017-09-22
9003593,22621199,"6227 S 41ST Dr, Phoenix, AZ 85041 ",85041,0.7839860320091248,219900,https://www.zillow.com/homedetails/6227-S-41ST-Dr-Phoenix-AZ-85041/95071055_zpid/,33.3891,-112.147,2017-09-04,2017-09-04
90843,22656903,"21154 E Via Del Olivos, Queen Creek, AZ 85142 ",85142,0.7837140560150146,233500,https://www.zillow.com/homedetails/21154-E-Via-Del-Olivos-Queen-Creek-AZ-85142/95115047_zpid/,33.2333,-111.62700000000001,2017-09-11,2017-09-11
196550,22714145,"3717 W Nancy Ln, Phoenix, AZ 85041 ",85041,0.7833906412124634,209000,https://www.zillow.com/homedetails/3717-W-Nancy-Ln-Phoenix-AZ-85041/67774261_zpid/,33.3894,-112.139,2017-09-25,2017-09-25
805779,22716577,"3537 E Pueblo Ave, Mesa, AZ 85204 ",85204,0.7831925749778748,234900,https://www.zillow.com/homedetails/3537-E-Pueblo-Ave-Mesa-AZ-85204/7648270_zpid/,33.400999999999996,-111.755,2017-09-21,2017-09-21
527566,22717840,"9449 W Berkeley Rd, Phoenix, AZ 85037 ",85037,0.7831764817237854,225000,https://www.zillow.com/homedetails/9449-W-Berkeley-Rd-Phoenix-AZ-85037/60047071_zpid/,33.4677,-112.26299999999999,2017-09-24,2017-09-24
1239329,22731291,"937 N Starling Dr, Gilbert, AZ 85234 ",85234,0.7831672430038452,248000,https://www.zillow.com/homedetails/937-N-Starling-Dr-Gilbert-AZ-85234/8230703_zpid/,33.3681,-111.693,2017-09-30,2017-09-30
926233,22610782,"23652 W Pecan Rd, Buckeye, AZ 85326 ",85326,0.7831520438194275,199999,https://www.zillow.com/homedetails/23652-W-Pecan-Rd-Buckeye-AZ-85326/82828919_zpid/,33.3956,-112.56,2017-09-01,2017-09-01
935076,22692764,"25711 W Victory St, Buckeye, AZ 85326 ",85326,0.7825220227241516,179990,https://www.zillow.com/homedetails/25711-W-Victory-St-Buckeye-AZ-85326/67796942_zpid/,33.4152,-112.604,2017-09-19,2017-09-19
937071,22621194,"25858 W Pleasant Ln, Buckeye, AZ 85326 ",85326,0.7822558283805847,210000,https://www.zillow.com/homedetails/25858-W-Pleasant-Ln-Buckeye-AZ-85326/71610647_zpid/,33.3914,-112.60700000000001,2017-09-03,2017-09-03
920149,22610764,"22532 W Papago St, Buckeye, AZ 85326 ",85326,0.7821932435035706,177000,https://www.zillow.com/homedetails/22532-W-Papago-St-Buckeye-AZ-85326/62739266_zpid/,33.4343,-112.535,2017-09-01,2017-09-01
928773,22692800,"24013 W Twilight Trl, Buckeye, AZ 85326 ",85326,0.7821511030197144,210000,https://www.zillow.com/homedetails/24013-W-Twilight-Trl-Buckeye-AZ-85326/61631333_zpid/,33.4405,-112.568,2017-09-19,2017-09-19
63970,23395680,"41430 N Prosperity Way, Anthem, AZ 85086 ",85086,0.7820952534675598,239900,http://www.zillow.com/homedetails/41430-N-Prosperity-Way-Anthem-AZ-85086/52427282_zpid/,33.861,-112.12299999999999,2017-09-20,2017-09-20
63228,22689830,"40707 N Courage Trl, Anthem, AZ 85086 ",85086,0.7818596959114075,249900,https://www.zillow.com/homedetails/40707-N-Courage-Trl-Anthem-AZ-85086/55264648_zpid/,33.8541,-112.137,2017-09-18,2017-09-18
763481,22611934,"5321 E Elmwood St, Mesa, AZ 85205 ",85205,0.7818272709846497,249900,https://www.zillow.com/homedetails/5321-E-Elmwood-St-Mesa-AZ-85205/7673037_zpid/,33.4329,-111.71600000000001,2017-08-31,2017-08-31
8974241,22713706,"303 S 5th St, Buckeye, AZ 85326 ",85326,0.781200110912323,167000,https://www.zillow.com/homedetails/303-S-5th-St-Buckeye-AZ-85326/2093482767_zpid/,33.3678,-112.585,2017-09-24,2017-09-24
934810,22499640,"25687 W St James Ave, Buckeye, AZ 85326 ",85326,0.7811579704284668,176800,https://www.zillow.com/homedetails/25687-W-St-James-Ave-Buckeye-AZ-85326/67797581_zpid/,33.3871,-112.603,2017-08-11,2017-08-11
759458,22705431,"4744 E Elmwood St, Mesa, AZ 85205 ",85205,0.781125545501709,230000,https://www.zillow.com/homedetails/4744-E-Elmwood-St-Mesa-AZ-85205/7634286_zpid/,33.4334,-111.728,2017-09-22,2017-09-22
9019188,22732337,"7507 S 12th Ave, Phoenix, AZ 85041 ",85041,0.7810578346252441,235732,https://www.zillow.com/homedetails/7507-S-12th-Ave-Phoenix-AZ-85041/95161575_zpid/,33.3783,-112.087,2017-09-30,2017-09-30
1261217,22633124,"2596 S Southwind Dr, Gilbert, AZ 85295 ",85295,0.7806992530822754,245000,https://www.zillow.com/homedetails/2596-S-Southwind-Dr-Gilbert-AZ-85295/81965311_zpid/,33.3032,-111.766,2017-09-02,2017-09-02
432087,22704087,"11018 W Elm St, Phoenix, AZ 85037 ",85037,0.7801786661148071,223000,https://www.zillow.com/homedetails/11018-W-Elm-St-Phoenix-AZ-85037/95185302_zpid/,33.5054,-112.29700000000001,2017-09-20,2017-09-20
95110,23586626,"22378 E Via Del Palo, Queen Creek, AZ 85142 ",85142,0.7795631885528564,234900,http://www.zillow.com/homedetails/22378-E-Via-Del-Palo-Queen-Creek-AZ-85142/67772116_zpid,33.2347,-111.601,2017-10-08,2017-10-08
1273632,22681246,"4504 E Dublin St, Gilbert, AZ 85295 ",85295,0.7793143391609192,245900,https://www.zillow.com/homedetails/4504-E-Dublin-St-Gilbert-AZ-85295/60987592_zpid/,33.32,-111.693,2017-09-14,2017-09-14
1235038,22648326,"4646 E Redfield Rd, Gilbert, AZ 85234 ",85234,0.7792176008224487,240000,https://www.zillow.com/homedetails/4646-E-Redfield-Rd-Gilbert-AZ-85234/67794145_zpid/,33.3604,-111.691,2017-09-08,2017-09-08
564973,22648616,"10020 E Isleta Ave, Mesa, AZ 85209 ",85209,0.7792014479637146,194900,https://www.zillow.com/homedetails/10020-E-Isleta-Ave-Mesa-AZ-85209/71607608_zpid/,33.3855,-111.615,2017-09-08,2017-09-08
671964,22689232,"7512 E Navarro Ave, Mesa, AZ 85209 ",85209,0.7790110111236572,230000,https://www.zillow.com/homedetails/7512-E-Navarro-Ave-Mesa-AZ-85209/8274166_zpid/,33.3679,-111.67299999999999,2017-09-18,2017-09-18
921899,22643061,"22802 W Cantilever St, Buckeye, AZ 85326 ",85326,0.7787064909934998,235000,https://www.zillow.com/homedetails/22802-W-Cantilever-St-Buckeye-AZ-85326/64583539_zpid/,33.4476,-112.541,2017-09-08,2017-09-08
1271019,22566619,"3917 E Kesler Ln, Gilbert, AZ 85295 ",85295,0.7785051465034485,248000,https://www.zillow.com/homedetails/3917-E-Kesler-Ln-Gilbert-AZ-85295/95068119_zpid/,33.2937,-111.706,2017-08-23,2017-08-23
429776,22703731,"10740 W Taft St, Phoenix, AZ 85037 ",85037,0.7780032753944397,209000,https://www.zillow.com/homedetails/10740-W-Taft-St-Phoenix-AZ-85037/81977416_zpid/,33.5043,-112.292,2017-09-20,2017-09-20
918921,22675350,"22264 W Cantilever St, Buckeye, AZ 85326 ",85326,0.7775993347167969,229995,https://www.zillow.com/homedetails/22264-W-Cantilever-St-Buckeye-AZ-85326/60997121_zpid/,33.4473,-112.53,2017-09-14,2017-09-14
27401,22723268,"5619 S 16th Dr, Phoenix, AZ 85041 ",85041,0.7775641679763794,204998,https://www.zillow.com/homedetails/5619-S-16th-Dr-Phoenix-AZ-85041/68015583_zpid/,33.3952,-112.09299999999999,2017-09-26,2017-09-26
926248,22626873,"23653 W Sonrisas St, Buckeye, AZ 85326 ",85326,0.777428925037384,187990,https://www.zillow.com/homedetails/23653-W-Sonrisas-St-Buckeye-AZ-85326/95144328_zpid/,33.4002,-112.559,2017-09-05,2017-09-05
430039,22642495,"10814 W Taft St, Phoenix, AZ 85037 ",85037,0.7773789763450623,204900,https://www.zillow.com/homedetails/10814-W-Taft-St-Phoenix-AZ-85037/81976027_zpid/,33.5044,-112.29299999999999,2017-09-08,2017-09-08
8928193,22707057,"721 S 223rd Dr, Buckeye, AZ 85326 ",85326,0.777372419834137,165000,https://www.zillow.com/homedetails/721-S-223rd-Dr-Buckeye-AZ-85326/67787068_zpid/,33.4404,-112.531,2017-09-22,2017-09-22
191448,22711813,"1838 W Minton St, Phoenix, AZ 85041 ",85041,0.7773470282554626,229900,https://www.zillow.com/homedetails/1838-W-Minton-St-Phoenix-AZ-85041/121851706_zpid/,33.3812,-112.098,2017-09-20,2017-09-20
925634,22675327,"23559 W Grove Cir, Buckeye, AZ 85326 ",85326,0.7769564986228943,198000,https://www.zillow.com/homedetails/23559-W-Grove-Cir-Buckeye-AZ-85326/82828811_zpid/,33.3984,-112.55799999999999,2017-09-14,2017-09-14
926624,22687144,"23722 W Bowker St, Buckeye, AZ 85326 ",85326,0.7769335508346558,182500,https://www.zillow.com/homedetails/23722-W-Bowker-St-Buckeye-AZ-85326/82828872_zpid/,33.3966,-112.561,2017-09-17,2017-09-17
935849,22675352,"25779 W Gibson Ln, Buckeye, AZ 85326 ",85326,0.7767351865768433,215000,https://www.zillow.com/homedetails/25779-W-Gibson-Ln-Buckeye-AZ-85326/81995939_zpid/,33.4252,-112.605,2017-09-14,2017-09-14
940129,22707055,"5296 S 237th Ln, Buckeye, AZ 85326 ",85326,0.7767049670219421,184500,https://www.zillow.com/homedetails/5296-S-237th-Ln-Buckeye-AZ-85326/82828776_zpid/,33.3984,-112.56200000000001,2017-09-22,2017-09-22
306556,22699181,"3878 W Ashton Dr, Anthem, AZ 85086 ",85086,0.7756583094596863,239000,https://www.zillow.com/homedetails/3878-W-Ashton-Dr-Anthem-AZ-85086/67802475_zpid/,33.8724,-112.14399999999999,2017-09-20,2017-09-20
922418,22638009,"22865 W Solano Dr, Buckeye, AZ 85326 ",85326,0.7756533026695251,215000,https://www.zillow.com/homedetails/22865-W-Solano-Dr-Buckeye-AZ-85326/67787394_zpid/,33.4469,-112.54299999999999,2017-09-07,2017-09-07
930011,22707015,"24753 W Dove Peak, Buckeye, AZ 85326 ",85326,0.774978518486023,199000,https://www.zillow.com/homedetails/24753-W-Dove-Peak-Buckeye-AZ-85326/62739649_zpid/,33.3974,-112.583,2017-09-21,2017-09-21
910646,22643054,"1363 S 219th Ln, Buckeye, AZ 85326 ",85326,0.7749243378639221,183000,https://www.zillow.com/homedetails/1363-S-219th-Ln-Buckeye-AZ-85326/71626339_zpid/,33.4343,-112.523,2017-09-07,2017-09-07
7486659,22733503,"24643 W Romley Ln, Buckeye, AZ 85326 ",85326,0.7747904062271118,234900,https://www.zillow.com/homedetails/24643-W-Romley-Ln-Buckeye-AZ-85326/2094732776_zpid/,33.4014,-112.564,2017-10-03,2017-10-03
934139,22626862,"25610 W Red Sky Pl, Buckeye, AZ 85326 ",85326,0.7745277285575867,218000,https://www.zillow.com/homedetails/25610-W-Red-Sky-Pl-Buckeye-AZ-85326/60997726_zpid/,33.3819,-112.601,2017-09-05,2017-09-05
942742,22721838,"7267 S Sunrise Way, Buckeye, AZ 85326 ",85326,0.7744698524475098,175000,https://www.zillow.com/homedetails/7267-S-Sunrise-Way-Buckeye-AZ-85326/60997659_zpid/,33.3807,-112.601,2017-09-26,2017-09-26
786908,22696642,"1541 E Broadway Rd, Mesa, AZ 85204 ",85204,0.774370551109314,179000,https://www.zillow.com/homedetails/1541-E-Broadway-Rd-Mesa-AZ-85204/7633040_zpid/,33.4078,-111.79799999999999,2017-09-13,2017-09-13
668587,22635628,"7156 E Jacob Ave, Mesa, AZ 85209 ",85209,0.7739824652671814,235000,https://www.zillow.com/homedetails/7156-E-Jacob-Ave-Mesa-AZ-85209/8074990_zpid/,33.3801,-111.677,2017-09-05,2017-09-05
939394,22520509,"4498 S 238th Ln, Buckeye, AZ 85326 ",85326,0.7738820910453796,187000,https://www.zillow.com/homedetails/4498-S-238th-Ln-Buckeye-AZ-85326/95167195_zpid/,33.4057,-112.565,2017-08-18,2017-08-18
193092,23512160,"2336 W Fawn Dr, Phoenix, AZ 85041 ",85041,0.7738587260246277,246900,https://www.zillow.com/homedetails/2336-W-Fawn-Dr-Phoenix-AZ-85041/81997525_zpid/,33.3757,-112.111,2017-09-28,2017-09-28
910573,22706964,"136 S 230th Dr, Buckeye, AZ 85326 ",85326,0.773157000541687,239900,https://www.zillow.com/homedetails/136-S-230th-Dr-Buckeye-AZ-85326/67801665_zpid/,33.446,-112.54700000000001,2017-09-21,2017-09-21
431768,22706408,"10944 W Elm St, Phoenix, AZ 85037 ",85037,0.7731055617332458,199999,https://www.zillow.com/homedetails/10944-W-Elm-St-Phoenix-AZ-85037/82823253_zpid/,33.5056,-112.296,2017-09-22,2017-09-22
9019010,22730170,"1031 S 240th Dr, Buckeye, AZ 85326 ",85326,0.772854208946228,220000,https://www.zillow.com/homedetails/1031-S-240th-Dr-Buckeye-AZ-85326/2092554467_zpid/,33.4378,-112.568,2017-09-30,2017-09-30
769703,22700347,"6407 E Albany St, Mesa, AZ 85205 ",85205,0.7728334665298462,229900,https://www.zillow.com/homedetails/6407-E-Albany-St-Mesa-AZ-85205/7666815_zpid/,33.4186,-111.693,2017-09-12,2017-09-12
939292,22707047,"4265 S 247th Dr, Buckeye, AZ 85326 ",85326,0.7727519273757935,212000,https://www.zillow.com/homedetails/4265-S-247th-Dr-Buckeye-AZ-85326/81967685_zpid/,33.4089,-112.583,2017-09-20,2017-09-20
913156,22733482,"1873 S 217th Ave, Buckeye, AZ 85326 ",85326,0.7727007865905762,156700,https://www.zillow.com/homedetails/1873-S-217th-Ave-Buckeye-AZ-85326/71628883_zpid/,33.4297,-112.51799999999999,2017-10-03,2017-10-03
908461,22610683,"1055 S 223rd Ln, Buckeye, AZ 85326 ",85326,0.7726697325706482,175000,https://www.zillow.com/homedetails/1055-S-223rd-Ln-Buckeye-AZ-85326/67787029_zpid/,33.4371,-112.53200000000001,2017-08-29,2017-08-29
919397,22595469,"22336 W Tonto St, Buckeye, AZ 85326 ",85326,0.7725965976715088,174900,https://www.zillow.com/homedetails/22336-W-Tonto-St-Buckeye-AZ-85326/67796796_zpid/,33.4372,-112.531,2017-08-28,2017-08-28
1094347,22710242,"805 W Nopal Pl, Chandler, AZ 85225 ",85225,0.7724427580833435,225000,https://www.zillow.com/homedetails/805-W-Nopal-Pl-Chandler-AZ-85225/8177761_zpid/,33.3419,-111.85600000000001,2017-09-21,2017-09-21
95043,23587990,"22358 E Via Del Rancho, Queen Creek, AZ 85142 ",85142,0.7720999717712402,239000,http://www.zillow.com/homedetails/22358-E-Via-Del-Rancho-Queen-Creek-AZ-85142/67772153_zpid,33.235,-111.603,2017-10-12,2017-10-12
916196,22675349,"21732 W Sonora St, Buckeye, AZ 85326 ",85326,0.7719051241874695,204900,https://www.zillow.com/homedetails/21732-W-Sonora-St-Buckeye-AZ-85326/71628983_zpid/,33.4326,-112.51799999999999,2017-09-13,2017-09-13
682862,22572305,"9307 E Kiowa Ave, Mesa, AZ 85209 ",85209,0.7712910771369934,229900,https://www.zillow.com/homedetails/9307-E-Kiowa-Ave-Mesa-AZ-85209/50586484_zpid/,33.3723,-111.62899999999999,2017-08-24,2017-08-24
308996,22734530,"41252 N Ericson Ln, Anthem, AZ 85086 ",85086,0.7710964679718018,249900,https://www.zillow.com/homedetails/41252-N-Ericson-Ln-Anthem-AZ-85086/60980245_zpid/,33.8591,-112.14,2017-10-03,2017-10-03
671541,22641753,"7452 E Monte Ave, Mesa, AZ 85209 ",85209,0.7710848450660706,229900,https://www.zillow.com/homedetails/7452-E-Monte-Ave-Mesa-AZ-85209/8273289_zpid/,33.3703,-111.67399999999999,2017-09-07,2017-09-07
305812,22511707,"3742 W Memorial Dr, Anthem, AZ 85086 ",85086,0.7709043622016907,249000,https://www.zillow.com/homedetails/3742-W-Memorial-Dr-Anthem-AZ-85086/67791284_zpid/,33.8545,-112.141,2017-08-15,2017-08-15
909381,22637989,"119 N 228th Ave, Buckeye, AZ 85326 ",85326,0.7708185911178589,185000,https://www.zillow.com/homedetails/119-N-228th-Ave-Buckeye-AZ-85326/64737340_zpid/,33.4486,-112.541,2017-09-07,2017-09-07
1259172,22502389,"2240 S Ponderosa Dr, Gilbert, AZ 85295 ",85295,0.7705195546150208,232900,https://www.zillow.com/homedetails/2240-S-Ponderosa-Dr-Gilbert-AZ-85295/95166951_zpid/,33.3096,-111.713,2017-08-12,2017-08-12
917461,22719030,"22026 W Loma Linda Blvd, Buckeye, AZ 85326 ",85326,0.7704061269760132,235000,https://www.zillow.com/homedetails/22026-W-Loma-Linda-Blvd-Buckeye-AZ-85326/62739176_zpid/,33.4434,-112.524,2017-09-25,2017-09-25
8996686,22706972,"20169 W Sherman St, Buckeye, AZ 85326 ",85326,0.7703583836555481,247200,https://www.zillow.com/homedetails/20169-W-Sherman-St-Buckeye-AZ-85326/95129119_zpid/,33.4377,-112.48899999999999,2017-09-22,2017-09-22
308702,22713034,"40812 N Citrus Canyon Trl, Anthem, AZ 85086 ",85086,0.770332396030426,238000,https://www.zillow.com/homedetails/40812-N-Citrus-Canyon-Trl-Anthem-AZ-85086/61209672_zpid/,33.8549,-112.113,2017-09-23,2017-09-23
927865,22610797,"23874 W Antelope Trl, Buckeye, AZ 85326 ",85326,0.7702767252922058,205000,https://www.zillow.com/homedetails/23874-W-Antelope-Trl-Buckeye-AZ-85326/61631255_zpid/,33.4396,-112.565,2017-08-30,2017-08-30
916447,22732637,"21845 W Mohave St, Buckeye, AZ 85326 ",85326,0.7699787616729736,179900,https://www.zillow.com/homedetails/21845-W-Mohave-St-Buckeye-AZ-85326/71629089_zpid/,33.4309,-112.52,2017-10-01,2017-10-01
527635,22717844,"9459 W Virginia Ave, Phoenix, AZ 85037 ",85037,0.7699431777000427,200000,https://www.zillow.com/homedetails/9459-W-Virginia-Ave-Phoenix-AZ-85037/62727169_zpid/,33.4764,-112.26299999999999,2017-09-20,2017-09-20
916228,22509004,"21742 W Cocopah St, Buckeye, AZ 85326 ",85326,0.7699241042137146,175000,https://www.zillow.com/homedetails/21742-W-Cocopah-St-Buckeye-AZ-85326/71628913_zpid/,33.4318,-112.51799999999999,2017-08-15,2017-08-15
196994,22694497,"3905 W Park St, Phoenix, AZ 85041 ",85041,0.7697188258171082,197000,https://www.zillow.com/homedetails/3905-W-Park-St-Phoenix-AZ-85041/55258381_zpid/,33.3804,-112.14399999999999,2017-09-19,2017-09-19
912423,22642199,"1637 S 219th Dr, Buckeye, AZ 85326 ",85326,0.7695884704589844,205000,https://www.zillow.com/homedetails/1637-S-219th-Dr-Buckeye-AZ-85326/67807782_zpid/,33.4319,-112.522,2017-09-08,2017-09-08
1269476,22738195,"3626 E Larson Ln, Gilbert, AZ 85295 ",85295,0.7695567011833191,245000,https://www.zillow.com/homedetails/3626-E-Larson-Ln-Gilbert-AZ-85295/95160517_zpid/,33.298,-111.712,2017-10-04,2017-10-04
936873,22724517,"25847 W Hilton Ave, Buckeye, AZ 85326 ",85326,0.7694491147994995,235000,https://www.zillow.com/homedetails/25847-W-Hilton-Ave-Buckeye-AZ-85326/81997200_zpid/,33.4264,-112.60700000000001,2017-09-27,2017-09-27
915929,22662840,"21539 W Hilton Ave, Buckeye, AZ 85326 ",85326,0.7692279815673828,197500,https://www.zillow.com/homedetails/21539-W-Hilton-Ave-Buckeye-AZ-85326/95167457_zpid/,33.4276,-112.529,2017-09-12,2017-09-12
755808,22677165,"1821 N Sinova, Mesa, AZ 85205 ",85205,0.7690128684043884,249900,https://www.zillow.com/homedetails/1821-N-Sinova-Mesa-AZ-85205/52424731_zpid/,33.4487,-111.71700000000001,2017-09-14,2017-09-14
932875,22662844,"25401 W Carson Dr, Buckeye, AZ 85326 ",85326,0.7689138650894165,193000,https://www.zillow.com/homedetails/25401-W-Carson-Dr-Buckeye-AZ-85326/95123230_zpid/,33.3814,-112.598,2017-09-12,2017-09-12
918443,22706988,"22209 W Hadley St, Buckeye, AZ 85326 ",85326,0.7688655257225037,202000,https://www.zillow.com/homedetails/22209-W-Hadley-St-Buckeye-AZ-85326/81992530_zpid/,33.4379,-112.52799999999999,2017-09-22,2017-09-22
202179,22747496,"7707 S 25th Ave, Phoenix, AZ 85041 ",85041,0.7688542604446411,234800,https://www.zillow.com/homedetails/7707-S-25th-Ave-Phoenix-AZ-85041/81984354_zpid/,33.3768,-112.113,2017-09-28,2017-09-28
805482,22655836,"3346 E Florian Ave, Mesa, AZ 85204 ",85204,0.7684960961341858,225000,https://www.zillow.com/homedetails/3346-E-Florian-Ave-Mesa-AZ-85204/7648060_zpid/,33.395,-111.759,2017-09-11,2017-09-11
196590,22746433,"3721 W Saint Anne Ave, Phoenix, AZ 85041 ",85041,0.7684513926506042,234900,https://www.zillow.com/homedetails/3721-W-Saint-Anne-Ave-Phoenix-AZ-85041/81983084_zpid/,33.3869,-112.139,2017-10-04,2017-10-04
930908,22572794,"24936 W Dove Mesa Dr, Buckeye, AZ 85326 ",85326,0.767880380153656,179900,https://www.zillow.com/homedetails/24936-W-Dove-Mesa-Dr-Buckeye-AZ-85326/62739529_zpid/,33.3991,-112.587,2017-08-24,2017-08-24
427508,22689142,"10231 W Hazelwood Ave, Phoenix, AZ 85037 ",85037,0.7676403522491455,235000,https://www.zillow.com/homedetails/10231-W-Hazelwood-Ave-Phoenix-AZ-85037/7483962_zpid/,33.5031,-112.28200000000001,2017-09-18,2017-09-18
784692,22719644,"1050 E 9th Ave, Mesa, AZ 85204 ",85204,0.7676036953926086,225000,https://www.zillow.com/homedetails/1050-E-9th-Ave-Mesa-AZ-85204/7629874_zpid/,33.399,-111.80799999999999,2017-09-25,2017-09-25
303083,22709631,"2509 W Warren Dr, Anthem, AZ 85086 ",85086,0.7675682306289673,225000,https://www.zillow.com/homedetails/2509-W-Warren-Dr-Anthem-AZ-85086/59740805_zpid/,33.8489,-112.11399999999999,2017-09-22,2017-09-22
446798,22704100,"4825 N 111th Gln, Phoenix, AZ 85037 ",85037,0.7674222588539124,227000,https://www.zillow.com/homedetails/4825-N-111th-Gln-Phoenix-AZ-85037/71545135_zpid/,33.5052,-112.3,2017-09-21,2017-09-21
667143,22703442,"7002 E Keats Ave, Mesa, AZ 85209 ",85209,0.7673941254615784,217000,https://www.zillow.com/homedetails/7002-E-Keats-Ave-Mesa-AZ-85209/8274040_zpid/,33.378,-111.68299999999999,2017-09-21,2017-09-21
654384,22610269,"1640 S Chatsworth, Mesa, AZ 85209 ",85209,0.767207682132721,195500,https://www.zillow.com/homedetails/1640-S-Chatsworth-Mesa-AZ-85209/81951351_zpid/,33.3846,-111.615,2017-09-01,2017-09-01
911870,22706969,"1585 S 229th Ave, Buckeye, AZ 85326 ",85326,0.7668097019195557,185000,https://www.zillow.com/homedetails/1585-S-229th-Ave-Buckeye-AZ-85326/62739384_zpid/,33.4321,-112.544,2017-09-20,2017-09-20
63003,22680695,"40329 N Bell Meadow Trl, Anthem, AZ 85086 ",85086,0.7667709589004517,214900,https://www.zillow.com/homedetails/40329-N-Bell-Meadow-Trl-Anthem-AZ-85086/67775874_zpid/,33.8517,-112.095,2017-09-15,2017-09-15
919867,22649177,"22470 W Woodlands Ave, Buckeye, AZ 85326 ",85326,0.7666089534759521,215000,https://www.zillow.com/homedetails/22470-W-Woodlands-Ave-Buckeye-AZ-85326/67807708_zpid/,33.4499,-112.53399999999999,2017-09-10,2017-09-10
925344,22642197,"23432 W Cocopah St, Buckeye, AZ 85326 ",85326,0.7660825252532959,190000,https://www.zillow.com/homedetails/23432-W-Cocopah-St-Buckeye-AZ-85326/62739743_zpid/,33.4325,-112.555,2017-09-08,2017-09-08
1273177,22648222,"4334 E Megan St, Gilbert, AZ 85295 ",85295,0.7660468220710754,235000,https://www.zillow.com/homedetails/4334-E-Megan-St-Gilbert-AZ-85295/55276070_zpid/,33.3209,-111.696,2017-09-08,2017-09-08
794409,22712213,"2428 E Hampton Ave, Mesa, AZ 85204 ",85204,0.7660181522369385,245000,https://www.zillow.com/homedetails/2428-E-Hampton-Ave-Mesa-AZ-85204/7652354_zpid/,33.3906,-111.779,2017-09-23,2017-09-23
942056,22638001,"6908 S Morning Dew Ln, Buckeye, AZ 85326 ",85326,0.7656847834587097,190000,https://www.zillow.com/homedetails/6908-S-Morning-Dew-Ln-Buckeye-AZ-85326/60997610_zpid/,33.3838,-112.602,2017-09-07,2017-09-07
1272521,22606115,"4257 E Tulsa St, Gilbert, AZ 85295 ",85295,0.7656456232070923,234900,https://www.zillow.com/homedetails/4257-E-Tulsa-St-Gilbert-AZ-85295/82799818_zpid/,33.313,-111.698,2017-08-31,2017-08-31
9016019,22707065,"83 N 225th Dr, Buckeye, AZ 85326 ",85326,0.7655145525932312,185000,https://www.zillow.com/homedetails/83-N-225th-Dr-Buckeye-AZ-85326/71492945_zpid/,33.4482,-112.536,2017-09-20,2017-09-20
945073,22707049,"4519 S 237th Ln, Buckeye, AZ 85326 ",85326,0.7655102014541626,177900,https://www.zillow.com/homedetails/4519-S-237th-Ln-Buckeye-AZ-85326/95182545_zpid/,33.4056,-112.561,2017-09-20,2017-09-20
770442,22593845,"6556 E Ivy St, Mesa, AZ 85205 ",85205,0.765488862991333,240000,https://www.zillow.com/homedetails/6556-E-Ivy-St-Mesa-AZ-85205/7676957_zpid/,33.4459,-111.68799999999999,2017-08-28,2017-08-28
8991469,22610872,"940 S 242nd Dr, Buckeye, AZ 85326 ",85326,0.765209972858429,170000,https://www.zillow.com/homedetails/940-S-242nd-Dr-Buckeye-AZ-85326/67797708_zpid/,33.4378,-112.572,2017-08-31,2017-08-31
1258952,22709693,"2197 S Rome St, Gilbert, AZ 85295 ",85295,0.7651305794715881,249500,https://www.zillow.com/homedetails/2197-S-Rome-St-Gilbert-AZ-85295/8243448_zpid/,33.3104,-111.751,2017-09-21,2017-09-21
1255838,22663670,"1768 E Morgan Dr, Gilbert, AZ 85295 ",85295,0.7651305794715881,225000,https://www.zillow.com/homedetails/1768-E-Morgan-Dr-Gilbert-AZ-85295/50197492_zpid/,33.3075,-111.75200000000001,2017-09-12,2017-09-12
911881,22573185,"1588 S 218th Ln, Buckeye, AZ 85326 ",85326,0.7650378346443176,214900,https://www.zillow.com/homedetails/1588-S-218th-Ln-Buckeye-AZ-85326/2117060768_zpid/,33.4322,-112.522,2017-08-24,2017-08-24
915752,22713704,"2097 S 215th Dr, Buckeye, AZ 85326 ",85326,0.7650303840637207,185000,https://www.zillow.com/homedetails/2097-S-215th-Dr-Buckeye-AZ-85326/95111018_zpid/,33.4286,-112.514,2017-09-24,2017-09-24
1273751,22693412,"4533 E Harrison St, Gilbert, AZ 85295 ",85295,0.7650113701820374,225000,https://www.zillow.com/homedetails/4533-E-Harrison-St-Gilbert-AZ-85295/60987720_zpid/,33.3169,-111.693,2017-09-19,2017-09-19
193415,22698056,"242 W Tamarisk St, Phoenix, AZ 85041 ",85041,0.7648972272872925,200000,https://www.zillow.com/homedetails/242-W-Tamarisk-St-Phoenix-AZ-85041/81981841_zpid/,33.4043,-112.07700000000001,2017-09-19,2017-09-19
306284,22722667,"3824 W Desert Creek Ln, Anthem, AZ 85086 ",85086,0.7648442983627319,239000,https://www.zillow.com/homedetails/3824-W-Desert-Creek-Ln-Anthem-AZ-85086/71628245_zpid/,33.8311,-112.14200000000001,2017-09-26,2017-09-26
1272620,22499037,"4266 E Carla Vista Dr, Gilbert, AZ 85295 ",85295,0.7648375034332275,223500,https://www.zillow.com/homedetails/4266-E-Carla-Vista-Dr-Gilbert-AZ-85295/82240207_zpid/,33.3119,-111.698,2017-08-11,2017-08-11
921680,22707000,"22775 W Cocopah St, Buckeye, AZ 85326 ",85326,0.7648276090621948,187900,https://www.zillow.com/homedetails/22775-W-Cocopah-St-Buckeye-AZ-85326/60997359_zpid/,33.4324,-112.541,2017-09-21,2017-09-21
768868,22705444,"6325 E Ivy St, Mesa, AZ 85205 ",85205,0.7647075057029724,224995,https://www.zillow.com/homedetails/6325-E-Ivy-St-Mesa-AZ-85205/7676720_zpid/,33.4461,-111.694,2017-09-21,2017-09-21
927077,22730184,"23791 W Hadley St, Buckeye, AZ 85326 ",85326,0.7646880745887756,185500,https://www.zillow.com/homedetails/23791-W-Hadley-St-Buckeye-AZ-85326/61631057_zpid/,33.4377,-112.56299999999999,2017-09-30,2017-09-30
795678,22628960,"2647 E Holmes Ave, Mesa, AZ 85204 ",85204,0.7646305561065674,229989,https://www.zillow.com/homedetails/2647-E-Holmes-Ave-Mesa-AZ-85204/7652159_zpid/,33.389,-111.77600000000001,2017-09-01,2017-09-01
804758,22601987,"2710 E Carol Ave, Mesa, AZ 85204 ",85204,0.7641999125480652,235000,https://www.zillow.com/homedetails/2710-E-Carol-Ave-Mesa-AZ-85204/55619214_zpid/,33.4055,-111.773,2017-08-31,2017-08-31
425732,22714385,"10010 W Montecito Ave, Phoenix, AZ 85037 ",85037,0.7639864683151245,215000,https://www.zillow.com/homedetails/10010-W-Montecito-Ave-Phoenix-AZ-85037/7484276_zpid/,33.4997,-112.27600000000001,2017-09-20,2017-09-20
524237,22678362,"9106 W Monte Vista Rd, Phoenix, AZ 85037 ",85037,0.7636908888816833,199000,https://www.zillow.com/homedetails/9106-W-Monte-Vista-Rd-Phoenix-AZ-85037/60047183_zpid/,33.4705,-112.256,2017-09-13,2017-09-13
309099,22732851,"41361 N Miles Ct, Anthem, AZ 85086 ",85086,0.7636552453041077,219000,https://www.zillow.com/homedetails/41361-N-Miles-Ct-Anthem-AZ-85086/71620232_zpid/,33.8609,-112.14,2017-10-01,2017-10-01
786487,22634118,"1445 E Edgewood Ave, Mesa, AZ 85204 ",85204,0.7634902596473694,235000,https://www.zillow.com/homedetails/1445-E-Edgewood-Ave-Mesa-AZ-85204/7627045_zpid/,33.3998,-111.8,2017-09-04,2017-09-04
927417,22692762,"23833 W Corona Ave, Buckeye, AZ 85326 ",85326,0.7633497714996338,174900,https://www.zillow.com/homedetails/23833-W-Corona-Ave-Buckeye-AZ-85326/95099979_zpid/,33.4057,-112.564,2017-09-19,2017-09-19
931096,22730191,"24984 W Hidalgo Dr, Buckeye, AZ 85326 ",85326,0.7633342742919922,185000,https://www.zillow.com/homedetails/24984-W-Hidalgo-Dr-Buckeye-AZ-85326/82240234_zpid/,33.3948,-112.588,2017-09-28,2017-09-28
91379,22735955,"21256 E Via Del Sol, Queen Creek, AZ 85142 ",85142,0.7630171179771423,232000,https://www.zillow.com/homedetails/21256-E-Via-Del-Sol-Queen-Creek-AZ-85142/95115374_zpid/,33.2347,-111.633,2017-09-28,2017-09-28
937985,22662848,"302 S 197th Ave, Buckeye, AZ 85326 ",85326,0.7629181146621704,215900,https://www.zillow.com/homedetails/302-S-197th-Ave-Buckeye-AZ-85326/95075908_zpid/,33.444,-112.48299999999999,2017-09-12,2017-09-12
90845,22738117,"21155 E Aspen Valley Dr, Queen Creek, AZ 85142 ",85142,0.7628055810928345,235000,https://www.zillow.com/homedetails/21155-E-Aspen-Valley-Dr-Queen-Creek-AZ-85142/59260845_zpid/,33.2426,-111.625,2017-10-03,2017-10-03
914288,22706971,"19458 W Jefferson St, Buckeye, AZ 85326 ",85326,0.7627251148223877,199000,https://www.zillow.com/homedetails/19458-W-Jefferson-St-Buckeye-AZ-85326/92350291_zpid/,33.4462,-112.478,2017-09-21,2017-09-21
935233,22516578,"25732 W Elizabeth Ave, Buckeye, AZ 85326 ",85326,0.7625873684883118,177900,https://www.zillow.com/homedetails/25732-W-Elizabeth-Ave-Buckeye-AZ-85326/81981119_zpid/,33.4273,-112.605,2017-08-18,2017-08-18
657889,22703411,"2119 S Luther, Mesa, AZ 85209 ",85209,0.7624756097793579,200000,https://www.zillow.com/homedetails/2119-S-Luther-Mesa-AZ-85209/60050732_zpid/,33.3762,-111.65,2017-09-20,2017-09-20
8952462,22610826,"24655 W Romley Rd, Buckeye, AZ 85326 ",85326,0.7623425722122192,203900,https://www.zillow.com/homedetails/24655-W-Romley-Rd-Buckeye-AZ-85326/95086708_zpid/,33.400999999999996,-112.581,2017-08-31,2017-08-31
654246,22623516,"1624 S Chatsworth, Mesa, AZ 85209 ",85209,0.7617921233177185,210000,https://www.zillow.com/homedetails/1624-S-Chatsworth-Mesa-AZ-85209/81993957_zpid/,33.3849,-111.615,2017-08-31,2017-08-31
565077,22610214,"10030 E Isleta Ave, Mesa, AZ 85209 ",85209,0.7617921233177185,210000,https://www.zillow.com/homedetails/10030-E-Isleta-Ave-Mesa-AZ-85209/71607613_zpid/,33.3855,-111.615,2017-09-01,2017-09-01
194219,22747286,"2612 W Burgess Ln, Phoenix, AZ 85041 ",85041,0.7616952657699585,228000,https://www.zillow.com/homedetails/2612-W-Burgess-Ln-Phoenix-AZ-85041/62727594_zpid/,33.3897,-112.115,2017-10-03,2017-10-03
924339,22709175,"23232 W Mohave St, Buckeye, AZ 85326 ",85326,0.761610746383667,190000,https://www.zillow.com/homedetails/23232-W-Mohave-St-Buckeye-AZ-85326/67779871_zpid/,33.4322,-112.55,2017-09-22,2017-09-22
90743,22738107,"21140 E Cherrywood Dr, Queen Creek, AZ 85142 ",85142,0.7616100907325745,235000,https://www.zillow.com/homedetails/21140-E-Cherrywood-Dr-Queen-Creek-AZ-85142/95088035_zpid/,33.2339,-111.62700000000001,2017-10-03,2017-10-03
914003,22675338,"19373 W Adams St, Buckeye, AZ 85326 ",85326,0.7616022825241089,194900,https://www.zillow.com/homedetails/19373-W-Adams-St-Buckeye-AZ-85326/88794619_zpid/,33.4481,-112.476,2017-09-13,2017-09-13
800131,22717375,"711 S Hall, Mesa, AZ 85204 ",85204,0.7612875699996948,224500,https://www.zillow.com/homedetails/711-S-Hall-Mesa-AZ-85204/7633366_zpid/,33.4023,-111.79299999999999,2017-09-14,2017-09-14
305088,22559745,"3615 W Keller Ct, Anthem, AZ 85086 ",85086,0.7609829902648926,237500,https://www.zillow.com/homedetails/3615-W-Keller-Ct-Anthem-AZ-85086/54277223_zpid/,33.8542,-112.137,2017-08-15,2017-08-15
431469,22724416,"10929 W Taft St, Phoenix, AZ 85037 ",85037,0.760870635509491,229000,https://www.zillow.com/homedetails/10929-W-Taft-St-Phoenix-AZ-85037/81974726_zpid/,33.5045,-112.295,2017-09-27,2017-09-27
9020505,23526370,"24498 W Atlanta Ave, Buckeye, AZ 85326 ",85326,0.7608651518821716,239900,https://www.zillow.com/homedetails/24498-W-Atlanta-Ave-Buckeye-AZ-85326/95183261_zpid/,33.3998,-112.56299999999999,2017-10-10,2017-10-10
8996688,22740749,"24626 W Atlanta Ave, Buckeye, AZ 85326 ",85326,0.7608651518821716,236900,https://www.zillow.com/homedetails/24626-W-Atlanta-Ave-Buckeye-AZ-85326/95144720_zpid/,33.3998,-112.56299999999999,2017-10-06,2017-10-06
8955732,22707032,"340 S 224TH Dr, Buckeye, AZ 85326 ",85326,0.7608216404914856,225900,https://www.zillow.com/homedetails/340-S-224TH-Dr-Buckeye-AZ-85326/95114540_zpid/,33.444,-112.53299999999999,2017-09-21,2017-09-21
527112,22737449,"9427 W Palm Ln, Phoenix, AZ 85037 ",85037,0.7607683539390564,238900,https://www.zillow.com/homedetails/9427-W-Palm-Ln-Phoenix-AZ-85037/67762972_zpid/,33.4684,-112.26299999999999,2017-10-04,2017-10-04
657876,22686858,"2117 S Luther, Mesa, AZ 85209 ",85209,0.760604739189148,210000,https://www.zillow.com/homedetails/2117-S-Luther-Mesa-AZ-85209/60050731_zpid/,33.3762,-111.65,2017-09-17,2017-09-17
931683,22730194,"25160 W Park Ave, Buckeye, AZ 85326 ",85326,0.7605742812156677,202000,https://www.zillow.com/homedetails/25160-W-Park-Ave-Buckeye-AZ-85326/95120592_zpid/,33.382,-112.59200000000001,2017-09-28,2017-09-28
929094,22637981,"24115 W Tonto St, Buckeye, AZ 85326 ",85326,0.760481059551239,187000,https://www.zillow.com/homedetails/24115-W-Tonto-St-Buckeye-AZ-85326/71610825_zpid/,33.4373,-112.57,2017-09-07,2017-09-07
450214,22642480,"8705 W Roanoke Ave, Phoenix, AZ 85037 ",85037,0.7600944638252258,210000,https://www.zillow.com/homedetails/8705-W-Roanoke-Ave-Phoenix-AZ-85037/7473636_zpid/,33.4784,-112.24700000000001,2017-09-08,2017-09-08
196217,23527666,"3448 W Apollo Rd, Phoenix, AZ 85041 ",85041,0.759769082069397,239900,https://www.zillow.com/homedetails/3448-W-Apollo-Rd-Phoenix-AZ-85041/82819918_zpid/,33.3863,-112.133,2017-10-11,2017-10-11
793312,22508143,"2216 E Gable Ave, Mesa, AZ 85204 ",85204,0.7596827745437622,233900,https://www.zillow.com/homedetails/2216-E-Gable-Ave-Mesa-AZ-85204/7652395_zpid/,33.3931,-111.78399999999999,2017-08-15,2017-08-15
806177,22692328,"556 S Sunwood Cir, Mesa, AZ 85204 ",85204,0.7595579624176025,204900,https://www.zillow.com/homedetails/556-S-Sunwood-Cir-Mesa-AZ-85204/7645489_zpid/,33.4048,-111.755,2017-09-19,2017-09-19
59611,22709624,"2364 W Turtle Hill Ct, Anthem, AZ 85086 ",85086,0.759557843208313,249900,https://www.zillow.com/homedetails/2364-W-Turtle-Hill-Ct-Anthem-AZ-85086/55213390_zpid/,33.8604,-112.111,2017-09-21,2017-09-21
908274,22684838,"1030 S 223rd Ln, Buckeye, AZ 85326 ",85326,0.7595177888870239,189000,https://www.zillow.com/homedetails/1030-S-223rd-Ln-Buckeye-AZ-85326/67787135_zpid/,33.4373,-112.53200000000001,2017-09-15,2017-09-15
432032,22730808,"11010 W Elm St, Phoenix, AZ 85037 ",85037,0.759443998336792,190000,https://www.zillow.com/homedetails/11010-W-Elm-St-Phoenix-AZ-85037/95138500_zpid/,33.5055,-112.29700000000001,2017-09-28,2017-09-28
771912,22576940,"954 N Sinova, Mesa, AZ 85205 ",85205,0.7594332098960876,248200,https://www.zillow.com/homedetails/954-N-Sinova-Mesa-AZ-85205/7673032_zpid/,33.4335,-111.71600000000001,2017-08-25,2017-08-25
84445,23653302,"19030 E Seagull Dr, Queen Creek, AZ 85142 ",85142,0.759346604347229,239999,http://www.zillow.com/homedetails/19030-E-Seagull-Dr-Queen-Creek-AZ-85142/81955463_zpid,33.2772,-111.67200000000001,2017-10-12,2017-10-12
1088725,22710184,"519 W Palomino Dr, Chandler, AZ 85225 ",85225,0.7592929601669312,239900,https://www.zillow.com/homedetails/519-W-Palomino-Dr-Chandler-AZ-85225/8177645_zpid/,33.3411,-111.85,2017-09-22,2017-09-22
1260474,23752184,"2542 E Vermont Dr, Gilbert, AZ 85295 ",85295,0.7584719657897949,249999,https://www.zillow.com/homedetails/2542-E-Vermont-Dr-Gilbert-AZ-85295/95107867_zpid/,33.3037,-111.735,2017-10-12,2017-10-12
912856,22610679,"180 S 195th Dr, Buckeye, AZ 85326 ",85326,0.758266270160675,205000,https://www.zillow.com/homedetails/180-S-195th-Dr-Buckeye-AZ-85326/92692511_zpid/,33.4424,-112.48,2017-08-31,2017-08-31
772780,22657176,"4936 E Halifax St, Mesa, AZ 85205 ",85205,0.7582195997238159,239900,https://www.zillow.com/homedetails/4936-E-Halifax-St-Mesa-AZ-85205/7660011_zpid/,33.4433,-111.72399999999999,2017-09-11,2017-09-11
201407,22732018,"7104 S 31st Dr, Phoenix, AZ 85041 ",85041,0.7582165598869324,203900,https://www.zillow.com/homedetails/7104-S-31st-Dr-Phoenix-AZ-85041/60977326_zpid/,33.3822,-112.125,2017-09-29,2017-09-29
190807,22693975,"1638 W Alta Vista Rd, Phoenix, AZ 85041 ",85041,0.7582122087478638,190000,https://www.zillow.com/homedetails/1638-W-Alta-Vista-Rd-Phoenix-AZ-85041/60554396_zpid/,33.3898,-112.094,2017-09-20,2017-09-20
191566,22732262,"1919 W Nancy Ln, Phoenix, AZ 85041 ",85041,0.7579503655433655,216900,https://www.zillow.com/homedetails/1919-W-Nancy-Ln-Phoenix-AZ-85041/63158425_zpid/,33.39,-112.1,2017-09-29,2017-09-29
928081,22502563,"23905 W Bowker St, Buckeye, AZ 85326 ",85326,0.7576543688774109,205000,https://www.zillow.com/homedetails/23905-W-Bowker-St-Buckeye-AZ-85326/82827260_zpid/,33.3965,-112.565,2017-08-12,2017-08-12
8964635,22733496,"24598 W Sheraton Ln, Buckeye, AZ 85326 ",85326,0.757597029209137,236900,https://www.zillow.com/homedetails/24598-W-Sheraton-Ln-Buckeye-AZ-85326/95148348_zpid/,33.4007,-112.58,2017-10-03,2017-10-03
919183,22520445,"22307 W La Pasada Blvd, Buckeye, AZ 85326 ",85326,0.7575882077217102,179000,https://www.zillow.com/homedetails/22307-W-La-Pasada-Blvd-Buckeye-AZ-85326/60962602_zpid/,33.4448,-112.53,2017-08-17,2017-08-17
785127,22709105,"1124 E 9th Dr, Mesa, AZ 85204 ",85204,0.7574920058250427,239000,https://www.zillow.com/homedetails/1124-E-9th-Dr-Mesa-AZ-85204/7629775_zpid/,33.3983,-111.807,2017-09-22,2017-09-22
1268632,22731181,"3515 E Erie St, Gilbert, AZ 85295 ",85295,0.7574601769447327,220000,https://www.zillow.com/homedetails/3515-E-Erie-St-Gilbert-AZ-85295/95187885_zpid/,33.3092,-111.714,2017-09-30,2017-09-30
798166,22636918,"3512 E Carol Ave, Mesa, AZ 85204 ",85204,0.7573601007461548,204900,https://www.zillow.com/homedetails/3512-E-Carol-Ave-Mesa-AZ-85204/7645452_zpid/,33.4057,-111.756,2017-09-07,2017-09-07
926841,22558953,"23760 W La Salle St, Buckeye, AZ 85326 ",85326,0.7573565244674683,185000,https://www.zillow.com/homedetails/23760-W-La-Salle-St-Buckeye-AZ-85326/82828746_zpid/,33.3973,-112.56200000000001,2017-08-22,2017-08-22
918211,22555354,"22179 W Twilight Trl, Buckeye, AZ 85326 ",85326,0.7568487524986267,239900,https://www.zillow.com/homedetails/22179-W-Twilight-Trl-Buckeye-AZ-85326/82385998_zpid/,33.4407,-112.52799999999999,2017-08-20,2017-08-20
673807,22723932,"7808 E Nopal Ave, Mesa, AZ 85209 ",85209,0.7566201686859131,225000,https://www.zillow.com/homedetails/7808-E-Nopal-Ave-Mesa-AZ-85209/8274864_zpid/,33.366,-111.666,2017-09-27,2017-09-27
1239748,22713934,"990 E Princeton Ave, Gilbert, AZ 85234 ",85234,0.7561517357826233,240000,https://www.zillow.com/homedetails/990-E-Princeton-Ave-Gilbert-AZ-85234/8271512_zpid/,33.3658,-111.76700000000001,2017-09-24,2017-09-24
526828,22737450,"9418 W Sheridan St, Phoenix, AZ 85037 ",85037,0.7561327815055847,214500,https://www.zillow.com/homedetails/9418-W-Sheridan-St-Phoenix-AZ-85037/67773035_zpid/,33.475,-112.262,2017-09-28,2017-09-28
1212470,22663709,"1249 E Liberty Shores Dr, Gilbert, AZ 85234 ",85234,0.7560614943504333,215000,https://www.zillow.com/homedetails/1249-E-Liberty-Shores-Dr-Gilbert-AZ-85234/8269107_zpid/,33.3564,-111.762,2017-09-11,2017-09-11
931551,22707029,"251 S 195th Dr, Buckeye, AZ 85326 ",85326,0.7559552192687988,214000,https://www.zillow.com/homedetails/251-S-195th-Dr-Buckeye-AZ-85326/95145471_zpid/,33.4445,-112.479,2017-09-22,2017-09-22
940317,22707059,"546 S 223rd Dr, Buckeye, AZ 85326 ",85326,0.7557237148284912,195000,https://www.zillow.com/homedetails/546-S-223rd-Dr-Buckeye-AZ-85326/67787089_zpid/,33.4421,-112.531,2017-09-21,2017-09-21
198200,22613787,"4831 S 4th Ave, Phoenix, AZ 85041 ",85041,0.7556291818618774,219999,https://www.zillow.com/homedetails/4831-S-4th-Ave-Phoenix-AZ-85041/95134932_zpid/,33.402,-112.07799999999999,2017-09-01,2017-09-01
194667,22567004,"2903 W Grenadine Rd, Phoenix, AZ 85041 ",85041,0.7556110620498657,219900,https://www.zillow.com/homedetails/2903-W-Grenadine-Rd-Phoenix-AZ-85041/71605183_zpid/,33.3986,-112.12100000000001,2017-08-23,2017-08-23
936709,22578807,"25839 W Elizabeth Ave, Buckeye, AZ 85326 ",85326,0.755466639995575,211000,https://www.zillow.com/homedetails/25839-W-Elizabeth-Ave-Buckeye-AZ-85326/81975881_zpid/,33.4272,-112.60700000000001,2017-08-25,2017-08-25
431205,22651066,"10920 W Taft St, Phoenix, AZ 85037 ",85037,0.7553537487983704,205000,https://www.zillow.com/homedetails/10920-W-Taft-St-Phoenix-AZ-85037/81977260_zpid/,33.5049,-112.295,2017-09-09,2017-09-09
911079,22684837,"1439 S 222nd Ln, Buckeye, AZ 85326 ",85326,0.7552950978279114,189500,https://www.zillow.com/homedetails/1439-S-222nd-Ln-Buckeye-AZ-85326/67799835_zpid/,33.4336,-112.53,2017-09-15,2017-09-15
922675,22672566,"22938 W Yavapai St, Buckeye, AZ 85326 ",85326,0.7552605271339417,190000,https://www.zillow.com/homedetails/22938-W-Yavapai-St-Buckeye-AZ-85326/62739353_zpid/,33.4351,-112.544,2017-09-06,2017-09-06
1219348,22709741,"196 N Rock St, Gilbert, AZ 85234 ",85234,0.7551636099815369,230000,https://www.zillow.com/homedetails/196-N-Rock-St-Gilbert-AZ-85234/8269570_zpid/,33.3537,-111.76100000000001,2017-09-21,2017-09-21
202983,22736991,"9216 S 7th Ave, Phoenix, AZ 85041 ",85041,0.7549566030502319,193750,https://www.zillow.com/homedetails/9216-S-7th-Ave-Phoenix-AZ-85041/8132490_zpid/,33.3626,-112.084,2017-09-05,2017-09-05
916666,22721826,"21939 W Papago St, Buckeye, AZ 85326 ",85326,0.7547733783721924,189999,https://www.zillow.com/homedetails/21939-W-Papago-St-Buckeye-AZ-85326/67807787_zpid/,33.4341,-112.522,2017-09-26,2017-09-26
89497,22735927,"20866 S 214th Pl, Queen Creek, AZ 85142 ",85142,0.7544340491294861,212000,https://www.zillow.com/homedetails/20866-S-214th-Pl-Queen-Creek-AZ-85142/82799840_zpid/,33.2608,-111.62299999999999,2017-09-01,2017-09-01
1029017,22523284,"2287 E Peach Tree Dr, Chandler, AZ 85249 ",85249,0.7543323636054993,230000,https://www.zillow.com/homedetails/2287-E-Peach-Tree-Dr-Chandler-AZ-85249/52432547_zpid/,33.2075,-111.801,2017-08-18,2017-08-18
917776,22730179,"22080 W Yavapai St, Buckeye, AZ 85326 ",85326,0.7541123032569885,189900,https://www.zillow.com/homedetails/22080-W-Yavapai-St-Buckeye-AZ-85326/67803100_zpid/,33.4351,-112.525,2017-09-29,2017-09-29
756261,22698087,"243 N 58th St, Mesa, AZ 85205 ",85205,0.7541038393974304,230000,https://www.zillow.com/homedetails/243-N-58th-St-Mesa-AZ-85205/7663432_zpid/,33.4204,-111.706,2017-09-14,2017-09-14
793773,22716066,"2305 E Carol Ave, Mesa, AZ 85204 ",85204,0.7538893222808838,235000,https://www.zillow.com/homedetails/2305-E-Carol-Ave-Mesa-AZ-85204/7646887_zpid/,33.4052,-111.78200000000001,2017-09-21,2017-09-21
62818,22680698,"40045 N Cross Timbers Ct, Anthem, AZ 85086 ",85086,0.7536880373954773,215000,https://www.zillow.com/homedetails/40045-N-Cross-Timbers-Ct-Anthem-AZ-85086/60543016_zpid/,33.8485,-112.118,2017-09-13,2017-09-13
939325,22520502,"4291 S Rancho Vista Dr, Buckeye, AZ 85326 ",85326,0.7534637451171875,179999,https://www.zillow.com/homedetails/4291-S-Rancho-Vista-Dr-Buckeye-AZ-85326/71599016_zpid/,33.4084,-112.584,2017-08-18,2017-08-18
805280,22698739,"3162 E Diamond Ave, Mesa, AZ 85204 ",85204,0.7531926035881042,207499,https://www.zillow.com/homedetails/3162-E-Diamond-Ave-Mesa-AZ-85204/7646201_zpid/,33.4023,-111.76299999999999,2017-09-19,2017-09-19
1230889,22732877,"4043 E Princeton Ave, Gilbert, AZ 85234 ",85234,0.7529909014701843,249000,https://www.zillow.com/homedetails/4043-E-Princeton-Ave-Gilbert-AZ-85234/8272541_zpid/,33.3655,-111.70299999999999,2017-10-01,2017-10-01
1232846,22672090,"425 N Ranger Ct, Gilbert, AZ 85234 ",85234,0.7527406215667725,199900,https://www.zillow.com/homedetails/425-N-Ranger-Ct-Gilbert-AZ-85234/82820199_zpid/,33.3582,-111.68799999999999,2017-08-31,2017-08-31
9002814,22610828,"24586 W Atlanta Ave, Buckeye, AZ 85326 ",85326,0.7526783347129822,182900,https://www.zillow.com/homedetails/24586-W-Atlanta-Ave-Buckeye-AZ-85326/95179241_zpid/,33.3998,-112.56299999999999,2017-08-29,2017-08-29
1220689,22709683,"219 N Concord St, Gilbert, AZ 85234 ",85234,0.7526149153709412,247000,https://www.zillow.com/homedetails/219-N-Concord-St-Gilbert-AZ-85234/8235651_zpid/,33.3542,-111.76899999999999,2017-09-21,2017-09-21
95571,23586580,"22624 S 208th St, Queen Creek, AZ 85142 ",85142,0.7525137066841125,224500,http://www.zillow.com/homedetails/22624-S-208th-St-Queen-Creek-AZ-85142/59260575_zpid,33.2426,-111.632,2017-10-12,2017-10-12
1257684,22713926,"1956 S Falcon Dr, Gilbert, AZ 85295 ",85295,0.752463698387146,227000,https://www.zillow.com/homedetails/1956-S-Falcon-Dr-Gilbert-AZ-85295/60987878_zpid/,33.315,-111.695,2017-09-24,2017-09-24
9019013,22730232,"898 S 242nd Ln, Buckeye, AZ 85326 ",85326,0.7523460984230042,214900,https://www.zillow.com/homedetails/898-S-242nd-Ln-Buckeye-AZ-85326/67797697_zpid/,33.4382,-112.572,2017-09-28,2017-09-28
801775,22692316,"946 E 8th Ave, Mesa, AZ 85204 ",85204,0.7521373629570007,200000,https://www.zillow.com/homedetails/946-E-8th-Ave-Mesa-AZ-85204/7630013_zpid/,33.4008,-111.81,2017-09-19,2017-09-19
446547,22604157,"4817 N 108th Ave, Phoenix, AZ 85037 ",85037,0.7518987655639648,210000,https://www.zillow.com/homedetails/4817-N-108th-Ave-Phoenix-AZ-85037/92354609_zpid/,33.5057,-112.29299999999999,2017-09-01,2017-09-01
1257559,22611690,"1940 S Falcon Dr, Gilbert, AZ 85295 ",85295,0.7518337368965149,226000,https://www.zillow.com/homedetails/1940-S-Falcon-Dr-Gilbert-AZ-85295/60987881_zpid/,33.3153,-111.695,2017-09-02,2017-09-02
757234,22645875,"4010 E Decatur St, Mesa, AZ 85205 ",85205,0.7512724995613098,210000,https://www.zillow.com/homedetails/4010-E-Decatur-St-Mesa-AZ-85205/7638161_zpid/,33.4267,-111.744,2017-09-09,2017-09-09
793752,22677197,"2301 E Catalina Ave, Mesa, AZ 85204 ",85204,0.7512724995613098,220000,https://www.zillow.com/homedetails/2301-E-Catalina-Ave-Mesa-AZ-85204/7647115_zpid/,33.4038,-111.78200000000001,2017-09-14,2017-09-14
1029525,22523281,"2348 E Gleneagle Dr, Chandler, AZ 85249 ",85249,0.7512645721435547,244500,https://www.zillow.com/homedetails/2348-E-Gleneagle-Dr-Chandler-AZ-85249/52432697_zpid/,33.2049,-111.8,2017-08-16,2017-08-16
92365,22738132,"21474 E Alyssa Rd, Queen Creek, AZ 85142 ",85142,0.7512558102607727,242500,https://www.zillow.com/homedetails/21474-E-Alyssa-Rd-Queen-Creek-AZ-85142/81953291_zpid/,33.2576,-111.62100000000001,2017-10-03,2017-10-03
787654,22696973,"1748 E Jacinto Cir, Mesa, AZ 85204 ",85204,0.7510470151901245,214900,https://www.zillow.com/homedetails/1748-E-Jacinto-Cir-Mesa-AZ-85204/7628652_zpid/,33.3798,-111.79299999999999,2017-09-17,2017-09-17
933347,22703128,"25531 W Ripple Rd, Buckeye, AZ 85326 ",85326,0.7508066296577454,194500,https://www.zillow.com/homedetails/25531-W-Ripple-Rd-Buckeye-AZ-85326/71610853_zpid/,33.4232,-112.6,2017-09-21,2017-09-21
785755,22641700,"1317 S Rose Cir, Mesa, AZ 85204 ",85204,0.7507515549659729,220000,https://www.zillow.com/homedetails/1317-S-Rose-Cir-Mesa-AZ-85204/7652467_zpid/,33.3914,-111.78299999999999,2017-09-08,2017-09-08
801715,22703446,"944 E Hampton Ave, Mesa, AZ 85204 ",85204,0.75058913230896,214000,https://www.zillow.com/homedetails/944-E-Hampton-Ave-Mesa-AZ-85204/92349034_zpid/,33.3899,-111.811,2017-09-21,2017-09-21
202455,22723275,"8103 S 5th Ave, Phoenix, AZ 85041 ",85041,0.7505132555961609,225000,https://www.zillow.com/homedetails/8103-S-5th-Ave-Phoenix-AZ-85041/95142752_zpid/,33.3731,-112.08,2017-09-26,2017-09-26
680056,22723943,"8550 E Lakeview Ave, Mesa, AZ 85209 ",85209,0.750367283821106,224900,https://www.zillow.com/homedetails/8550-E-Lakeview-Ave-Mesa-AZ-85209/54709538_zpid/,33.3745,-111.65,2017-09-27,2017-09-27
796913,22628966,"3127 E Delta Ave, Mesa, AZ 85204 ",85204,0.7502484917640686,207500,https://www.zillow.com/homedetails/3127-E-Delta-Ave-Mesa-AZ-85204/7646166_zpid/,33.4016,-111.764,2017-09-01,2017-09-01
1028837,22710189,"2258 E Palm Beach Dr, Chandler, AZ 85249 ",85249,0.7502148151397705,214900,https://www.zillow.com/homedetails/2258-E-Palm-Beach-Dr-Chandler-AZ-85249/52432553_zpid/,33.2067,-111.802,2017-09-22,2017-09-22
8996687,22565787,"24642 W Atlanta Ave, Buckeye, AZ 85326 ",85326,0.7501276731491089,181900,https://www.zillow.com/homedetails/24642-W-Atlanta-Ave-Buckeye-AZ-85326/95083060_zpid/,33.3998,-112.56299999999999,2017-08-23,2017-08-23
658688,22705407,"2223 S Gordon, Mesa, AZ 85209 ",85209,0.7501236200332642,205000,https://www.zillow.com/homedetails/2223-S-Gordon-Mesa-AZ-85209/55279970_zpid/,33.3751,-111.645,2017-09-22,2017-09-22
941834,22675362,"664 S 231st Dr, Buckeye, AZ 85326 ",85326,0.7499688267707825,209900,https://www.zillow.com/homedetails/664-S-231st-Dr-Buckeye-AZ-85326/67769354_zpid/,33.4409,-112.54799999999999,2017-09-14,2017-09-14
1255382,22583179,"1733 E Elgin St, Gilbert, AZ 85295 ",85295,0.7499247789382935,215000,https://www.zillow.com/homedetails/1733-E-Elgin-St-Gilbert-AZ-85295/81990880_zpid/,33.2978,-111.75299999999999,2017-08-26,2017-08-26
307175,22727935,"39629 N Bent Creek Ct, Anthem, AZ 85086 ",85086,0.7496382594108582,229900,https://www.zillow.com/homedetails/39629-N-Bent-Creek-Ct-Anthem-AZ-85086/62730938_zpid/,33.8454,-112.09899999999999,2017-09-29,2017-09-29
63209,22579733,"40701 N Courage Trl, Anthem, AZ 85086 ",85086,0.7496285438537598,239990,https://www.zillow.com/homedetails/40701-N-Courage-Trl-Anthem-AZ-85086/53611232_zpid/,33.854,-112.137,2017-08-25,2017-08-25
920061,22499638,"22523 W Pima St, Buckeye, AZ 85326 ",85326,0.7482731938362122,172500,https://www.zillow.com/homedetails/22523-W-Pima-St-Buckeye-AZ-85326/62739294_zpid/,33.4333,-112.535,2017-08-11,2017-08-11
442116,22621084,"4125 N 108th Dr, Phoenix, AZ 85037 ",85037,0.7481234669685364,179900,https://www.zillow.com/homedetails/4125-N-108th-Dr-Phoenix-AZ-85037/7477927_zpid/,33.4944,-112.295,2017-09-04,2017-09-04
930553,22578800,"24857 W Hacienda Ave, Buckeye, AZ 85326 ",85326,0.7479444146156311,189400,https://www.zillow.com/homedetails/24857-W-Hacienda-Ave-Buckeye-AZ-85326/67694664_zpid/,33.4084,-112.586,2017-08-24,2017-08-24
13631,22747292,"2627 W Novak Way, Phoenix, AZ 85041 ",85041,0.7479091882705688,230000,https://www.zillow.com/homedetails/2627-W-Novak-Way-Phoenix-AZ-85041/62727584_zpid/,33.3888,-112.116,2017-10-09,2017-10-09
757820,22564384,"4139 E Downing St, Mesa, AZ 85205 ",85205,0.7477176189422607,237900,https://www.zillow.com/homedetails/4139-E-Downing-St-Mesa-AZ-85205/7638255_zpid/,33.429,-111.742,2017-08-22,2017-08-22
9005631,22636976,"1854 S Glenview, Mesa, AZ 85204 ",85204,0.7476333975791931,210000,https://www.zillow.com/homedetails/1854-S-Glenview-Mesa-AZ-85204/7653204_zpid/,33.381,-111.775,2017-09-07,2017-09-07
796263,22668183,"2904 E Pueblo Ave, Mesa, AZ 85204 ",85204,0.7476333975791931,219900,https://www.zillow.com/homedetails/2904-E-Pueblo-Ave-Mesa-AZ-85204/7646056_zpid/,33.4013,-111.76799999999999,2017-09-08,2017-09-08
1209912,22725332,"1043 N Sailors Way, Gilbert, AZ 85234 ",85234,0.7475027441978455,245000,https://www.zillow.com/homedetails/1043-N-Sailors-Way-Gilbert-AZ-85234/8248468_zpid/,33.3698,-111.765,2017-09-27,2017-09-27
934119,22610839,"25609 W Globe Ave, Buckeye, AZ 85326 ",85326,0.7473613619804382,216900,https://www.zillow.com/homedetails/25609-W-Globe-Ave-Buckeye-AZ-85326/67787245_zpid/,33.4161,-112.602,2017-08-31,2017-08-31
790406,22730235,"1035 E Millett Ave, Mesa, AZ 85204 ",85204,0.7472875714302063,247500,https://www.zillow.com/homedetails/1035-E-Millett-Ave-Mesa-AZ-85204/7629863_zpid/,33.3993,-111.809,2017-09-29,2017-09-29
801140,22651109,"920 S Fraser Cir, Mesa, AZ 85204 ",85204,0.7471681237220764,212900,https://www.zillow.com/homedetails/920-S-Fraser-Cir-Mesa-AZ-85204/7629698_zpid/,33.3983,-111.81200000000001,2017-09-06,2017-09-06
1869378,22733514,"5003 S 243RD Ln, Buckeye, AZ 85326 ",85326,0.7471463680267334,204900,https://www.zillow.com/homedetails/5003-S-243RD-Ln-Buckeye-AZ-85326/95100393_zpid/,33.4074,-112.57600000000001,2017-10-03,2017-10-03
199575,22576273,"6032 S 20th Ave, Phoenix, AZ 85041 ",85041,0.7470678091049194,204900,https://www.zillow.com/homedetails/6032-S-20th-Ave-Phoenix-AZ-85041/67781701_zpid/,33.3915,-112.102,2017-08-24,2017-08-24
795306,22702490,"2548 E Inverness Ave, Mesa, AZ 85204 ",85204,0.746968150138855,218000,https://www.zillow.com/homedetails/2548-E-Inverness-Ave-Mesa-AZ-85204/7652903_zpid/,33.3824,-111.77600000000001,2017-09-21,2017-09-21
931701,22578804,"25161 W Carson Ct, Buckeye, AZ 85326 ",85326,0.7469451427459717,187900,https://www.zillow.com/homedetails/25161-W-Carson-Ct-Buckeye-AZ-85326/95187538_zpid/,33.3825,-112.59200000000001,2017-08-25,2017-08-25
916032,22730186,"21645 W Hilton Ave, Buckeye, AZ 85326 ",85326,0.7469179034233093,199000,https://www.zillow.com/homedetails/21645-W-Hilton-Ave-Buckeye-AZ-85326/95152100_zpid/,33.427,-112.516,2017-09-30,2017-09-30
916045,22730173,"21663 W Hilton Ave, Buckeye, AZ 85326 ",85326,0.7469179034233093,200000,https://www.zillow.com/homedetails/21663-W-Hilton-Ave-Buckeye-AZ-85326/95109894_zpid/,33.4267,-112.516,2017-09-28,2017-09-28
759787,22636929,"4855 E Encanto St, Mesa, AZ 85205 ",85205,0.7467910647392273,249900,https://www.zillow.com/homedetails/4855-E-Encanto-St-Mesa-AZ-85205/7633678_zpid/,33.4338,-111.726,2017-09-07,2017-09-07
772099,22694976,"149 N 63rd St, Mesa, AZ 85205 ",85205,0.7465850114822388,219000,https://www.zillow.com/homedetails/149-N-63rd-St-Mesa-AZ-85205/7666772_zpid/,33.4189,-111.695,2017-09-20,2017-09-20
935252,22542994,"25734 W Ripple Rd, Buckeye, AZ 85326 ",85326,0.7465360760688782,245000,https://www.zillow.com/homedetails/25734-W-Ripple-Rd-Buckeye-AZ-85326/81973892_zpid/,33.4236,-112.605,2017-08-21,2017-08-21
1183581,22640638,"1892 S Oak St, Gilbert, AZ 85233 ",85233,0.746482789516449,245000,https://www.zillow.com/homedetails/1892-S-Oak-St-Gilbert-AZ-85233/8195692_zpid/,33.3162,-111.795,2017-09-07,2017-09-07
432066,22706407,"11016 W Pierson St, Phoenix, AZ 85037 ",85037,0.7462810277938843,214900,https://www.zillow.com/homedetails/11016-W-Pierson-St-Phoenix-AZ-85037/95085111_zpid/,33.506,-112.29700000000001,2017-09-22,2017-09-22
917471,22730193,"22028 W Morning Glory St, Buckeye, AZ 85326 ",85326,0.7461893558502197,218000,https://www.zillow.com/homedetails/22028-W-Morning-Glory-St-Buckeye-AZ-85326/62739186_zpid/,33.4445,-112.524,2017-09-30,2017-09-30
785981,22728236,"1346 E Nielson Ave, Mesa, AZ 85204 ",85204,0.7461826205253601,220000,https://www.zillow.com/homedetails/1346-E-Nielson-Ave-Mesa-AZ-85204/7624301_zpid/,33.4109,-111.802,2017-09-28,2017-09-28
771858,23649831,"929 N Sandal Cir, Mesa, AZ 85205 ",85205,0.7461363077163696,249900,https://www.zillow.com/homedetails/929-N-Sandal-Cir-Mesa-AZ-85205/7673272_zpid/,33.4326,-111.70700000000001,2017-10-12,2017-10-12
9016379,22710160,"1411 E Gary Dr, Chandler, AZ 85225 ",85225,0.745825469493866,249900,https://www.zillow.com/homedetails/1411-E-Gary-Dr-Chandler-AZ-85225/8204321_zpid/,33.3214,-111.81700000000001,2017-09-22,2017-09-22
793714,22638819,"2266 E Diamond Ave, Mesa, AZ 85204 ",85204,0.7456180453300476,249900,https://www.zillow.com/homedetails/2266-E-Diamond-Ave-Mesa-AZ-85204/7647181_zpid/,33.4023,-111.78299999999999,2017-09-07,2017-09-07
926405,22633378,"23677 W Parkway Dr, Buckeye, AZ 85326 ",85326,0.7453583478927612,170000,https://www.zillow.com/homedetails/23677-W-Parkway-Dr-Buckeye-AZ-85326/88791675_zpid/,33.4049,-112.56,2017-09-06,2017-09-06
8982134,22738473,"1723 W Minton St, Phoenix, AZ 85041 ",85041,0.7453181743621826,224999,https://www.zillow.com/homedetails/1723-W-Minton-St-Phoenix-AZ-85041/121854453_zpid/,33.3807,-112.096,2017-10-04,2017-10-04
9009527,22662854,"20192 W Desert Bloom St, Buckeye, AZ 85326 ",85326,0.7451930046081543,205288,https://www.zillow.com/homedetails/20192-W-Desert-Bloom-St-Buckeye-AZ-85326/95119017_zpid/,33.4365,-112.527,2017-09-12,2017-09-12
199915,22737351,"6230 S 18th Ave, Phoenix, AZ 85041 ",85041,0.7451083064079285,185000,https://www.zillow.com/homedetails/6230-S-18th-Ave-Phoenix-AZ-85041/7504355_zpid/,33.3895,-112.095,2017-09-26,2017-09-26
928549,22730204,"23982 W Lasso Ln, Buckeye, AZ 85326 ",85326,0.7449991106987,245000,https://www.zillow.com/homedetails/23982-W-Lasso-Ln-Buckeye-AZ-85326/61631226_zpid/,33.4391,-112.56700000000001,2017-09-29,2017-09-29
796944,22581061,"3137 E Capri Cir, Mesa, AZ 85204 ",85204,0.7445951700210571,243900,https://www.zillow.com/homedetails/3137-E-Capri-Cir-Mesa-AZ-85204/7646315_zpid/,33.4064,-111.76299999999999,2017-08-25,2017-08-25
682956,22746751,"9317 E Lompoc Ave, Mesa, AZ 85209 ",85209,0.7443979382514954,243000,https://www.zillow.com/homedetails/9317-E-Lompoc-Ave-Mesa-AZ-85209/52434588_zpid/,33.3719,-111.631,2017-10-10,2017-10-10
758261,22656932,"4319 E Contessa St, Mesa, AZ 85205 ",85205,0.7441856265068054,214900,https://www.zillow.com/homedetails/4319-E-Contessa-St-Mesa-AZ-85205/7638031_zpid/,33.4249,-111.73899999999999,2017-09-11,2017-09-11
922723,22558932,"22943 W Devin Dr, Buckeye, AZ 85326 ",85326,0.7440012097358704,182500,https://www.zillow.com/homedetails/22943-W-Devin-Dr-Buckeye-AZ-85326/81975227_zpid/,33.4401,-112.544,2017-08-22,2017-08-22
61378,22588190,"35106 N 30th Ln, Phoenix, AZ 85086 ",85086,0.7439034581184387,225000,https://www.zillow.com/homedetails/35106-N-30th-Ln-Phoenix-AZ-85086/67765363_zpid/,33.8031,-112.125,2017-08-24,2017-08-24
940860,22572801,"5801 S 249th Dr, Buckeye, AZ 85326 ",85326,0.7438730001449585,189900,https://www.zillow.com/homedetails/5801-S-249th-Dr-Buckeye-AZ-85326/82386024_zpid/,33.3945,-112.587,2017-08-24,2017-08-24
9002820,22740780,"5111 S 245TH Ln, Buckeye, AZ 85326 ",85326,0.7436537146568298,238900,https://www.zillow.com/homedetails/5111-S-245TH-Ln-Buckeye-AZ-85326/95077384_zpid/,33.4,-112.579,2017-10-06,2017-10-06
926969,22542995,"23774 W Lumbee St, Buckeye, AZ 85326 ",85326,0.7432959079742432,185000,https://www.zillow.com/homedetails/23774-W-Lumbee-St-Buckeye-AZ-85326/88785267_zpid/,33.4336,-112.56200000000001,2017-08-21,2017-08-21
201868,23512324,"7315 S 30th Ave, Phoenix, AZ 85041 ",85041,0.7431758642196655,220000,https://www.zillow.com/homedetails/7315-S-30th-Ave-Phoenix-AZ-85041/60977105_zpid/,33.3795,-112.12299999999999,2017-10-11,2017-10-11
916094,22721825,"21699 W Hess Ave, Buckeye, AZ 85326 ",85326,0.7431359887123108,199900,https://www.zillow.com/homedetails/21699-W-Hess-Ave-Buckeye-AZ-85326/95095792_zpid/,33.4269,-112.51700000000001,2017-09-26,2017-09-26
760190,22743102,"4951 E Downing St, Mesa, AZ 85205 ",85205,0.7429377436637878,249900,https://www.zillow.com/homedetails/4951-E-Downing-St-Mesa-AZ-85205/7638936_zpid/,33.429,-111.72399999999999,2017-10-06,2017-10-06
200810,22694521,"6826 S 38th Ln, Phoenix, AZ 85041 ",85041,0.7423600554466248,204900,https://www.zillow.com/homedetails/6826-S-38th-Ln-Phoenix-AZ-85041/67789778_zpid/,33.384,-112.14200000000001,2017-09-19,2017-09-19
917655,22742983,"22055 W Hadley St, Buckeye, AZ 85326 ",85326,0.7421872615814209,213000,https://www.zillow.com/homedetails/22055-W-Hadley-St-Buckeye-AZ-85326/82385937_zpid/,33.4377,-112.525,2017-10-07,2017-10-07
794442,22623428,"2433 E Juanita Ave, Mesa, AZ 85204 ",85204,0.7421006560325623,219900,https://www.zillow.com/homedetails/2433-E-Juanita-Ave-Mesa-AZ-85204/7652861_zpid/,33.3818,-111.78,2017-09-04,2017-09-04
916277,22744935,"21764 W Renegade St, Buckeye, AZ 85326 ",85326,0.7420921921730042,209900,https://www.zillow.com/homedetails/21764-W-Renegade-St-Buckeye-AZ-85326/71629105_zpid/,33.4296,-112.51899999999999,2017-10-08,2017-10-08
933703,22510420,"25559 W Burgess Ln, Buckeye, AZ 85326 ",85326,0.742060124874115,224000,https://www.zillow.com/homedetails/25559-W-Burgess-Ln-Buckeye-AZ-85326/81982923_zpid/,33.3884,-112.601,2017-08-14,2017-08-14
426690,22695316,"10107 W Highland Ave, Phoenix, AZ 85037 ",85037,0.7418851256370544,208900,https://www.zillow.com/homedetails/10107-W-Highland-Ave-Phoenix-AZ-85037/7483865_zpid/,33.5056,-112.279,2017-09-19,2017-09-19
932686,22558940,"253 N 222nd Dr, Buckeye, AZ 85326 ",85326,0.7417066097259521,205000,https://www.zillow.com/homedetails/253-N-222nd-Dr-Buckeye-AZ-85326/60997084_zpid/,33.45,-112.53,2017-08-22,2017-08-22
770281,22536304,"6528 E Mclellan Rd, Mesa, AZ 85205 ",85205,0.7413498759269714,247900,https://www.zillow.com/homedetails/6528-E-Mclellan-Rd-Mesa-AZ-85205/7676993_zpid/,33.4446,-111.69,2017-08-18,2017-08-18
1549822,22576598,"26221 S Saddletree Dr, Sun Lakes, AZ 85248 ",85248,0.7410506010055542,239000,https://www.zillow.com/homedetails/26221-S-Saddletree-Dr-Sun-Lakes-AZ-85248/8222208_zpid/,33.2079,-111.859,2017-08-25,2017-08-25
197525,22710801,"4102 W Carter Rd, Phoenix, AZ 85041 ",85041,0.7409684658050537,189000,https://www.zillow.com/homedetails/4102-W-Carter-Rd-Phoenix-AZ-85041/60047540_zpid/,33.3821,-112.147,2017-09-21,2017-09-21
1550411,22524334,"26441 S Howard Dr, Sun Lakes, AZ 85248 ",85248,0.7408028244972229,239900,https://www.zillow.com/homedetails/26441-S-Howard-Dr-Sun-Lakes-AZ-85248/8221644_zpid/,33.2056,-111.863,2017-08-20,2017-08-20
195902,23527658,"3329 W Chanute Pass, Phoenix, AZ 85041 ",85041,0.7407880425453186,225900,https://www.zillow.com/homedetails/3329-W-Chanute-Pass-Phoenix-AZ-85041/71628063_zpid/,33.398,-112.131,2017-10-11,2017-10-11
444887,22730839,"4607 N 92nd Ln, Phoenix, AZ 85037 ",85037,0.7406497597694397,214900,https://www.zillow.com/homedetails/4607-N-92nd-Ln-Phoenix-AZ-85037/7466411_zpid/,33.5044,-112.259,2017-09-28,2017-09-28
63131,22734526,"40549 N Territory Trl, Anthem, AZ 85086 ",85086,0.7398759722709656,229000,https://www.zillow.com/homedetails/40549-N-Territory-Trl-Anthem-AZ-85086/50184030_zpid/,33.8524,-112.13,2017-10-03,2017-10-03
916059,22590873,"21662 W Watkins St, Buckeye, AZ 85326 ",85326,0.7396968603134155,204500,https://www.zillow.com/homedetails/21662-W-Watkins-St-Buckeye-AZ-85326/95129729_zpid/,33.4259,-112.516,2017-08-26,2017-08-26
124318,22690634,"13242 W Bonanza Dr, Sun City West, AZ 85375 ",85375,0.7395018935203552,179000,https://www.zillow.com/homedetails/13242-W-Bonanza-Dr-Sun-City-West-AZ-85375/8107765_zpid/,33.664,-112.34,2017-09-18,2017-09-18
939572,22712589,"4888 S 245th Dr, Buckeye, AZ 85326 ",85326,0.7394863963127136,169500,https://www.zillow.com/homedetails/4888-S-245th-Dr-Buckeye-AZ-85326/95162677_zpid/,33.4022,-112.579,2017-09-23,2017-09-23
1075269,22710122,"1803 N Cheri Lynn Dr, Chandler, AZ 85225 ",85225,0.7394313812255859,234900,https://www.zillow.com/homedetails/1803-N-Cheri-Lynn-Dr-Chandler-AZ-85225/8183501_zpid/,33.3321,-111.853,2017-09-22,2017-09-22
22076,22561221,"10826 W Taft St, Phoenix, AZ 85037 ",85037,0.7393566966056824,227000,https://www.zillow.com/homedetails/10826-W-Taft-St-Phoenix-AZ-85037/81969986_zpid/,33.5046,-112.294,2017-08-21,2017-08-21
1183623,22681166,"190 W Juanita Ave, Gilbert, AZ 85233 ",85233,0.7393169403076172,232900,https://www.zillow.com/homedetails/190-W-Juanita-Ave-Gilbert-AZ-85233/8173744_zpid/,33.3714,-111.794,2017-09-14,2017-09-14
936356,22740755,"25814 W Victory St, Buckeye, AZ 85326 ",85326,0.73911052942276,179900,https://www.zillow.com/homedetails/25814-W-Victory-St-Buckeye-AZ-85326/67796893_zpid/,33.415,-112.60600000000001,2017-10-05,2017-10-05
924844,22513993,"23352 W Cocopah St, Buckeye, AZ 85326 ",85326,0.7385610938072205,204900,https://www.zillow.com/homedetails/23352-W-Cocopah-St-Buckeye-AZ-85326/62739753_zpid/,33.4322,-112.553,2017-08-16,2017-08-16
926557,22675328,"23705 W Hidalgo Ave, Buckeye, AZ 85326 ",85326,0.7384896874427795,173000,https://www.zillow.com/homedetails/23705-W-Hidalgo-Ave-Buckeye-AZ-85326/82829046_zpid/,33.3934,-112.561,2017-09-14,2017-09-14
1685219,22651662,"13114 W Paintbrush Dr, Sun City West, AZ 85375 ",85375,0.7379878163337708,245000,https://www.zillow.com/homedetails/13114-W-Paintbrush-Dr-Sun-City-West-AZ-85375/8114688_zpid/,33.6753,-112.344,2017-09-11,2017-09-11
762293,22610337,"512 N Oakland, Mesa, AZ 85205 ",85205,0.73758864402771,220000,https://www.zillow.com/homedetails/512-N-Oakland-Mesa-AZ-85205/7638061_zpid/,33.4251,-111.738,2017-08-30,2017-08-30
939161,22740776,"4160 S 249th Dr, Buckeye, AZ 85326 ",85326,0.7375830411911011,187000,https://www.zillow.com/homedetails/4160-S-249th-Dr-Buckeye-AZ-85326/71598959_zpid/,33.4109,-112.587,2017-10-05,2017-10-05
302851,22739845,"2353 W Owens Ct, Anthem, AZ 85086 ",85086,0.7374118566513062,234900,https://www.zillow.com/homedetails/2353-W-Owens-Ct-Anthem-AZ-85086/59424840_zpid/,33.8499,-112.111,2017-10-05,2017-10-05
9006471,22730190,"24506 W Atlanta Ave, Buckeye, AZ 85326 ",85326,0.737363338470459,196900,https://www.zillow.com/homedetails/24506-W-Atlanta-Ave-Buckeye-AZ-85326/95102510_zpid/,33.3998,-112.56299999999999,2017-09-28,2017-09-28
9006472,22730188,"24482 W Atlanta Ave, Buckeye, AZ 85326 ",85326,0.737363338470459,196900,https://www.zillow.com/homedetails/24482-W-Atlanta-Ave-Buckeye-AZ-85326/95129321_zpid/,33.3998,-112.56299999999999,2017-09-28,2017-09-28
762288,22739025,"5121 E Colby St, Mesa, AZ 85205 ",85205,0.7371835708618164,210000,https://www.zillow.com/homedetails/5121-E-Colby-St-Mesa-AZ-85205/7639323_zpid/,33.4253,-111.721,2017-10-04,2017-10-04
432006,22730812,"11007 W College Dr, Phoenix, AZ 85037 ",85037,0.7371424436569214,200000,https://www.zillow.com/homedetails/11007-W-College-Dr-Phoenix-AZ-85037/94638476_zpid/,33.5071,-112.29700000000001,2017-09-28,2017-09-28
930053,22740750,"24761 W Wedgewood Ave, Buckeye, AZ 85326 ",85326,0.7371193766593933,197900,https://www.zillow.com/homedetails/24761-W-Wedgewood-Ave-Buckeye-AZ-85326/95072633_zpid/,33.4105,-112.584,2017-10-04,2017-10-04
425807,22625501,"10014 W Montecito Ave, Phoenix, AZ 85037 ",85037,0.7370709180831909,175000,https://www.zillow.com/homedetails/10014-W-Montecito-Ave-Phoenix-AZ-85037/7484278_zpid/,33.4996,-112.277,2017-09-05,2017-09-05
8999091,22584682,"9071 S 255th Dr, Buckeye, AZ 85326 ",85326,0.7370578646659851,189997,https://www.zillow.com/homedetails/9071-S-255th-Dr-Buckeye-AZ-85326/81955550_zpid/,33.3644,-112.6,2017-08-26,2017-08-26
566482,22567157,"10203 E Keats Ave, Mesa, AZ 85209 ",85209,0.7370206117630005,222800,https://www.zillow.com/homedetails/10203-E-Keats-Ave-Mesa-AZ-85209/61454625_zpid/,33.3766,-111.61399999999999,2017-08-23,2017-08-23
923223,22520715,"23004 W Yavapai St, Buckeye, AZ 85326 ",85326,0.7369289398193359,180000,https://www.zillow.com/homedetails/23004-W-Yavapai-St-Buckeye-AZ-85326/62739346_zpid/,33.4351,-112.546,2017-08-18,2017-08-18
922906,23526375,"22966 W Solano Dr, Buckeye, AZ 85326 ",85326,0.7369251251220703,179900,https://www.zillow.com/homedetails/22966-W-Solano-Dr-Buckeye-AZ-85326/67799697_zpid/,33.4468,-112.545,2017-10-11,2017-10-11
1273849,22731224,"4557 E Loma Vista St, Gilbert, AZ 85295 ",85295,0.7368144989013672,239900,https://www.zillow.com/homedetails/4557-E-Loma-Vista-St-Gilbert-AZ-85295/60987796_zpid/,33.3156,-111.69200000000001,2017-09-28,2017-09-28
670030,22668394,"7346 E Naranja Ave, Mesa, AZ 85209 ",85209,0.7366765141487122,244900,https://www.zillow.com/homedetails/7346-E-Naranja-Ave-Mesa-AZ-85209/8274462_zpid/,33.3659,-111.677,2017-08-28,2017-08-28
193310,22933774,"2411 W Melody Dr, Phoenix, AZ 85041 ",85041,0.7366387844085693,238000,https://www.zillow.com/homedetails/2411-W-Melody-Dr-Phoenix-AZ-85041/92348074_zpid/,33.3744,-112.11200000000001,2017-10-10,2017-10-10
923550,22578792,"23067 W La Pasada Blvd, Buckeye, AZ 85326 ",85326,0.736499547958374,208900,https://www.zillow.com/homedetails/23067-W-La-Pasada-Blvd-Buckeye-AZ-85326/67799649_zpid/,33.4448,-112.54700000000001,2017-08-25,2017-08-25
932854,22675354,"25394 W Darrel Dr, Buckeye, AZ 85326 ",85326,0.7364883422851562,180000,https://www.zillow.com/homedetails/25394-W-Darrel-Dr-Buckeye-AZ-85326/89026843_zpid/,33.3844,-112.59700000000001,2017-09-14,2017-09-14
987356,22579579,"1267 S Bogle Ct, Chandler, AZ 85286 ",85286,0.73638516664505,225000,https://www.zillow.com/homedetails/1267-S-Bogle-Ct-Chandler-AZ-85286/60985443_zpid/,33.2868,-111.83200000000001,2017-08-24,2017-08-24
999687,22691060,"2301 E Spruce Dr, Chandler, AZ 85286 ",85286,0.736248254776001,215900,https://www.zillow.com/homedetails/2301-E-Spruce-Dr-Chandler-AZ-85286/50205046_zpid/,33.2835,-111.801,2017-09-18,2017-09-18
1193593,22681259,"70 W Patrick St, Gilbert, AZ 85233 ",85233,0.7359613180160522,249000,https://www.zillow.com/homedetails/70-W-Patrick-St-Gilbert-AZ-85233/8195398_zpid/,33.3172,-111.791,2017-09-16,2017-09-16
767943,22723927,"6205 E Covina St, Mesa, AZ 85205 ",85205,0.7358620166778564,217000,https://www.zillow.com/homedetails/6205-E-Covina-St-Mesa-AZ-85205/7668203_zpid/,33.4244,-111.697,2017-09-26,2017-09-26
1272519,22640643,"4257 E Dublin St, Gilbert, AZ 85295 ",85295,0.7356900572776794,235000,https://www.zillow.com/homedetails/4257-E-Dublin-St-Gilbert-AZ-85295/55276032_zpid/,33.3192,-111.698,2017-08-26,2017-08-26
567748,23649695,"10262 E Isleta Ave, Mesa, AZ 85209 ",85209,0.7355843186378479,224900,https://www.zillow.com/homedetails/10262-E-Isleta-Ave-Mesa-AZ-85209/67792324_zpid/,33.385999999999996,-111.609,2017-10-13,2017-10-13
1704949,22651668,"19818 N 129th Dr, Sun City West, AZ 85375 ",85375,0.7355684638023376,175000,https://www.zillow.com/homedetails/19818-N-129th-Dr-Sun-City-West-AZ-85375/8110091_zpid/,33.6652,-112.334,2017-09-11,2017-09-11
927653,22610790,"23853 W Hammond Ln, Buckeye, AZ 85326 ",85326,0.7351047992706299,199000,https://www.zillow.com/homedetails/23853-W-Hammond-Ln-Buckeye-AZ-85326/89137034_zpid/,33.4247,-112.564,2017-08-29,2017-08-29
430429,22604080,"10834 W Minnezona Ave, Phoenix, AZ 85037 ",85037,0.7348595261573792,210000,https://www.zillow.com/homedetails/10834-W-Minnezona-Ave-Phoenix-AZ-85037/81975403_zpid/,33.5017,-112.294,2017-08-31,2017-08-31
921082,22565776,"22629 W Mesquite Dr, Buckeye, AZ 85326 ",85326,0.7348313927650452,190000,https://www.zillow.com/homedetails/22629-W-Mesquite-Dr-Buckeye-AZ-85326/71626192_zpid/,33.4482,-112.537,2017-08-23,2017-08-23
1189046,22566629,"474 W Fabens Ln, Gilbert, AZ 85233 ",85233,0.7347264885902405,222222,https://www.zillow.com/homedetails/474-W-Fabens-Ln-Gilbert-AZ-85233/8174598_zpid/,33.3518,-111.8,2017-08-23,2017-08-23
671330,22730281,"7439 E Naranja Ave, Mesa, AZ 85209 ",85209,0.7344074845314026,210000,https://www.zillow.com/homedetails/7439-E-Naranja-Ave-Mesa-AZ-85209/8274274_zpid/,33.3654,-111.67399999999999,2017-09-29,2017-09-29
787431,22705401,"1709 S Almond, Mesa, AZ 85204 ",85204,0.7343985438346863,214990,https://www.zillow.com/homedetails/1709-S-Almond-Mesa-AZ-85204/7652621_zpid/,33.3842,-111.781,2017-09-21,2017-09-21
770841,22730283,"6637 E Fox Cir, Mesa, AZ 85205 ",85205,0.7341660857200623,249999,https://www.zillow.com/homedetails/6637-E-Fox-Cir-Mesa-AZ-85205/7677787_zpid/,33.4358,-111.68700000000001,2017-09-29,2017-09-29
800755,22602022,"828 S Fontana, Mesa, AZ 85204 ",85204,0.7338203191757202,229900,https://www.zillow.com/homedetails/828-S-Fontana-Mesa-AZ-85204/7648007_zpid/,33.4,-111.77,2017-08-31,2017-08-31
1550298,22576596,"26433 S Greencastle Dr, Sun Lakes, AZ 85248 ",85248,0.7337802648544312,239500,https://www.zillow.com/homedetails/26433-S-Greencastle-Dr-Sun-Lakes-AZ-85248/8221753_zpid/,33.2061,-111.865,2017-08-25,2017-08-25
195703,22746425,"3256 W Huntington Dr, Phoenix, AZ 85041 ",85041,0.7337011694908142,217900,https://www.zillow.com/homedetails/3256-W-Huntington-Dr-Phoenix-AZ-85041/71601711_zpid/,33.393,-112.12899999999999,2017-10-06,2017-10-06
805045,22523590,"2902 E Concho Ave, Mesa, AZ 85204 ",85204,0.7333190441131592,227500,https://www.zillow.com/homedetails/2902-E-Concho-Ave-Mesa-AZ-85204/7645929_zpid/,33.4052,-111.76899999999999,2017-08-17,2017-08-17
62626,22734524,"39763 N High Noon Way, Anthem, AZ 85086 ",85086,0.7332423329353333,238990,https://www.zillow.com/homedetails/39763-N-High-Noon-Way-Anthem-AZ-85086/61501922_zpid/,33.846,-112.119,2017-10-02,2017-10-02
924280,22740744,"23224 W Yavapai St, Buckeye, AZ 85326 ",85326,0.7332241535186768,199300,https://www.zillow.com/homedetails/23224-W-Yavapai-St-Buckeye-AZ-85326/81991062_zpid/,33.435,-112.551,2017-10-05,2017-10-05
8986571,22733499,"24633 W Sheraton Ln, Buckeye, AZ 85326 ",85326,0.7332240343093872,216900,https://www.zillow.com/homedetails/24633-W-Sheraton-Ln-Buckeye-AZ-85326/95120222_zpid/,33.4002,-112.581,2017-10-03,2017-10-03
918166,22499635,"22174 W Loma Linda Blvd, Buckeye, AZ 85326 ",85326,0.7332008481025696,220000,https://www.zillow.com/homedetails/22174-W-Loma-Linda-Blvd-Buckeye-AZ-85326/67779522_zpid/,33.4436,-112.52799999999999,2017-08-11,2017-08-11
432342,22695619,"11108 W Calle Del Sol, Phoenix, AZ 85037 ",85037,0.7329051494598389,189900,https://www.zillow.com/homedetails/11108-W-Calle-Del-Sol-Phoenix-AZ-85037/7477778_zpid/,33.4966,-112.29799999999999,2017-09-13,2017-09-13
917134,22573184,"21989 W Pima St, Buckeye, AZ 85326 ",85326,0.7326871156692505,207000,https://www.zillow.com/homedetails/21989-W-Pima-St-Buckeye-AZ-85326/67803608_zpid/,33.4333,-112.524,2017-08-24,2017-08-24
925794,22713529,"23584 W Harrison Dr, Buckeye, AZ 85326 ",85326,0.7326677441596985,179900,https://www.zillow.com/homedetails/23584-W-Harrison-Dr-Buckeye-AZ-85326/95091196_zpid/,33.4308,-112.555,2017-09-24,2017-09-24
25646,22723929,"656 S Williams, Mesa, AZ 85204 ",85204,0.7323795557022095,237500,https://www.zillow.com/homedetails/656-S-Williams-Mesa-AZ-85204/7633384_zpid/,33.4028,-111.795,2017-09-27,2017-09-27
441252,22620699,"3001 N 86th Ln, Phoenix, AZ 85037 ",85037,0.7321468591690063,235000,https://www.zillow.com/homedetails/3001-N-86th-Ln-Phoenix-AZ-85037/7480278_zpid/,33.4814,-112.245,2017-08-29,2017-08-29
806813,22712221,"857 S 33rd Pl, Mesa, AZ 85204 ",85204,0.7321112751960754,229900,https://www.zillow.com/homedetails/857-S-33rd-Pl-Mesa-AZ-85204/7648164_zpid/,33.3994,-111.759,2017-09-23,2017-09-23
8998401,22578783,"19889 W Sherman St, Buckeye, AZ 85326 ",85326,0.7319591045379639,249900,https://www.zillow.com/homedetails/19889-W-Sherman-St-Buckeye-AZ-85326/95116156_zpid/,33.4379,-112.48700000000001,2017-08-25,2017-08-25
804754,22523563,"2716 E Jerome Ave, Mesa, AZ 85204 ",85204,0.7319303154945374,234900,https://www.zillow.com/homedetails/2716-E-Jerome-Ave-Mesa-AZ-85204/7653240_zpid/,33.3813,-111.773,2017-08-17,2017-08-17
941112,22733516,"595 S 220th Ln, Buckeye, AZ 85326 ",85326,0.7318679094314575,202000,https://www.zillow.com/homedetails/595-S-220th-Ln-Buckeye-AZ-85326/81998097_zpid/,33.4416,-112.525,2017-10-03,2017-10-03
309120,22694203,"41407 N Fairgreen Way, Anthem, AZ 85086 ",85086,0.7318397164344788,239900,https://www.zillow.com/homedetails/41407-N-Fairgreen-Way-Anthem-AZ-85086/50183829_zpid/,33.8605,-112.12299999999999,2017-09-19,2017-09-19
520341,22734448,"8921 W Edgemont Ave, Phoenix, AZ 85037 ",85037,0.7316112518310547,199000,https://www.zillow.com/homedetails/8921-W-Edgemont-Ave-Phoenix-AZ-85037/7487901_zpid/,33.4783,-112.25200000000001,2017-10-02,2017-10-02
793729,22655818,"2294 E Alpine Ave, Mesa, AZ 85204 ",85204,0.7315980195999146,189900,https://www.zillow.com/homedetails/2294-E-Alpine-Ave-Mesa-AZ-85204/7640490_zpid/,33.4124,-111.78200000000001,2017-09-11,2017-09-11
914490,22590874,"19630 W Morning Glory St, Buckeye, AZ 85326 ",85326,0.7310656309127808,197000,https://www.zillow.com/homedetails/19630-W-Morning-Glory-St-Buckeye-AZ-85326/95151394_zpid/,33.4459,-112.48200000000001,2017-08-27,2017-08-27
8906433,22747477,"7235 S 17th Dr, Phoenix, AZ 85041 ",85041,0.730919361114502,219999,https://www.zillow.com/homedetails/7235-S-17th-Dr-Phoenix-AZ-85041/121852817_zpid/,33.3821,-112.096,2017-10-08,2017-10-08
934316,23649588,"25630 W Pleasant Ln, Buckeye, AZ 85326 ",85326,0.7308242917060852,227990,https://www.zillow.com/homedetails/25630-W-Pleasant-Ln-Buckeye-AZ-85326/81971720_zpid/,33.391,-112.602,2017-10-12,2017-10-12
62578,22727941,"39714 N Harbour Town Way, Anthem, AZ 85086 ",85086,0.7306607961654663,225000,https://www.zillow.com/homedetails/39714-N-Harbour-Town-Way-Anthem-AZ-85086/62730908_zpid/,33.8457,-112.102,2017-09-28,2017-09-28
671712,22523649,"7461 E Milagro Ave, Mesa, AZ 85209 ",85209,0.730416476726532,245000,https://www.zillow.com/homedetails/7461-E-Milagro-Ave-Mesa-AZ-85209/8273293_zpid/,33.3707,-111.67299999999999,2017-08-17,2017-08-17
9002387,22610370,"6361 E Ivyglen St, Mesa, AZ 85205 ",85205,0.730319082736969,236900,https://www.zillow.com/homedetails/6361-E-Ivyglen-St-Mesa-AZ-85205/92351471_zpid/,33.4469,-111.693,2017-08-29,2017-08-29
759154,22686862,"4716 E Gary St, Mesa, AZ 85205 ",85205,0.7302215099334717,205000,https://www.zillow.com/homedetails/4716-E-Gary-St-Mesa-AZ-85205/7659752_zpid/,33.4395,-111.729,2017-09-15,2017-09-15
940268,22744936,"5418 S 236th Ave, Buckeye, AZ 85326 ",85326,0.7301892042160034,204900,https://www.zillow.com/homedetails/5418-S-236th-Ave-Buckeye-AZ-85326/82828834_zpid/,33.3972,-112.559,2017-10-09,2017-10-09
926137,22520488,"23633 W Sonrisas St, Buckeye, AZ 85326 ",85326,0.7301851511001587,173000,https://www.zillow.com/homedetails/23633-W-Sonrisas-St-Buckeye-AZ-85326/95174074_zpid/,33.4,-112.559,2017-08-17,2017-08-17
660650,22738986,"2345 S Joslyn, Mesa, AZ 85209 ",85209,0.7300696969032288,234900,https://www.zillow.com/homedetails/2345-S-Joslyn-Mesa-AZ-85209/55275141_zpid/,33.3728,-111.65,2017-10-02,2017-10-02
676570,22610379,"8038 E Idaho Ave, Mesa, AZ 85209 ",85209,0.7299352884292603,199900,https://www.zillow.com/homedetails/8038-E-Idaho-Ave-Mesa-AZ-85209/8076873_zpid/,33.3852,-111.65700000000001,2017-09-01,2017-09-01
926538,22578795,"23701 W Grove St, Buckeye, AZ 85326 ",85326,0.7297395467758179,182500,https://www.zillow.com/homedetails/23701-W-Grove-St-Buckeye-AZ-85326/82777091_zpid/,33.3988,-112.561,2017-08-24,2017-08-24
1260156,22606050,"2507 S Sunnyvale Ave, Gilbert, AZ 85295 ",85295,0.7296448945999146,225000,https://www.zillow.com/homedetails/2507-S-Sunnyvale-Ave-Gilbert-AZ-85295/54428070_zpid/,33.3051,-111.71600000000001,2017-08-30,2017-08-30
8991468,22520506,"4978 S 245th Ln, Buckeye, AZ 85326 ",85326,0.7292574644088745,181900,https://www.zillow.com/homedetails/4978-S-245th-Ln-Buckeye-AZ-85326/95072539_zpid/,33.4014,-112.58,2017-08-15,2017-08-15
785901,23754411,"1332 S 31st St, Mesa, AZ 85204 ",85204,0.7291644215583801,245000,https://www.zillow.com/homedetails/1332-S-31st-St-Mesa-AZ-85204/7651776_zpid/,33.3911,-111.765,2017-10-16,2017-10-16
196746,22710799,"3738 W Roeser Rd, Phoenix, AZ 85041 ",85041,0.729137659072876,149000,https://www.zillow.com/homedetails/3738-W-Roeser-Rd-Phoenix-AZ-85041/7503405_zpid/,33.3996,-112.139,2017-09-21,2017-09-21
1212798,22583172,"1302 E Hearne Way, Gilbert, AZ 85234 ",85234,0.7291208505630493,248800,https://www.zillow.com/homedetails/1302-E-Hearne-Way-Gilbert-AZ-85234/8269078_zpid/,33.3568,-111.762,2017-08-24,2017-08-24
923344,22558936,"23018 W Pima St, Buckeye, AZ 85326 ",85326,0.7287456393241882,179000,https://www.zillow.com/homedetails/23018-W-Pima-St-Buckeye-AZ-85326/62739450_zpid/,33.4336,-112.546,2017-08-22,2017-08-22
769446,22684365,"635 N 55th Pl, Mesa, AZ 85205 ",85205,0.7287087440490723,194700,https://www.zillow.com/homedetails/635-N-55th-Pl-Mesa-AZ-85205/7662439_zpid/,33.4277,-111.711,2017-09-16,2017-09-16
777018,22611925,"4747 E Grandview St, Mesa, AZ 85205 ",85205,0.7286402583122253,230000,https://www.zillow.com/homedetails/4747-E-Grandview-St-Mesa-AZ-85205/7659734_zpid/,33.4402,-111.728,2017-09-01,2017-09-01
910741,22565768,"1374 S 231st Ln, Buckeye, AZ 85326 ",85326,0.7285524010658264,194998,https://www.zillow.com/homedetails/1374-S-231st-Ln-Buckeye-AZ-85326/60997442_zpid/,33.4341,-112.54799999999999,2017-08-23,2017-08-23
1030772,22746080,"2535 E La Costa Dr, Chandler, AZ 85249 ",85249,0.7284523248672485,229999,https://www.zillow.com/homedetails/2535-E-La-Costa-Dr-Chandler-AZ-85249/8216057_zpid/,33.2141,-111.79700000000001,2017-10-07,2017-10-07
917596,22740734,"22045 W Gardenia Dr, Buckeye, AZ 85326 ",85326,0.7281229496002197,199900,https://www.zillow.com/homedetails/22045-W-Gardenia-Dr-Buckeye-AZ-85326/62739152_zpid/,33.4457,-112.525,2017-10-05,2017-10-05
9002815,22610827,"24594 W Atlanta Ave, Buckeye, AZ 85326 ",85326,0.7280225157737732,194900,https://www.zillow.com/homedetails/24594-W-Atlanta-Ave-Buckeye-AZ-85326/95147419_zpid/,33.3998,-112.56299999999999,2017-08-31,2017-08-31
13624,22644691,"2526 W Beverly Rd, Phoenix, AZ 85041 ",85041,0.7278168201446533,207000,https://www.zillow.com/homedetails/2526-W-Beverly-Rd-Phoenix-AZ-85041/92425316_zpid/,33.3747,-112.11399999999999,2017-09-08,2017-09-08
1260308,22529765,"2528 E Megan St, Gilbert, AZ 85295 ",85295,0.7277689576148987,225000,https://www.zillow.com/homedetails/2528-E-Megan-St-Gilbert-AZ-85295/81979529_zpid/,33.3209,-111.736,2017-08-13,2017-08-13
445258,22579487,"4631 N 108th Dr, Phoenix, AZ 85037 ",85037,0.7276837229728699,199900,https://www.zillow.com/homedetails/4631-N-108th-Dr-Phoenix-AZ-85037/82240291_zpid/,33.5036,-112.294,2017-08-25,2017-08-25
432974,22734417,"11161 W Brittlewood Dr, Phoenix, AZ 85037 ",85037,0.7275732159614563,215000,https://www.zillow.com/homedetails/11161-W-Brittlewood-Dr-Phoenix-AZ-85037/71619316_zpid/,33.5037,-112.3,2017-10-03,2017-10-03
935923,22675364,"25784 W Burgess Ln, Buckeye, AZ 85326 ",85326,0.7275086641311646,164900,https://www.zillow.com/homedetails/25784-W-Burgess-Ln-Buckeye-AZ-85326/67797483_zpid/,33.3889,-112.60600000000001,2017-09-13,2017-09-13
942415,22692769,"713 E Edison Ave, Buckeye, AZ 85326 ",85326,0.7273738980293274,168500,https://www.zillow.com/homedetails/713-E-Edison-Ave-Buckeye-AZ-85326/8286581_zpid/,33.3723,-112.581,2017-09-19,2017-09-19
8990989,22619317,"988 S 240th Dr, Buckeye, AZ 85326 ",85326,0.7272106409072876,219900,https://www.zillow.com/homedetails/988-S-240th-Dr-Buckeye-AZ-85326/67797815_zpid/,33.4375,-112.568,2017-08-18,2017-08-18
933149,22739714,"25511 W Burgess Ln, Buckeye, AZ 85326 ",85326,0.727208137512207,190000,https://www.zillow.com/homedetails/25511-W-Burgess-Ln-Buckeye-AZ-85326/81997308_zpid/,33.3884,-112.6,2017-10-05,2017-10-05
931037,22643069,"24975 W Dove Mesa Dr, Buckeye, AZ 85326 ",85326,0.7271772623062134,160000,https://www.zillow.com/homedetails/24975-W-Dove-Mesa-Dr-Buckeye-AZ-85326/62739563_zpid/,33.3985,-112.587,2017-09-08,2017-09-08
934842,22740754,"25689 W Morning Dove Ct, Buckeye, AZ 85326 ",85326,0.7271188497543335,179000,https://www.zillow.com/homedetails/25689-W-Morning-Dove-Ct-Buckeye-AZ-85326/60997590_zpid/,33.3834,-112.603,2017-10-06,2017-10-06
805089,22732652,"2922 E Emelita Ave, Mesa, AZ 85204 ",85204,0.7268865704536438,245000,https://www.zillow.com/homedetails/2922-E-Emelita-Ave-Mesa-AZ-85204/7647923_zpid/,33.3988,-111.76700000000001,2017-10-01,2017-10-01
791501,22728235,"1544 E Hilton Ave, Mesa, AZ 85204 ",85204,0.7268264889717102,239888,https://www.zillow.com/homedetails/1544-E-Hilton-Ave-Mesa-AZ-85204/7627616_zpid/,33.3881,-111.79799999999999,2017-09-28,2017-09-28
9019955,22740800,"910 S 199th Ln, Buckeye, AZ 85326 ",85326,0.7267390489578247,245000,https://www.zillow.com/homedetails/910-S-199th-Ln-Buckeye-AZ-85326/95168106_zpid/,33.4383,-112.49,2017-10-05,2017-10-05
932516,22737537,"25271 W Centre Ave, Buckeye, AZ 85326 ",85326,0.7267350554466248,189900,https://www.zillow.com/homedetails/25271-W-Centre-Ave-Buckeye-AZ-85326/67767385_zpid/,33.3668,-112.594,2017-10-03,2017-10-03
1234762,23527364,"4602 E Towne Ln, Gilbert, AZ 85234 ",85234,0.7266585826873779,243900,https://www.zillow.com/homedetails/4602-E-Towne-Ln-Gilbert-AZ-85234/8231328_zpid/,33.3682,-111.69200000000001,2017-10-11,2017-10-11
785966,22523509,"1341 S Rose, Mesa, AZ 85204 ",85204,0.7266383171081543,224999,https://www.zillow.com/homedetails/1341-S-Rose-Mesa-AZ-85204/7652493_zpid/,33.3907,-111.78299999999999,2017-08-17,2017-08-17
8991929,22523582,"2529 E Garnet Ave, Mesa, AZ 85204 ",85204,0.7265782952308655,239000,https://www.zillow.com/homedetails/2529-E-Garnet-Ave-Mesa-AZ-85204/7652288_zpid/,33.3922,-111.777,2017-08-18,2017-08-18
918931,22510373,"22264 W Sonora St, Buckeye, AZ 85326 ",85326,0.7265218496322632,185000,https://www.zillow.com/homedetails/22264-W-Sonora-St-Buckeye-AZ-85326/67799833_zpid/,33.4334,-112.53,2017-08-16,2017-08-16
932920,22684855,"25408 W Clanton Ave, Buckeye, AZ 85326 ",85326,0.7262493371963501,165000,https://www.zillow.com/homedetails/25408-W-Clanton-Ave-Buckeye-AZ-85326/81987237_zpid/,33.3675,-112.59700000000001,2017-09-15,2017-09-15
8964632,22578781,"20204 W Desert Bloom St, Buckeye, AZ 85326 ",85326,0.7261317372322083,229890,https://www.zillow.com/homedetails/20204-W-Desert-Bloom-St-Buckeye-AZ-85326/95068984_zpid/,33.4365,-112.527,2017-08-25,2017-08-25
930308,22684850,"24811 W Wayland Dr, Buckeye, AZ 85326 ",85326,0.7261157035827637,168900,https://www.zillow.com/homedetails/24811-W-Wayland-Dr-Buckeye-AZ-85326/82822482_zpid/,33.3954,-112.585,2017-09-16,2017-09-16
429812,22526561,"10750 W Coolidge St, Phoenix, AZ 85037 ",85037,0.7260740399360657,225000,https://www.zillow.com/homedetails/10750-W-Coolidge-St-Phoenix-AZ-85037/81982882_zpid/,33.5037,-112.292,2017-08-17,2017-08-17
432615,22515391,"11125 W College Dr, Phoenix, AZ 85037 ",85037,0.7260740399360657,211500,https://www.zillow.com/homedetails/11125-W-College-Dr-Phoenix-AZ-85037/81982689_zpid/,33.5069,-112.3,2017-08-17,2017-08-17
787925,22577669,"1827 E Nielson Ave, Mesa, AZ 85204 ",85204,0.7260684370994568,236000,https://www.zillow.com/homedetails/1827-E-Nielson-Ave-Mesa-AZ-85204/7623414_zpid/,33.4108,-111.792,2017-08-25,2017-08-25
912620,22740718,"1682 S 233rd Ave, Buckeye, AZ 85326 ",85326,0.7260352969169617,200000,https://www.zillow.com/homedetails/1682-S-233rd-Ave-Buckeye-AZ-85326/67710768_zpid/,33.4315,-112.551,2017-10-06,2017-10-06
1235998,22598977,"518 N Cobblestone St, Gilbert, AZ 85234 ",85234,0.7258096933364868,232900,https://www.zillow.com/homedetails/518-N-Cobblestone-St-Gilbert-AZ-85234/8235857_zpid/,33.3593,-111.76,2017-08-29,2017-08-29
935657,22637994,"25762 W Winslow Ave, Buckeye, AZ 85326 ",85326,0.7249301671981812,189900,https://www.zillow.com/homedetails/25762-W-Winslow-Ave-Buckeye-AZ-85326/67797313_zpid/,33.4198,-112.605,2017-09-07,2017-09-07
795754,22564345,"2702 E Hopi Ave, Mesa, AZ 85204 ",85204,0.7248371243476868,229900,https://www.zillow.com/homedetails/2702-E-Hopi-Ave-Mesa-AZ-85204/7652305_zpid/,33.3878,-111.773,2017-08-21,2017-08-21
916698,22740733,"21943 W Sonora St, Buckeye, AZ 85326 ",85326,0.7248314619064331,223500,https://www.zillow.com/homedetails/21943-W-Sonora-St-Buckeye-AZ-85326/67803174_zpid/,33.4324,-112.523,2017-10-04,2017-10-04
652620,22603871,"1207 S 80th St, Mesa, AZ 85209 ",85209,0.7246454358100891,199000,https://www.zillow.com/homedetails/1207-S-80th-St-Mesa-AZ-85209/8077556_zpid/,33.393,-111.65899999999999,2017-08-30,2017-08-30
193249,22741943,"2406 W Mobile Ln, Phoenix, AZ 85041 ",85041,0.7245247960090637,195000,https://www.zillow.com/homedetails/2406-W-Mobile-Ln-Phoenix-AZ-85041/67774049_zpid/,33.4002,-112.11,2017-10-06,2017-10-06
926210,23649573,"23649 W Levi Dr, Buckeye, AZ 85326 ",85326,0.724430501461029,174900,https://www.zillow.com/homedetails/23649-W-Levi-Dr-Buckeye-AZ-85326/95088267_zpid/,33.4042,-112.56,2017-10-14,2017-10-14
793081,23527736,"2136 E Diamond Ave, Mesa, AZ 85204 ",85204,0.7240379452705383,249000,https://www.zillow.com/homedetails/2136-E-Diamond-Ave-Mesa-AZ-85204/7646995_zpid/,33.404,-111.786,2017-10-12,2017-10-12
1553554,22699269,"402 W Redwood Dr, Chandler, AZ 85248 ",85248,0.7238036394119263,209000,https://www.zillow.com/homedetails/402-W-Redwood-Dr-Chandler-AZ-85248/8228457_zpid/,33.2498,-111.84700000000001,2017-08-27,2017-08-27
933998,23526366,"25594 W St Charles Ct, Buckeye, AZ 85326 ",85326,0.7237339615821838,187900,https://www.zillow.com/homedetails/25594-W-St-Charles-Ct-Buckeye-AZ-85326/71610715_zpid/,33.3863,-112.601,2017-10-11,2017-10-11
1696441,22637758,"14628 W Arzon Way, Sun City West, AZ 85375 ",85375,0.7236950397491455,249900,https://www.zillow.com/homedetails/14628-W-Arzon-Way-Sun-City-West-AZ-85375/8122259_zpid/,33.6832,-112.376,2017-09-07,2017-09-07
925059,22733494,"23389 W Cocopah St, Buckeye, AZ 85326 ",85326,0.7236372828483582,186000,https://www.zillow.com/homedetails/23389-W-Cocopah-St-Buckeye-AZ-85326/62739690_zpid/,33.4323,-112.554,2017-10-03,2017-10-03
656864,22564338,"2031 S Gordon, Mesa, AZ 85209 ",85209,0.7233372926712036,205000,https://www.zillow.com/homedetails/2031-S-Gordon-Mesa-AZ-85209/52478809_zpid/,33.3783,-111.645,2017-08-22,2017-08-22
1260641,22745553,"2555 E Bart St, Gilbert, AZ 85295 ",85295,0.7232342958450317,229900,https://www.zillow.com/homedetails/2555-E-Bart-St-Gilbert-AZ-85295/81983627_zpid/,33.3197,-111.735,2017-10-08,2017-10-08
938785,22603742,"401 N 6th St, Buckeye, AZ 85326 ",85326,0.7231385707855225,90000,https://www.zillow.com/homedetails/401-N-6th-St-Buckeye-AZ-85326/8286403_zpid/,33.3733,-112.584,2017-09-01,2017-09-01
200451,22693966,"6623 S 17th Ave, Phoenix, AZ 85041 ",85041,0.7230973243713379,189000,https://www.zillow.com/homedetails/6623-S-17th-Ave-Phoenix-AZ-85041/59272440_zpid/,33.385999999999996,-112.095,2017-09-19,2017-09-19
1186010,22745575,"31 W Gary Ave, Gilbert, AZ 85233 ",85233,0.723082423210144,235000,https://www.zillow.com/homedetails/31-W-Gary-Ave-Gilbert-AZ-85233/8173832_zpid/,33.3749,-111.791,2017-10-09,2017-10-09
427675,22730823,"10313 W Calle Del Oro, Phoenix, AZ 85037 ",85037,0.7229552865028381,181800,https://www.zillow.com/homedetails/10313-W-Calle-Del-Oro-Phoenix-AZ-85037/7465875_zpid/,33.5003,-112.28399999999999,2017-09-29,2017-09-29
449725,22744012,"8611 W Minnezona Ave, Phoenix, AZ 85037 ",85037,0.7228344082832336,205000,https://www.zillow.com/homedetails/8611-W-Minnezona-Ave-Phoenix-AZ-85037/7483774_zpid/,33.5024,-112.244,2017-10-07,2017-10-07
59640,22574718,"2410 W Lewis And Clark Trl, Anthem, AZ 85086 ",85086,0.7227315902709961,221800,https://www.zillow.com/homedetails/2410-W-Lewis-And-Clark-Trl-Anthem-AZ-85086/59716244_zpid/,33.8497,-112.111,2017-08-24,2017-08-24
800153,22705452,"716 S Parsell Cir, Mesa, AZ 85204 ",85204,0.7225375771522522,227500,https://www.zillow.com/homedetails/716-S-Parsell-Cir-Mesa-AZ-85204/7630149_zpid/,33.402,-111.807,2017-09-22,2017-09-22
942094,23526381,"6929 S 251st Dr, Buckeye, AZ 85326 ",85326,0.7220589518547058,189000,https://www.zillow.com/homedetails/6929-S-251st-Dr-Buckeye-AZ-85326/95093751_zpid/,33.3836,-112.59200000000001,2017-10-10,2017-10-10
934101,23526369,"25605 W St Charles Ct, Buckeye, AZ 85326 ",85326,0.7216680645942688,189895,https://www.zillow.com/homedetails/25605-W-St-Charles-Ct-Buckeye-AZ-85326/81965438_zpid/,33.3863,-112.601,2017-10-10,2017-10-10
