property_id,transaction_id,address,zipcode,ypred,list,url,lat,long,date_listed,transaction_date
1107842,22737147,"1098 W Whitten St, Chandler, AZ 85224 ",85224,0.7902309536933899,245000,https://www.zillow.com/homedetails/1098-W-Whitten-St-Chandler-AZ-85224/8207893_zpid/,33.2966,-111.86200000000001,2017-10-04,2017-10-04
9016802,22737152,"11602 N 67th Dr, Peoria, AZ 85345 ",85345,0.7662232100963593,204999,https://www.zillow.com/homedetails/11602-N-67th-Dr-Peoria-AZ-85345/7699701_zpid/,33.5907,-112.20299999999999,2017-10-04,2017-10-04
1111878,22746069,"1380 W Whitten St, Chandler, AZ 85224 ",85224,0.7610383987426758,245000,https://www.zillow.com/homedetails/1380-W-Whitten-St-Chandler-AZ-85224/8207259_zpid/,33.2962,-111.866,2017-10-09,2017-10-09
975705,23809139,"704 N Country Club Way, Chandler, AZ 85226 ",85226,0.7609063625335694,249900,https://www.zillow.com/homedetails/704-N-Country-Club-Way-Chandler-AZ-85226/8155320_zpid/,33.315,-111.904,2017-10-13,2017-10-13
382253,22737157,"12607 N 38th Ln, Phoenix, AZ 85029 ",85029,0.7545592904090881,199000,https://www.zillow.com/homedetails/12607-N-38th-Ln-Phoenix-AZ-85029/7743224_zpid/,33.5997,-112.14200000000001,2017-09-25,2017-09-25
9019413,22734765,"7013 W Aire Libre Ave, Peoria, AZ 85382 ",85382,0.7529397785663605,243500,https://www.zillow.com/homedetails/7013-W-Aire-Libre-Ave-Peoria-AZ-85382/7903079_zpid/,33.635,-112.209,2017-10-03,2017-10-03
410834,22724941,"5015 W Rosewood Ave, Glendale, AZ 85304 ",85304,0.7512181520462036,229900,https://www.zillow.com/homedetails/5015-W-Rosewood-Ave-Glendale-AZ-85304/7954807_zpid/,33.6013,-112.166,2017-09-27,2017-09-27
8458,23753315,"2712 W Saint Moritz Ln, Phoenix, AZ 85053 ",85053,0.750091415643692,235000,https://www.zillow.com/homedetails/2712-W-Saint-Moritz-Ln-Phoenix-AZ-85053/7943035_zpid/,33.6179,-112.118,2017-10-11,2017-10-11
422815,22722094,"8324 N 56th Ln, Glendale, AZ 85302 ",85302,0.746958988904953,215000,https://www.zillow.com/homedetails/8324-N-56th-Ln-Glendale-AZ-85302/7732897_zpid/,33.5576,-112.181,2017-09-26,2017-09-26
1367,22703940,"18821 N 45th Ave, Glendale, AZ 85308 ",85308,0.7421673476696015,214900,https://www.zillow.com/homedetails/18821-N-45th-Ave-Glendale-AZ-85308/7938702_zpid/,33.6571,-112.15700000000001,2017-09-20,2017-09-20
418693,22737337,"5215 W Hatcher Rd, Glendale, AZ 85302 ",85302,0.7401998400688171,224900,https://www.zillow.com/homedetails/5215-W-Hatcher-Rd-Glendale-AZ-85302/7734108_zpid/,33.5705,-112.17200000000001,2017-10-03,2017-10-03
698093,22730315,"940 W Impala Cir, Mesa, AZ 85210 ",85210,0.7398572444915772,229500,https://www.zillow.com/homedetails/940-W-Impala-Cir-Mesa-AZ-85210/7600175_zpid/,33.3826,-111.852,2017-09-29,2017-09-29
359488,23526402,"2409 S 90th Gln, Tolleson, AZ 85353 ",85353,0.7397344172000885,204900,https://www.zillow.com/homedetails/2409-S-90th-Gln-Tolleson-AZ-85353/67772730_zpid/,33.425,-112.25399999999999,2017-10-11,2017-10-11
360355,22733584,"8331 W Pima St, Tolleson, AZ 85353 ",85353,0.7383406937122345,205000,https://www.zillow.com/homedetails/8331-W-Pima-St-Tolleson-AZ-85353/58770098_zpid/,33.4334,-112.24,2017-10-02,2017-10-02
9019405,22734801,"12802 N 21st Ave, Phoenix, AZ 85029 ",85029,0.736787474155426,219900,https://www.zillow.com/homedetails/12802-N-21st-Ave-Phoenix-AZ-85029/7739025_zpid/,33.6019,-112.104,2017-10-03,2017-10-03
9206,22707770,"1220 W Ironwood Dr, Phoenix, AZ 85021 ",85021,0.7344057738780976,175000,https://www.zillow.com/homedetails/1220-W-Ironwood-Dr-Phoenix-AZ-85021/7781692_zpid/,33.576,-112.089,2017-09-22,2017-09-22
640835,22743106,"622 W Portobello Ave, Mesa, AZ 85210 ",85210,0.7339990675449372,240000,https://www.zillow.com/homedetails/622-W-Portobello-Ave-Mesa-AZ-85210/8190949_zpid/,33.3608,-111.84700000000001,2017-10-06,2017-10-06
419065,22712714,"5320 W Freeway Ln, Glendale, AZ 85302 ",85302,0.7336018502712249,214900,https://www.zillow.com/homedetails/5320-W-Freeway-Ln-Glendale-AZ-85302/7733757_zpid/,33.562,-112.17399999999999,2017-09-23,2017-09-23
1466674,22744636,"17713 N 89th Dr, Peoria, AZ 85382 ",85382,0.7320811092853546,199900,https://www.zillow.com/homedetails/17713-N-89th-Dr-Peoria-AZ-85382/71619900_zpid/,33.6439,-112.251,2017-10-07,2017-10-07
9012337,23512200,"3324 E Thunderbird Rd, Phoenix, AZ 85032 ",85032,0.7320348799228669,216000,https://www.zillow.com/homedetails/3324-E-Thunderbird-Rd-Phoenix-AZ-85032/8011849_zpid/,33.6116,-112.01100000000001,2017-10-05,2017-10-05
1118311,23754280,"2019 W Western Dr, Chandler, AZ 85224 ",85224,0.7316763579845429,236500,https://www.zillow.com/homedetails/2019-W-Western-Dr-Chandler-AZ-85224/8197093_zpid/,33.3558,-111.87899999999999,2017-10-12,2017-10-12
353672,22728286,"2201 E Nisbet Rd, Phoenix, AZ 85022 ",85022,0.7303572475910187,199900,https://www.zillow.com/homedetails/2201-E-Nisbet-Rd-Phoenix-AZ-85022/8010593_zpid/,33.6231,-112.035,2017-09-28,2017-09-28
1859,23650472,"9128 W Alvarado St, Phoenix, AZ 85037 ",85037,0.7302992343902588,214000,https://www.zillow.com/homedetails/9128-W-Alvarado-St-Phoenix-AZ-85037/60047210_zpid/,33.4712,-112.257,2017-10-12,2017-10-12
397149,22712744,"4019 W Yucca St, Phoenix, AZ 85029 ",85029,0.7289005815982819,230000,https://www.zillow.com/homedetails/4019-W-Yucca-St-Phoenix-AZ-85029/7744828_zpid/,33.5877,-112.146,2017-09-23,2017-09-23
342960,22744839,"1722 S 64th Ave, Phoenix, AZ 85043 ",85043,0.7280861854553222,177000,https://www.zillow.com/homedetails/1722-S-64th-Ave-Phoenix-AZ-85043/55257220_zpid/,33.4323,-112.198,2017-10-09,2017-10-09
354125,22802972,"2231 E Everett Dr, Phoenix, AZ 85022 ",85022,0.727791678905487,206900,https://www.zillow.com/homedetails/2231-E-Everett-Dr-Phoenix-AZ-85022/8014080_zpid/,33.6195,-112.03399999999999,2017-10-10,2017-10-10
8959592,22744660,"8143 W Windrose Dr, Peoria, AZ 85381 ",85381,0.7277053117752075,237500,https://www.zillow.com/homedetails/8143-W-Windrose-Dr-Peoria-AZ-85381/8101003_zpid/,33.6006,-112.235,2017-10-07,2017-10-07
394541,22734836,"3622 W Charter Oak Rd, Phoenix, AZ 85029 ",85029,0.7271669447422028,223000,https://www.zillow.com/homedetails/3622-W-Charter-Oak-Rd-Phoenix-AZ-85029/7742894_zpid/,33.5978,-112.137,2017-10-03,2017-10-03
1413516,22924606,"7311 N 73rd Dr, Glendale, AZ 85303 ",85303,0.7264948546886444,248700,https://www.zillow.com/homedetails/7311-N-73rd-Dr-Glendale-AZ-85303/59270763_zpid/,33.5425,-112.21600000000001,2017-10-07,2017-10-07
8973255,23753390,"7811 W Palm Ln, Phoenix, AZ 85035 ",85035,0.7257412731647491,175900,https://www.zillow.com/homedetails/7811-W-Palm-Ln-Phoenix-AZ-85035/95151582_zpid/,33.4685,-112.228,2017-10-13,2017-10-13
378956,23753283,"11206 N 37th Ave, Phoenix, AZ 85029 ",85029,0.7255737066268921,224900,https://www.zillow.com/homedetails/11206-N-37th-Ave-Phoenix-AZ-85029/7743882_zpid/,33.5877,-112.139,2017-10-11,2017-10-11
420565,22722076,"5807 W Golden Ln, Glendale, AZ 85302 ",85302,0.7220302581787109,225000,https://www.zillow.com/homedetails/5807-W-Golden-Ln-Glendale-AZ-85302/7733220_zpid/,33.5649,-112.185,2017-09-26,2017-09-26
9019697,22934616,"8053 W Rue De Lamour, Peoria, AZ 85381 ",85381,0.7219514489173889,215000,https://www.zillow.com/homedetails/8053-W-Rue-De-Lamour-Peoria-AZ-85381/92349460_zpid/,33.6082,-112.23200000000001,2017-10-10,2017-10-10
520341,22734448,"8921 W Edgemont Ave, Phoenix, AZ 85037 ",85037,0.7212069511413575,199000,https://www.zillow.com/homedetails/8921-W-Edgemont-Ave-Phoenix-AZ-85037/7487901_zpid/,33.4783,-112.25200000000001,2017-10-02,2017-10-02
345142,23753531,"1739 E Bluefield Ave, Phoenix, AZ 85022 ",85022,0.7211174547672272,224900,https://www.zillow.com/homedetails/1739-E-Bluefield-Ave-Phoenix-AZ-85022/8001407_zpid/,33.6526,-112.044,2017-10-16,2017-10-16
231524,23650293,"17459 N 28th Ave, Phoenix, AZ 85053 ",85053,0.7205802500247955,199000,https://www.zillow.com/homedetails/17459-N-28th-Ave-Phoenix-AZ-85053/7942436_zpid/,33.6449,-112.119,2017-10-14,2017-10-14
8987663,22708157,"5215 W Piute Ave, Glendale, AZ 85308 ",85308,0.7202105760574341,225000,https://www.zillow.com/homedetails/5215-W-Piute-Ave-Glendale-AZ-85308/7889604_zpid/,33.6621,-112.171,2017-09-21,2017-09-21
8968871,23512069,"15611 N 33rd Pl, Phoenix, AZ 85032 ",85032,0.7192381680011749,210000,https://www.zillow.com/homedetails/15611-N-33rd-Pl-Phoenix-AZ-85032/55267923_zpid/,33.6291,-112.01,2017-10-10,2017-10-10
351857,23512137,"2002 E Aire Libre Ave, Phoenix, AZ 85022 ",85022,0.7191102147102356,244777,https://www.zillow.com/homedetails/2002-E-Aire-Libre-Ave-Phoenix-AZ-85022/50181849_zpid/,33.6376,-112.039,2017-09-24,2017-09-24
214915,23512047,"1336 E Becker Ln, Phoenix, AZ 85020 ",85020,0.7189924061298371,229499,https://www.zillow.com/homedetails/1336-E-Becker-Ln-Phoenix-AZ-85020/7785603_zpid/,33.5832,-112.053,2017-10-06,2017-10-06
9012587,22734105,"4946 W Charleston Ave, Glendale, AZ 85308 ",85308,0.7186668455600739,245000,https://www.zillow.com/homedetails/4946-W-Charleston-Ave-Glendale-AZ-85308/7949618_zpid/,33.6487,-112.167,2017-10-02,2017-10-02
9015638,22704145,"8444 W Lewis Ave, Phoenix, AZ 85037 ",85037,0.7184283196926117,176900,https://www.zillow.com/homedetails/8444-W-Lewis-Ave-Phoenix-AZ-85037/82823102_zpid/,33.4743,-112.241,2017-09-21,2017-09-21
8973719,22726972,"9226 W Coolbrook Ave, Peoria, AZ 85382 ",85382,0.7183692336082459,239900,https://www.zillow.com/homedetails/9226-W-Coolbrook-Ave-Peoria-AZ-85382/95165053_zpid/,33.6421,-112.258,2017-09-27,2017-09-27
9016917,22713964,"16415 N 29th Pl, Phoenix, AZ 85032 ",85032,0.7183288991451263,239000,https://www.zillow.com/homedetails/16415-N-29th-Pl-Phoenix-AZ-85032/8005881_zpid/,33.6358,-112.01899999999999,2017-09-24,2017-09-24
250773,22736410,"517 E Kerry Ln, Phoenix, AZ 85024 ",85024,0.7180335044860839,235000,https://www.zillow.com/homedetails/517-E-Kerry-Ln-Phoenix-AZ-85024/7972504_zpid/,33.6603,-112.06700000000001,2017-09-29,2017-09-29
9013787,22693106,"5647 W Villa Theresa Dr, Glendale, AZ 85308 ",85308,0.7177316665649414,210000,https://www.zillow.com/homedetails/5647-W-Villa-Theresa-Dr-Glendale-AZ-85308/7901269_zpid/,33.6537,-112.182,2017-09-19,2017-09-19
638428,22747252,"2026 W Inlet Loop, Mesa, AZ 85202 ",85202,0.7171986281871796,229999,https://www.zillow.com/homedetails/2026-W-Inlet-Loop-Mesa-AZ-85202/8250680_zpid/,33.3818,-111.87700000000001,2017-10-10,2017-10-10
249880,22703950,"429 E Kristal Way, Phoenix, AZ 85024 ",85024,0.7171114265918732,239000,https://www.zillow.com/homedetails/429-E-Kristal-Way-Phoenix-AZ-85024/7972535_zpid/,33.6609,-112.068,2017-09-21,2017-09-21
330786,22738433,"1001 E Bluefield Ave, Phoenix, AZ 85022 ",85022,0.7164156436920166,207500,https://www.zillow.com/homedetails/1001-E-Bluefield-Ave-Phoenix-AZ-85022/8002596_zpid/,33.6522,-112.06,2017-10-04,2017-10-04
246567,22745687,"3407 W Port Au Prince Ln, Phoenix, AZ 85053 ",85053,0.7159510612487793,175000,https://www.zillow.com/homedetails/3407-W-Port-Au-Prince-Ln-Phoenix-AZ-85053/7943671_zpid/,33.6229,-112.132,2017-10-09,2017-10-09
526828,22737450,"9418 W Sheridan St, Phoenix, AZ 85037 ",85037,0.7154572069644928,214500,https://www.zillow.com/homedetails/9418-W-Sheridan-St-Phoenix-AZ-85037/67773035_zpid/,33.475,-112.262,2017-09-28,2017-09-28
1413126,22738304,"7263 W Palmaire Ave, Glendale, AZ 85303 ",85303,0.7154503226280212,249000,https://www.zillow.com/homedetails/7263-W-Palmaire-Ave-Glendale-AZ-85303/95127336_zpid/,33.5405,-112.215,2017-10-04,2017-10-04
8977160,23648891,"16231 N 91st Dr, Peoria, AZ 85382 ",85382,0.7150681912899017,234000,https://www.zillow.com/homedetails/16231-N-91st-Dr-Peoria-AZ-85382/2123153916_zpid/,33.6316,-112.25200000000001,2017-10-11,2017-10-11
40001,22747266,"2221 S 71st Dr, Phoenix, AZ 85043 ",85043,0.7150259792804718,178000,https://www.zillow.com/homedetails/2221-S-71st-Dr-Phoenix-AZ-85043/50185990_zpid/,33.4261,-112.213,2017-10-10,2017-10-10
420229,22745815,"5712 W Freeway Ln, Glendale, AZ 85302 ",85302,0.7145757794380188,245000,https://www.zillow.com/homedetails/5712-W-Freeway-Ln-Glendale-AZ-85302/55260819_zpid/,33.5612,-112.182,2017-10-09,2017-10-09
420568,22722083,"5807 W Puget Ave, Glendale, AZ 85302 ",85302,0.7145709037780762,200000,https://www.zillow.com/homedetails/5807-W-Puget-Ave-Glendale-AZ-85302/7733279_zpid/,33.5668,-112.185,2017-09-25,2017-09-25
229448,22722705,"18611 N 22nd St LOT 82, Phoenix, AZ 85024 ",85024,0.7144042909145355,245000,https://www.zillow.com/homedetails/18611-N-22nd-St-LOT-82-Phoenix-AZ-85024/23725409_zpid/,33.6567,-112.03299999999999,2017-09-26,2017-09-26
401171,22726857,"14216 N 45th Dr, Glendale, AZ 85306 ",85306,0.7135199666023254,199900,https://www.zillow.com/homedetails/14216-N-45th-Dr-Glendale-AZ-85306/7952135_zpid/,33.6149,-112.15700000000001,2017-09-26,2017-09-26
257689,22737016,"916 W Villa Theresa Dr, Phoenix, AZ 85023 ",85023,0.7134227395057678,239995,https://www.zillow.com/homedetails/916-W-Villa-Theresa-Dr-Phoenix-AZ-85023/7956803_zpid/,33.6543,-112.086,2017-09-15,2017-09-15
1347860,22924091,"5172 W Morten Ave, Glendale, AZ 85301 ",85301,0.7133457779884338,239000,https://www.zillow.com/homedetails/5172-W-Morten-Ave-Glendale-AZ-85301/52425448_zpid/,33.5473,-112.17,2017-10-10,2017-10-10
253112,22738546,"3806 W Mauna Loa Ln, Phoenix, AZ 85053 ",85053,0.7133381843566895,234500,https://www.zillow.com/homedetails/3806-W-Mauna-Loa-Ln-Phoenix-AZ-85053/7943940_zpid/,33.6207,-112.14,2017-10-05,2017-10-05
9015637,22739690,"7843 W Palm Ln, Phoenix, AZ 85035 ",85035,0.7132720410823822,169980,https://www.zillow.com/homedetails/7843-W-Palm-Ln-Phoenix-AZ-85035/95123133_zpid/,33.4687,-112.228,2017-10-05,2017-10-05
8996157,22735450,"11202 N 69th Dr, Peoria, AZ 85345 ",85345,0.7132494926452637,208900,https://www.zillow.com/homedetails/11202-N-69th-Dr-Peoria-AZ-85345/7699586_zpid/,33.5869,-112.208,2017-10-03,2017-10-03
9005657,22739452,"10439 W Papago St, Tolleson, AZ 85353 ",85353,0.7120496332645416,229900,https://www.zillow.com/homedetails/10439-W-Papago-St-Tolleson-AZ-85353/125986296_zpid/,33.4338,-112.24600000000001,2017-10-05,2017-10-05
386006,22677819,"1749 W Surrey Ave, Phoenix, AZ 85029 ",85029,0.7119210660457611,225000,https://www.zillow.com/homedetails/1749-W-Surrey-Ave-Phoenix-AZ-85029/7784365_zpid/,33.6053,-112.098,2017-09-14,2017-09-14
8989019,22747254,"2049 N 77th Gln, Phoenix, AZ 85035 ",85035,0.7113319218158722,168250,https://www.zillow.com/homedetails/2049-N-77th-Gln-Phoenix-AZ-85035/95149994_zpid/,33.4706,-112.226,2017-10-05,2017-10-05
219954,23753395,"825 E Ruth Ave, Phoenix, AZ 85020 ",85020,0.7112806797027588,239900,https://www.zillow.com/homedetails/825-E-Ruth-Ave-Phoenix-AZ-85020/7789613_zpid/,33.5632,-112.06299999999999,2017-10-11,2017-10-11
1885528,22710615,"8223 W Carol Ave, Peoria, AZ 85345 ",85345,0.7106792032718658,205000,https://www.zillow.com/homedetails/8223-W-Carol-Ave-Peoria-AZ-85345/60978276_zpid/,33.5706,-112.236,2017-09-21,2017-09-21
420453,22724813,"5771 W Seldon Ln, Glendale, AZ 85302 ",85302,0.7106095314025879,195000,https://www.zillow.com/homedetails/5771-W-Seldon-Ln-Glendale-AZ-85302/58535922_zpid/,33.5608,-112.184,2017-09-27,2017-09-27
402895,22731310,"12216 N 47th Ln, Glendale, AZ 85304 ",85304,0.7104871511459351,244500,https://www.zillow.com/homedetails/12216-N-47th-Ln-Glendale-AZ-85304/7954289_zpid/,33.597,-112.162,2017-09-29,2017-09-29
1414927,22731466,"7413 N 67th Dr, Glendale, AZ 85303 ",85303,0.7103071630001068,214900,https://www.zillow.com/homedetails/7413-N-67th-Dr-Glendale-AZ-85303/7705033_zpid/,33.5447,-112.20299999999999,2017-09-29,2017-09-29
339679,23527007,"7027 N 23rd Ln, Phoenix, AZ 85021 ",85021,0.7090512216091156,149750,https://www.zillow.com/homedetails/7027-N-23rd-Ln-Phoenix-AZ-85021/7779133_zpid/,33.5397,-112.11,2017-10-11,2017-10-11
8969496,23512165,"2433 E Karen Dr, Phoenix, AZ 85032 ",85032,0.7088950753211976,247900,https://www.zillow.com/homedetails/2433-E-Karen-Dr-Phoenix-AZ-85032/8013849_zpid/,33.6257,-112.029,2017-10-02,2017-10-02
9011928,23753384,"7411 W Wolf St, Phoenix, AZ 85033 ",85033,0.7086246848106384,229900,https://www.zillow.com/homedetails/7411-W-Wolf-St-Phoenix-AZ-85033/95184996_zpid/,33.5059,-112.219,2017-10-12,2017-10-12
422451,22733384,"6639 W Brown St, Glendale, AZ 85302 ",85302,0.7084914684295655,199900,https://www.zillow.com/homedetails/6639-W-Brown-St-Glendale-AZ-85302/7706586_zpid/,33.5781,-112.20200000000001,2017-10-02,2017-10-02
1416084,22925102,"7583 W Krall St, Glendale, AZ 85303 ",85303,0.7074866414070129,230000,https://www.zillow.com/homedetails/7583-W-Krall-St-Glendale-AZ-85303/7463213_zpid/,33.5346,-112.22200000000001,2017-10-06,2017-10-06
9019087,22731125,"3117 E Charleston Ave, Phoenix, AZ 85032 ",85032,0.7073635399341583,239999,https://www.zillow.com/homedetails/3117-E-Charleston-Ave-Phoenix-AZ-85032/7999065_zpid/,33.6498,-112.015,2017-09-30,2017-09-30
409707,23564615,"4513 W Sunnyside Ave, Glendale, AZ 85304 ",85304,0.7073074460029602,239900,https://www.zillow.com/homedetails/4513-W-Sunnyside-Ave-Glendale-AZ-85304/7726914_zpid/,33.5922,-112.156,2017-10-13,2017-10-13
240420,23756210,"3114 W Lisbon Ln, Phoenix, AZ 85053 ",85053,0.7069815397262573,209999,https://www.zillow.com/homedetails/3114-W-Lisbon-Ln-Phoenix-AZ-85053/7953236_zpid/,33.6198,-112.125,2017-10-18,2017-10-18
406394,22734683,"5218 W Banff Ln, Glendale, AZ 85306 ",85306,0.7067238450050354,159000,https://www.zillow.com/homedetails/5218-W-Banff-Ln-Glendale-AZ-85306/7911066_zpid/,33.6195,-112.17200000000001,2017-10-03,2017-10-03
422454,22731449,"6652 W Delmonico Ln, Glendale, AZ 85302 ",85302,0.7066936552524566,235000,https://www.zillow.com/homedetails/6652-W-Delmonico-Ln-Glendale-AZ-85302/50187742_zpid/,33.5645,-112.20200000000001,2017-09-29,2017-09-29
252724,23650304,"3745 W Tierra Buena Ln, Phoenix, AZ 85053 ",85053,0.706692898273468,213900,https://www.zillow.com/homedetails/3745-W-Tierra-Buena-Ln-Phoenix-AZ-85053/7945954_zpid/,33.6286,-112.14,2017-10-13,2017-10-13
350131,22705127,"6405 W Preston Ln, Phoenix, AZ 85043 ",85043,0.7066433906555176,187000,https://www.zillow.com/homedetails/6405-W-Preston-Ln-Phoenix-AZ-85043/55257428_zpid/,33.4235,-112.198,2017-09-22,2017-09-22
7482430,22705845,"2321 W Ponderosa Ln, Phoenix, AZ 85023 ",85023,0.7057091414928436,249900,https://www.zillow.com/homedetails/2321-W-Ponderosa-Ln-Phoenix-AZ-85023/7960922_zpid/,33.6265,-112.109,2017-09-22,2017-09-22
396990,23512234,"4008 W Windrose Dr, Phoenix, AZ 85029 ",85029,0.7046726942062378,194999,https://www.zillow.com/homedetails/4008-W-Windrose-Dr-Phoenix-AZ-85029/7742420_zpid/,33.6012,-112.146,2017-10-10,2017-10-10
435581,22732846,"2207 N 87th Dr, Phoenix, AZ 85037 ",85037,0.7042077124118805,184900,https://www.zillow.com/homedetails/2207-N-87th-Dr-Phoenix-AZ-85037/7487726_zpid/,33.4706,-112.24700000000001,2017-09-30,2017-09-30
43395,23752723,"7911 W Hilton Ave, Phoenix, AZ 85043 ",85043,0.7041798174381256,232000,https://www.zillow.com/homedetails/7911-W-Hilton-Ave-Phoenix-AZ-85043/50893343_zpid/,33.4289,-112.23,2017-10-15,2017-10-15
9020416,22747654,"4237 W Sheridan St, Phoenix, AZ 85009 ",85009,0.7032120645046234,156900,https://www.zillow.com/homedetails/4237-W-Sheridan-St-Phoenix-AZ-85009/7512937_zpid/,33.4752,-112.15100000000001,2017-10-10,2017-10-10
483971,22688771,"2734 N 73rd Gln, Phoenix, AZ 85035 ",85035,0.7028600752353669,209900,https://www.zillow.com/homedetails/2734-N-73rd-Gln-Phoenix-AZ-85035/95167972_zpid/,33.4783,-112.21799999999999,2017-09-18,2017-09-18
411581,22708161,"5226 W Eugie Ave, Glendale, AZ 85304 ",85304,0.7026653945446014,220000,https://www.zillow.com/homedetails/5226-W-Eugie-Ave-Glendale-AZ-85304/7911821_zpid/,33.608000000000004,-112.17200000000001,2017-09-21,2017-09-21
229334,22738886,"16290 N 29th Ave, Phoenix, AZ 85053 ",85053,0.7024885773658752,221900,https://www.zillow.com/homedetails/16290-N-29th-Ave-Phoenix-AZ-85053/7954076_zpid/,33.6347,-112.12,2017-10-04,2017-10-04
389082,22692197,"2502 W Dahlia Dr, Phoenix, AZ 85029 ",85029,0.7021125257015228,179900,https://www.zillow.com/homedetails/2502-W-Dahlia-Dr-Phoenix-AZ-85029/7748311_zpid/,33.6031,-112.113,2017-09-19,2017-09-19
390056,22737272,"2917 W Aster Dr, Phoenix, AZ 85029 ",85029,0.7020731091499328,199900,https://www.zillow.com/homedetails/2917-W-Aster-Dr-Phoenix-AZ-85029/7741102_zpid/,33.6021,-112.12200000000001,2017-09-19,2017-09-19
415556,22738441,"10322 N 61st Dr, Glendale, AZ 85302 ",85302,0.7018600523471832,239900,https://www.zillow.com/homedetails/10322-N-61st-Dr-Glendale-AZ-85302/7703691_zpid/,33.58,-112.191,2017-10-04,2017-10-04
243287,22690475,"3218 W Angela Dr, Phoenix, AZ 85053 ",85053,0.7016434609889984,209000,https://www.zillow.com/homedetails/3218-W-Angela-Dr-Phoenix-AZ-85053/7942085_zpid/,33.6461,-112.12899999999999,2017-09-18,2017-09-18
380868,23801450,"12018 N 42nd Dr, Phoenix, AZ 85029 ",85029,0.7009805679321289,189000,https://www.zillow.com/homedetails/12018-N-42nd-Dr-Phoenix-AZ-85029/7744164_zpid/,33.595,-112.15100000000001,2017-10-21,2017-10-21
264257,23752112,"7723 W Oraibi Dr, Glendale, AZ 85308 ",85308,0.7009632289409637,244995,https://www.zillow.com/homedetails/7723-W-Oraibi-Dr-Glendale-AZ-85308/7891683_zpid/,33.6615,-112.22399999999999,2017-10-13,2017-10-13
15292,22708244,"8334 W Ocotillo Rd, Glendale, AZ 85305 ",85305,0.7008748710155487,215900,https://www.zillow.com/homedetails/8334-W-Ocotillo-Rd-Glendale-AZ-85305/7461418_zpid/,33.534,-112.23899999999999,2017-09-20,2017-09-20
412062,23570538,"5339 W Cholla St, Glendale, AZ 85304 ",85304,0.699803215265274,209000,https://www.zillow.com/homedetails/5339-W-Cholla-St-Glendale-AZ-85304/7736846_zpid/,33.5891,-112.175,2017-10-12,2017-10-12
378692,22719387,"10228 N 36th Ave, Phoenix, AZ 85051 ",85051,0.6997355282306671,195000,https://www.zillow.com/homedetails/10228-N-36th-Ave-Phoenix-AZ-85051/7745264_zpid/,33.5794,-112.13600000000001,2017-09-25,2017-09-25
8966098,22734768,"7726 W Piute Ave, Glendale, AZ 85308 ",85308,0.6990379810333252,245000,https://www.zillow.com/homedetails/7726-W-Piute-Ave-Glendale-AZ-85308/7891754_zpid/,33.6608,-112.22399999999999,2017-10-02,2017-10-02
9018341,23569410,"18613 N 68th Ave, Glendale, AZ 85308 ",85308,0.6988832831382752,249900,https://www.zillow.com/homedetails/18613-N-68th-Ave-Glendale-AZ-85308/7891573_zpid/,33.6545,-112.205,2017-10-13,2017-10-13
230822,23754370,"19206 N 4th St, Phoenix, AZ 85024 ",85024,0.6988536238670349,224900,https://www.zillow.com/homedetails/19206-N-4th-St-Phoenix-AZ-85024/7972304_zpid/,33.6605,-112.07,2017-10-16,2017-10-16
1374448,22745824,"8915 W Mclellan Rd, Glendale, AZ 85305 ",85305,0.6988231897354126,215000,https://www.zillow.com/homedetails/8915-W-Mclellan-Rd-Glendale-AZ-85305/7461790_zpid/,33.5323,-112.25200000000001,2017-10-08,2017-10-08
413890,23753554,"6209 W Bloomfield Rd, Glendale, AZ 85304 ",85304,0.698765629529953,230000,https://www.zillow.com/homedetails/6209-W-Bloomfield-Rd-Glendale-AZ-85304/7912238_zpid/,33.5984,-112.19200000000001,2017-10-16,2017-10-16
379611,23756191,"2729 W Lawrence Ln, Phoenix, AZ 85051 ",85051,0.6985660135746002,181000,https://www.zillow.com/homedetails/2729-W-Lawrence-Ln-Phoenix-AZ-85051/7750269_zpid/,33.5641,-112.118,2017-10-16,2017-10-16
389628,22740117,"3927 W State Ave, Phoenix, AZ 85051 ",85051,0.6985559523105621,235000,https://www.zillow.com/homedetails/3927-W-State-Ave-Phoenix-AZ-85051/7757783_zpid/,33.5431,-112.14399999999999,2017-10-05,2017-10-05
411799,22708163,"5304 W Sunnyside Dr, Glendale, AZ 85304 ",85304,0.6985126614570618,239900,https://www.zillow.com/homedetails/5304-W-Sunnyside-Dr-Glendale-AZ-85304/7737447_zpid/,33.5927,-112.17299999999999,2017-09-21,2017-09-21
7419652,23752910,"4450 N 37TH Ave, Phoenix, AZ 85019 ",85019,0.698225611448288,240000,https://www.zillow.com/homedetails/4450-N-37TH-Ave-Phoenix-AZ-85019/95137035_zpid/,33.5016,-112.139,2017-10-15,2017-10-15
414806,22647037,"6601 W Poinsettia Dr, Glendale, AZ 85304 ",85304,0.6982183039188385,195000,https://www.zillow.com/homedetails/6601-W-Poinsettia-Dr-Glendale-AZ-85304/7699545_zpid/,33.5934,-112.20100000000001,2017-09-09,2017-09-09
249194,22734090,"245 W Topeka Dr, Phoenix, AZ 85027 ",85027,0.6981078922748566,240000,https://www.zillow.com/homedetails/245-W-Topeka-Dr-Phoenix-AZ-85027/7968620_zpid/,33.6596,-112.07799999999999,2017-10-03,2017-10-03
395768,23759963,"3820 W Bloomfield Rd, Phoenix, AZ 85029 ",85029,0.6981034338474273,205000,https://www.zillow.com/homedetails/3820-W-Bloomfield-Rd-Phoenix-AZ-85029/7743188_zpid/,33.5983,-112.141,2017-10-20,2017-10-20
8989113,22740158,"19153 N 75th Dr, Glendale, AZ 85308 ",85308,0.6977419078350067,235000,https://www.zillow.com/homedetails/19153-N-75th-Dr-Glendale-AZ-85308/7892099_zpid/,33.6583,-112.221,2017-10-05,2017-10-05
9019258,22732947,"3101 W Dailey St, Phoenix, AZ 85053 ",85053,0.6977391183376312,219000,https://www.zillow.com/homedetails/3101-W-Dailey-St-Phoenix-AZ-85053/7943122_zpid/,33.6127,-112.125,2017-10-01,2017-10-01
43124,23755414,"7301 W Payson Rd, Phoenix, AZ 85043 ",85043,0.6970431804656982,195000,https://www.zillow.com/homedetails/7301-W-Payson-Rd-Phoenix-AZ-85043/60975135_zpid/,33.4225,-112.21700000000001,2017-10-18,2017-10-18
9004346,22704088,"2412 N 73rd Ln, Phoenix, AZ 85035 ",85035,0.6969636797904968,219000,https://www.zillow.com/homedetails/2412-N-73rd-Ln-Phoenix-AZ-85035/95085660_zpid/,33.4744,-112.21799999999999,2017-09-21,2017-09-21
8992552,23527037,"6029 W Mary Jane Ln, Glendale, AZ 85306 ",85306,0.6963471293449401,239000,https://www.zillow.com/homedetails/6029-W-Mary-Jane-Ln-Glendale-AZ-85306/8097193_zpid/,33.6273,-112.189,2017-10-11,2017-10-11
416972,23569544,"4633 W Ruth Ave, Glendale, AZ 85302 ",85302,0.6961400151252747,200000,https://www.zillow.com/homedetails/4633-W-Ruth-Ave-Glendale-AZ-85302/7731286_zpid/,33.5632,-112.15899999999999,2017-10-13,2017-10-13
9021565,23760091,"6974 W Juniper Ave, Peoria, AZ 85382 ",85382,0.6956448912620544,219900,https://www.zillow.com/homedetails/6974-W-Juniper-Ave-Peoria-AZ-85382/7903019_zpid/,33.6365,-112.21,2017-10-21,2017-10-21
1417614,22742595,"7737 W Rancho Dr, Glendale, AZ 85303 ",85303,0.6950931191444397,190000,https://www.zillow.com/homedetails/7737-W-Rancho-Dr-Glendale-AZ-85303/7463369_zpid/,33.5214,-112.227,2017-09-15,2017-09-15
9020094,22742091,"7615 W Cinnabar Ave, Peoria, AZ 85345 ",85345,0.6950075447559356,200000,https://www.zillow.com/homedetails/7615-W-Cinnabar-Ave-Peoria-AZ-85345/7682240_zpid/,33.5761,-112.223,2017-10-05,2017-10-05
8998214,23512216,"3704 W Campo Bello Dr, Glendale, AZ 85308 ",85308,0.6948484301567077,209785,https://www.zillow.com/homedetails/3704-W-Campo-Bello-Dr-Glendale-AZ-85308/7947429_zpid/,33.6443,-112.14,2017-10-09,2017-10-09
237010,22738534,"2939 W Campo Bello Dr, Phoenix, AZ 85053 ",85053,0.6947403609752655,199900,https://www.zillow.com/homedetails/2939-W-Campo-Bello-Dr-Phoenix-AZ-85053/7942237_zpid/,33.6448,-112.12299999999999,2017-10-05,2017-10-05
258476,23717515,"614 W Rosemonte Dr, Phoenix, AZ 85027 ",85027,0.6943143367767334,234900,https://www.zillow.com/homedetails/614-W-Rosemonte-Dr-Phoenix-AZ-85027/7968459_zpid/,33.657,-112.08200000000001,2017-10-12,2017-10-12
8988709,22725854,"9561 N 85th Dr, Peoria, AZ 85345 ",85345,0.6942635238170624,209900,https://www.zillow.com/homedetails/9561-N-85th-Dr-Peoria-AZ-85345/7697054_zpid/,33.5716,-112.243,2017-09-27,2017-09-27
9021767,23805326,"1139 W Auburn St, Mesa, AZ 85201 ",85201,0.6939905107021331,225000,https://www.zillow.com/homedetails/1139-W-Auburn-St-Mesa-AZ-85201/81997574_zpid/,33.4176,-111.85600000000001,2017-10-24,2017-10-24
448988,22734457,"8504 W College Dr, Phoenix, AZ 85037 ",85037,0.6936067640781403,190000,https://www.zillow.com/homedetails/8504-W-College-Dr-Phoenix-AZ-85037/7483600_zpid/,33.5084,-112.243,2017-10-03,2017-10-03
8982670,23753363,"1934 N Iowa St, Chandler, AZ 85225 ",85225,0.6932440400123596,215500,https://www.zillow.com/homedetails/1934-N-Iowa-St-Chandler-AZ-85225/8182675_zpid/,33.3331,-111.85,2017-10-13,2017-10-13
527635,22717844,"9459 W Virginia Ave, Phoenix, AZ 85037 ",85037,0.6921769082546234,200000,https://www.zillow.com/homedetails/9459-W-Virginia-Ave-Phoenix-AZ-85037/62727169_zpid/,33.4764,-112.26299999999999,2017-09-20,2017-09-20
444887,22730839,"4607 N 92nd Ln, Phoenix, AZ 85037 ",85037,0.6921577751636505,214900,https://www.zillow.com/homedetails/4607-N-92nd-Ln-Phoenix-AZ-85037/7466411_zpid/,33.5044,-112.259,2017-09-28,2017-09-28
409830,22738588,"4543 W Lupine Ave, Glendale, AZ 85304 ",85304,0.6920661270618439,200000,https://www.zillow.com/homedetails/4543-W-Lupine-Ave-Glendale-AZ-85304/7727031_zpid/,33.59,-112.15700000000001,2017-10-04,2017-10-04
422180,22708207,"6532 W Purdue Ave, Glendale, AZ 85302 ",85302,0.69186070561409,176500,https://www.zillow.com/homedetails/6532-W-Purdue-Ave-Glendale-AZ-85302/7703321_zpid/,33.5737,-112.2,2017-09-21,2017-09-21
1356715,22740170,"7327 N 47th Ave, Glendale, AZ 85301 ",85301,0.6915711760520935,189900,https://www.zillow.com/homedetails/7327-N-47th-Ave-Glendale-AZ-85301/7725576_zpid/,33.545,-112.16,2017-10-05,2017-10-05
9019950,22740802,"3015 W Yuma St, Phoenix, AZ 85009 ",85009,0.6915437281131744,189900,https://www.zillow.com/homedetails/3015-W-Yuma-St-Phoenix-AZ-85009/7500920_zpid/,33.4349,-112.125,2017-10-06,2017-10-06
1090459,23810641,"631 W Caroline Ln, Chandler, AZ 85225 ",85225,0.6912257373332977,230000,https://www.zillow.com/homedetails/631-W-Caroline-Ln-Chandler-AZ-85225/8183658_zpid/,33.3304,-111.851,2017-10-27,2017-10-27
1112897,23756134,"1500 W Mission Dr, Chandler, AZ 85224 ",85224,0.6911062121391296,229900,https://www.zillow.com/homedetails/1500-W-Mission-Dr-Chandler-AZ-85224/8199237_zpid/,33.3445,-111.867,2017-10-19,2017-10-19
527019,22747540,"9424 W Pierson St, Phoenix, AZ 85037 ",85037,0.6910349011421204,212000,https://www.zillow.com/homedetails/9424-W-Pierson-St-Phoenix-AZ-85037/52423672_zpid/,33.5071,-112.26299999999999,2017-10-10,2017-10-10
422357,23752505,"6612 W Brown St, Glendale, AZ 85302 ",85302,0.6909788727760315,199000,https://www.zillow.com/homedetails/6612-W-Brown-St-Glendale-AZ-85302/7706362_zpid/,33.5783,-112.20100000000001,2017-10-14,2017-10-14
9001917,22709962,"17665 N 36th St, Phoenix, AZ 85032 ",85032,0.6907489478588105,228000,https://www.zillow.com/homedetails/17665-N-36th-St-Phoenix-AZ-85032/7998322_zpid/,33.6472,-112.00200000000001,2017-09-22,2017-09-22
1369777,22747439,"6235 N 89th Ave, Glendale, AZ 85305 ",85305,0.6906549811363221,229900,https://www.zillow.com/homedetails/6235-N-89th-Ave-Glendale-AZ-85305/7462018_zpid/,33.5276,-112.251,2017-10-10,2017-10-10
394229,22745774,"7201 N 37th Ave, Phoenix, AZ 85051 ",85051,0.6902735114097596,164900,https://www.zillow.com/homedetails/7201-N-37th-Ave-Phoenix-AZ-85051/7756316_zpid/,33.5423,-112.13799999999999,2017-10-09,2017-10-09
334383,22732912,"12827 N 22nd Pl, Phoenix, AZ 85022 ",85022,0.6902459859848022,218000,https://www.zillow.com/homedetails/12827-N-22nd-Pl-Phoenix-AZ-85022/7815663_zpid/,33.6034,-112.03299999999999,2017-10-01,2017-10-01
341210,23752365,"1638 E Juniper Ave, Phoenix, AZ 85022 ",85022,0.6898634970188141,205000,https://www.zillow.com/homedetails/1638-E-Juniper-Ave-Phoenix-AZ-85022/8004988_zpid/,33.6392,-112.046,2017-10-14,2017-10-14
390730,22745703,"4032 W North Ln, Phoenix, AZ 85051 ",85051,0.6897838592529297,195000,https://www.zillow.com/homedetails/4032-W-North-Ln-Phoenix-AZ-85051/7746045_zpid/,33.5817,-112.146,2017-10-08,2017-10-08
8974575,22729520,"1956 W Shady Glen Ave, Phoenix, AZ 85023 ",85023,0.6896023213863373,197000,https://www.zillow.com/homedetails/1956-W-Shady-Glen-Ave-Phoenix-AZ-85023/7958344_zpid/,33.6478,-112.102,2017-09-28,2017-09-28
432541,22734473,"7113 W Sheila Ln, Phoenix, AZ 85033 ",85033,0.6887533068656921,189000,https://www.zillow.com/homedetails/7113-W-Sheila-Ln-Phoenix-AZ-85033/55257199_zpid/,33.4878,-112.213,2017-10-03,2017-10-03
379528,22745656,"11438 N 30th Ave, Phoenix, AZ 85029 ",85029,0.6887394249439239,239900,https://www.zillow.com/homedetails/11438-N-30th-Ave-Phoenix-AZ-85029/7739912_zpid/,33.5907,-112.124,2017-10-10,2017-10-10
403656,22738452,"12633 N 47th Dr, Glendale, AZ 85304 ",85304,0.6885092794895172,186999,https://www.zillow.com/homedetails/12633-N-47th-Dr-Glendale-AZ-85304/7954518_zpid/,33.601,-112.161,2017-09-28,2017-09-28
393008,23752324,"3333 W Columbine Dr, Phoenix, AZ 85029 ",85029,0.6877378404140473,169900,https://www.zillow.com/homedetails/3333-W-Columbine-Dr-Phoenix-AZ-85029/7747780_zpid/,33.5991,-112.131,2017-10-13,2017-10-13
390477,22731348,"3018 W Lupine Ave, Phoenix, AZ 85029 ",85029,0.6866988778114319,245000,https://www.zillow.com/homedetails/3018-W-Lupine-Ave-Phoenix-AZ-85029/7739937_zpid/,33.5913,-112.124,2017-09-28,2017-09-28
1401750,22738609,"5060 N 71st Dr, Glendale, AZ 85303 ",85303,0.6864255368709564,195000,https://www.zillow.com/homedetails/5060-N-71st-Dr-Glendale-AZ-85303/7708796_zpid/,33.5113,-112.212,2017-09-20,2017-09-20
13738,23752919,"5444 W Gardenia Ave, Glendale, AZ 85301 ",85301,0.6863343715667725,160000,https://www.zillow.com/homedetails/5444-W-Gardenia-Ave-Glendale-AZ-85301/7726172_zpid/,33.5452,-112.177,2017-10-15,2017-10-15
359160,23759845,"15 N 86th Ln, Tolleson, AZ 85353 ",85353,0.6862149477005005,219000,https://www.zillow.com/homedetails/15-N-86th-Ln-Tolleson-AZ-85353/95078499_zpid/,33.4485,-112.24600000000001,2017-10-21,2017-10-21
387437,22731343,"3737 W Ruth Ave, Phoenix, AZ 85051 ",85051,0.6858888983726501,168900,https://www.zillow.com/homedetails/3737-W-Ruth-Ave-Phoenix-AZ-85051/7752421_zpid/,33.5623,-112.141,2017-09-28,2017-09-28
424902,22708254,"9726 N 55th Dr, Glendale, AZ 85302 ",85302,0.6858186244964599,205500,https://www.zillow.com/homedetails/9726-N-55th-Dr-Glendale-AZ-85302/7734870_zpid/,33.5745,-112.178,2017-09-21,2017-09-21
9020156,22744025,"6271 W Elm St, Phoenix, AZ 85033 ",85033,0.685814905166626,159999,https://www.zillow.com/homedetails/6271-W-Elm-St-Phoenix-AZ-85033/7716254_zpid/,33.5051,-112.193,2017-10-06,2017-10-06
256320,22745705,"4221 W Redfield Rd, Phoenix, AZ 85053 ",85053,0.6855213224887848,220000,https://www.zillow.com/homedetails/4221-W-Redfield-Rd-Phoenix-AZ-85053/7945153_zpid/,33.6138,-112.148,2017-10-07,2017-10-07
227536,22735776,"15219 N 37th Ave, Phoenix, AZ 85053 ",85053,0.6854382753372192,219000,https://www.zillow.com/homedetails/15219-N-37th-Ave-Phoenix-AZ-85053/7944373_zpid/,33.6242,-112.137,2017-09-22,2017-09-22
387030,22724922,"2114 W Sunnyside Dr, Phoenix, AZ 85029 ",85029,0.6848318636417389,176900,https://www.zillow.com/homedetails/2114-W-Sunnyside-Dr-Phoenix-AZ-85029/7748813_zpid/,33.5934,-112.104,2017-09-27,2017-09-27
349017,22737509,"3535 W Garfield St, Phoenix, AZ 85009 ",85009,0.6844046950340271,150000,https://www.zillow.com/homedetails/3535-W-Garfield-St-Phoenix-AZ-85009/60047772_zpid/,33.4578,-112.13600000000001,2017-10-03,2017-10-03
388115,22734840,"3814 W Davidson Ln, Phoenix, AZ 85051 ",85051,0.6839832663536072,195000,https://www.zillow.com/homedetails/3814-W-Davidson-Ln-Phoenix-AZ-85051/7746767_zpid/,33.5701,-112.141,2017-10-03,2017-10-03
211251,22735680,"1126 E Brown St, Phoenix, AZ 85020 ",85020,0.6839664518833161,160000,https://www.zillow.com/homedetails/1126-E-Brown-St-Phoenix-AZ-85020/7787480_zpid/,33.5777,-112.05799999999999,2017-09-15,2017-09-15
394979,23752466,"7602 N 33rd Ave, Phoenix, AZ 85051 ",85051,0.6836184561252594,190500,https://www.zillow.com/homedetails/7602-N-33rd-Ave-Phoenix-AZ-85051/7755092_zpid/,33.5478,-112.13,2017-10-14,2017-10-14
11893,22712711,"3648 W Minnezona Ave, Phoenix, AZ 85019 ",85019,0.6835408687591553,176850,https://www.zillow.com/homedetails/3648-W-Minnezona-Ave-Phoenix-AZ-85019/7506966_zpid/,33.5029,-112.13799999999999,2017-09-23,2017-09-23
344412,23649622,"2406 W Tonto St, Phoenix, AZ 85009 ",85009,0.6834403812885285,195000,https://www.zillow.com/homedetails/2406-W-Tonto-St-Phoenix-AZ-85009/7515658_zpid/,33.4388,-112.111,2017-10-12,2017-10-12
388525,23754065,"2330 W Columbine Dr, Phoenix, AZ 85029 ",85029,0.6834231555461884,219900,https://www.zillow.com/homedetails/2330-W-Columbine-Dr-Phoenix-AZ-85029/7738746_zpid/,33.5996,-112.109,2017-10-16,2017-10-16
9016804,22738611,"7237 W Sierra St, Peoria, AZ 85345 ",85345,0.6833580672740937,200000,https://www.zillow.com/homedetails/7237-W-Sierra-St-Peoria-AZ-85345/7700458_zpid/,33.5903,-112.215,2017-10-04,2017-10-04
394581,23799121,"3626 W Rue De Lamour Ave, Phoenix, AZ 85029 ",85029,0.6833027958869934,215000,https://www.zillow.com/homedetails/3626-W-Rue-De-Lamour-Ave-Phoenix-AZ-85029/7741437_zpid/,33.6102,-112.137,2017-10-17,2017-10-17
391229,23512195,"3120 W Clinton St, Phoenix, AZ 85029 ",85029,0.6832721650600433,182000,https://www.zillow.com/homedetails/3120-W-Clinton-St-Phoenix-AZ-85029/7740856_zpid/,33.5834,-112.126,2017-10-07,2017-10-07
406604,23570306,"5256 W Acapulco Ln, Glendale, AZ 85306 ",85306,0.6832688868045806,228900,https://www.zillow.com/homedetails/5256-W-Acapulco-Ln-Glendale-AZ-85306/8097745_zpid/,33.6232,-112.17299999999999,2017-10-13,2017-10-13
8971373,22715586,"1738 W North Ln, Phoenix, AZ 85021 ",85021,0.6829807937145234,199900,https://www.zillow.com/homedetails/1738-W-North-Ln-Phoenix-AZ-85021/7781377_zpid/,33.5815,-112.09700000000001,2017-09-15,2017-09-15
337572,22740038,"2307 W Alice Ave, Phoenix, AZ 85021 ",85021,0.682188355922699,217900,https://www.zillow.com/homedetails/2307-W-Alice-Ave-Phoenix-AZ-85021/7782260_zpid/,33.5637,-112.109,2017-10-05,2017-10-05
395088,22745777,"7623 N 40th Dr, Phoenix, AZ 85051 ",85051,0.6821497857570649,179900,https://www.zillow.com/homedetails/7623-N-40th-Dr-Phoenix-AZ-85051/7757964_zpid/,33.5484,-112.145,2017-10-09,2017-10-09
1407343,22745826,"6817 W State Ave, Glendale, AZ 85303 ",85303,0.6818437993526458,180000,https://www.zillow.com/homedetails/6817-W-State-Ave-Glendale-AZ-85303/7704770_zpid/,33.544000000000004,-112.206,2017-10-08,2017-10-08
478447,23758543,"1819 N 77th Dr, Phoenix, AZ 85035 ",85035,0.6817293882369995,168000,https://www.zillow.com/homedetails/1819-N-77th-Dr-Phoenix-AZ-85035/95179476_zpid/,33.4679,-112.225,2017-10-20,2017-10-20
409540,23803892,"4430 W Poinsettia Dr, Glendale, AZ 85304 ",85304,0.681491357088089,214900,https://www.zillow.com/homedetails/4430-W-Poinsettia-Dr-Glendale-AZ-85304/7727257_zpid/,33.5933,-112.154,2017-10-24,2017-10-24
1373217,23752511,"8728 W Tuckey Ln, Glendale, AZ 85305 ",85305,0.681287533044815,215000,https://www.zillow.com/homedetails/8728-W-Tuckey-Ln-Glendale-AZ-85305/7461657_zpid/,33.533,-112.24799999999999,2017-10-14,2017-10-14
9020909,23752409,"3770 E Pershing Ave, Phoenix, AZ 85032 ",85032,0.6807049930095672,215000,https://www.zillow.com/homedetails/3770-E-Pershing-Ave-Phoenix-AZ-85032/7814096_zpid/,33.6066,-112.0,2017-10-13,2017-10-13
477499,23753529,"1636 N 73rd Dr, Phoenix, AZ 85035 ",85035,0.6799167513847351,175000,https://www.zillow.com/homedetails/1636-N-73rd-Dr-Phoenix-AZ-85035/7475024_zpid/,33.4671,-112.21700000000001,2017-10-12,2017-10-12
238502,22738960,"3020 W Angela Dr, Phoenix, AZ 85053 ",85053,0.6797963559627533,189900,https://www.zillow.com/homedetails/3020-W-Angela-Dr-Phoenix-AZ-85053/7942287_zpid/,33.6461,-112.124,2017-10-05,2017-10-05
9019686,22738495,"17452 N 55th Ave, Glendale, AZ 85308 ",85308,0.6797926127910614,249900,https://www.zillow.com/homedetails/17452-N-55th-Ave-Glendale-AZ-85308/8099766_zpid/,33.6452,-112.178,2017-10-04,2017-10-04
397538,23810931,"4046 W Cactus Rd, Phoenix, AZ 85029 ",85029,0.6797863006591797,225000,https://www.zillow.com/homedetails/4046-W-Cactus-Rd-Phoenix-AZ-85029/7742480_zpid/,33.5968,-112.146,2017-10-27,2017-10-27
393461,22738571,"4244 W Butler Dr, Phoenix, AZ 85051 ",85051,0.6787427246570588,185900,https://www.zillow.com/homedetails/4244-W-Butler-Dr-Phoenix-AZ-85051/7752975_zpid/,33.5601,-112.15100000000001,2017-09-29,2017-09-29
1346544,22724803,"4852 W Frier Dr, Glendale, AZ 85301 ",85301,0.6778871536254882,235000,https://www.zillow.com/homedetails/4852-W-Frier-Dr-Glendale-AZ-85301/7724567_zpid/,33.5494,-112.164,2017-09-27,2017-09-27
230933,22721279,"18608 N 17th Ave, Phoenix, AZ 85027 ",85027,0.6777827501296997,225000,https://www.zillow.com/homedetails/18608-N-17th-Ave-Phoenix-AZ-85027/7969674_zpid/,33.6552,-112.096,2017-09-25,2017-09-25
403204,22738450,"12401 N 47th Dr, Glendale, AZ 85304 ",85304,0.6777761280536652,234900,https://www.zillow.com/homedetails/12401-N-47th-Dr-Glendale-AZ-85304/7954440_zpid/,33.5982,-112.161,2017-09-26,2017-09-26
9019388,22734487,"7202 W Merrell St, Phoenix, AZ 85033 ",85033,0.6776445269584656,179900,https://www.zillow.com/homedetails/7202-W-Merrell-St-Phoenix-AZ-85033/7468506_zpid/,33.4817,-112.214,2017-10-03,2017-10-03
424551,22713757,"9415 N 49th Ave, Glendale, AZ 85302 ",85302,0.6775947511196136,239500,https://www.zillow.com/homedetails/9415-N-49th-Ave-Glendale-AZ-85302/7730049_zpid/,33.5721,-112.165,2017-09-24,2017-09-24
223069,23526873,"13828 N 41st Ave, Phoenix, AZ 85053 ",85053,0.6775273263454438,243000,https://www.zillow.com/homedetails/13828-N-41st-Ave-Phoenix-AZ-85053/7945205_zpid/,33.6119,-112.147,2017-10-11,2017-10-11
410621,22731417,"4855 W Mescal St, Glendale, AZ 85304 ",85304,0.6774661839008331,229000,https://www.zillow.com/homedetails/4855-W-Mescal-St-Glendale-AZ-85304/7728091_zpid/,33.5863,-112.164,2017-09-28,2017-09-28
170981,22736552,"7825 E Kimsey Ln, Scottsdale, AZ 85257 ",85257,0.6773919880390167,245500,https://www.zillow.com/homedetails/7825-E-Kimsey-Ln-Scottsdale-AZ-85257/7583164_zpid/,33.4559,-111.91,2017-09-20,2017-09-20
343597,22682985,"1713 E Aire Libre Ave, Phoenix, AZ 85022 ",85022,0.6773883461952209,229900,https://www.zillow.com/homedetails/1713-E-Aire-Libre-Ave-Phoenix-AZ-85022/8004787_zpid/,33.6363,-112.045,2017-09-15,2017-09-15
410719,23804017,"4923 W Larkspur Dr, Glendale, AZ 85304 ",85304,0.676639986038208,242000,https://www.zillow.com/homedetails/4923-W-Larkspur-Dr-Glendale-AZ-85304/7954371_zpid/,33.5993,-112.165,2017-10-19,2017-10-19
224188,23754064,"14213 N 35th Dr, Phoenix, AZ 85053 ",85053,0.676425677537918,200000,https://www.zillow.com/homedetails/14213-N-35th-Dr-Phoenix-AZ-85053/7944539_zpid/,33.6154,-112.135,2017-10-16,2017-10-16
394516,22731648,"7235 N 41st Dr, Phoenix, AZ 85051 ",85051,0.676315176486969,189900,https://www.zillow.com/homedetails/7235-N-41st-Dr-Phoenix-AZ-85051/7756452_zpid/,33.5434,-112.148,2017-09-30,2017-09-30
9021059,23754396,"3533 W Villa Rita Dr, Glendale, AZ 85308 ",85308,0.6762652099132538,229500,https://www.zillow.com/homedetails/3533-W-Villa-Rita-Dr-Glendale-AZ-85308/7947826_zpid/,33.6502,-112.13600000000001,2017-10-16,2017-10-16
214991,22735746,"1339 E Mercer Ln, Phoenix, AZ 85020 ",85020,0.6760345518589019,209000,https://www.zillow.com/homedetails/1339-E-Mercer-Ln-Phoenix-AZ-85020/7785505_zpid/,33.585,-112.053,2017-09-20,2017-09-20
501566,23807411,"7828 W Bonitos Dr, Phoenix, AZ 85035 ",85035,0.6755932807922364,162999,https://www.zillow.com/homedetails/7828-W-Bonitos-Dr-Phoenix-AZ-85035/82823203_zpid/,33.4717,-112.228,2017-10-19,2017-10-19
9019062,22730923,"6418 W Hazelwood St, Phoenix, AZ 85033 ",85033,0.6755610585212708,200000,https://www.zillow.com/homedetails/6418-W-Hazelwood-St-Phoenix-AZ-85033/7712311_zpid/,33.5053,-112.198,2017-09-29,2017-09-29
1466628,23756048,"17464 N 92nd Gln, Peoria, AZ 85382 ",85382,0.6752776622772216,249900,https://www.zillow.com/homedetails/17464-N-92nd-Gln-Peoria-AZ-85382/95078061_zpid/,33.6427,-112.258,2017-10-18,2017-10-18
1414969,23527039,"7414 W Tuckey Ln, Glendale, AZ 85303 ",85303,0.6750931143760681,204900,https://www.zillow.com/homedetails/7414-W-Tuckey-Ln-Glendale-AZ-85303/7706691_zpid/,33.533,-112.219,2017-10-11,2017-10-11
149903,23800141,"8309 E Indian School Rd, Scottsdale, AZ 85251 ",85251,0.6748696506023407,239850,https://www.zillow.com/homedetails/8309-E-Indian-School-Rd-Scottsdale-AZ-85251/7577019_zpid/,33.4948,-111.902,2017-10-15,2017-10-15
8987315,22730403,"2932 W Woodridge Dr, Phoenix, AZ 85053 ",85053,0.6748191595077515,222000,https://www.zillow.com/homedetails/2932-W-Woodridge-Dr-Phoenix-AZ-85053/2093185978_zpid/,33.6407,-112.12299999999999,2017-09-29,2017-09-29
9021060,23754387,"3522 W Michelle Dr, Glendale, AZ 85308 ",85308,0.6744202375411987,232500,https://www.zillow.com/homedetails/3522-W-Michelle-Dr-Glendale-AZ-85308/7947823_zpid/,33.6498,-112.135,2017-10-16,2017-10-16
8975955,23754080,"2233 W Vista Ave, Phoenix, AZ 85021 ",85021,0.6742315113544464,231900,https://www.zillow.com/homedetails/2233-W-Vista-Ave-Phoenix-AZ-85021/2093423506_zpid/,33.547,-112.10700000000001,2017-10-16,2017-10-16
17178,22720130,"14813 N 35th St, Phoenix, AZ 85032 ",85032,0.673707240819931,204900,https://www.zillow.com/homedetails/14813-N-35th-St-Phoenix-AZ-85032/8014278_zpid/,33.6214,-112.006,2017-09-25,2017-09-25
9000590,22678276,"2725 N 40th Ave, Phoenix, AZ 85009 ",85009,0.6735004305839538,162900,https://www.zillow.com/homedetails/2725-N-40th-Ave-Phoenix-AZ-85009/7512795_zpid/,33.4798,-112.145,2017-09-15,2017-09-15
1470395,23800753,"8645 W Lockland Ct, Peoria, AZ 85382 ",85382,0.6734314858913422,223000,https://www.zillow.com/homedetails/8645-W-Lockland-Ct-Peoria-AZ-85382/8105342_zpid/,33.6306,-112.244,2017-10-23,2017-10-23
9019728,22738893,"17413 N 8th Ave, Phoenix, AZ 85023 ",85023,0.673352199792862,189500,https://www.zillow.com/homedetails/17413-N-8th-Ave-Phoenix-AZ-85023/7963487_zpid/,33.6445,-112.085,2017-10-04,2017-10-04
243121,23752741,"3214 W Villa Rita Dr, Phoenix, AZ 85053 ",85053,0.6733178317546844,220000,https://www.zillow.com/homedetails/3214-W-Villa-Rita-Dr-Phoenix-AZ-85053/7941484_zpid/,33.6505,-112.12799999999999,2017-10-14,2017-10-14
450692,23753402,"8742 W Edgemont Ave, Phoenix, AZ 85037 ",85037,0.673139226436615,190000,https://www.zillow.com/homedetails/8742-W-Edgemont-Ave-Phoenix-AZ-85037/7473770_zpid/,33.4794,-112.249,2017-10-12,2017-10-12
9020435,22875945,"3838 W Carol Ave, Phoenix, AZ 85051 ",85051,0.6729903995990754,219990,https://www.zillow.com/homedetails/3838-W-Carol-Ave-Phoenix-AZ-85051/7746969_zpid/,33.5731,-112.14200000000001,2017-10-10,2017-10-10
390375,23759015,"3010 W Sahuaro Dr, Phoenix, AZ 85029 ",85029,0.6725189447402954,215000,https://www.zillow.com/homedetails/3010-W-Sahuaro-Dr-Phoenix-AZ-85029/7739762_zpid/,33.5843,-112.124,2017-10-20,2017-10-20
639551,23807280,"604 W Kiva Ave, Mesa, AZ 85210 ",85210,0.6720360517501831,243000,https://www.zillow.com/homedetails/604-W-Kiva-Ave-Mesa-AZ-85210/8170162_zpid/,33.3769,-111.84700000000001,2017-10-19,2017-10-19
244569,22730415,"1941 W Angela Dr, Phoenix, AZ 85023 ",85023,0.6718603312969208,215000,https://www.zillow.com/homedetails/1941-W-Angela-Dr-Phoenix-AZ-85023/7958404_zpid/,33.6457,-112.102,2017-09-30,2017-09-30
221325,22745716,"9625 N 2nd St, Phoenix, AZ 85020 ",85020,0.671822452545166,175000,https://www.zillow.com/homedetails/9625-N-2nd-St-Phoenix-AZ-85020/7788559_zpid/,33.5743,-112.072,2017-10-09,2017-10-09
247778,23796681,"3436 W Acoma Dr, Phoenix, AZ 85053 ",85053,0.6712281703948975,234900,https://www.zillow.com/homedetails/3436-W-Acoma-Dr-Phoenix-AZ-85053/7943333_zpid/,33.6178,-112.133,2017-10-23,2017-10-23
459463,22737652,"5657 W Roma Ave, Phoenix, AZ 85031 ",85031,0.6709349632263184,189900,https://www.zillow.com/homedetails/5657-W-Roma-Ave-Phoenix-AZ-85031/7712821_zpid/,33.4992,-112.182,2017-10-03,2017-10-03
8989240,22742092,"7827 W Paradise Dr, Peoria, AZ 85345 ",85345,0.6709267795085907,229900,https://www.zillow.com/homedetails/7827-W-Paradise-Dr-Peoria-AZ-85345/7680374_zpid/,33.5944,-112.228,2017-10-05,2017-10-05
9019302,22733399,"4718 W Nicolet Ave, Glendale, AZ 85301 ",85301,0.6707481205463409,169000,https://www.zillow.com/homedetails/4718-W-Nicolet-Ave-Glendale-AZ-85301/7725715_zpid/,33.5429,-112.161,2017-10-02,2017-10-02
231292,23754709,"17406 N 28th Dr, Phoenix, AZ 85053 ",85053,0.6707364976406097,199000,https://www.zillow.com/homedetails/17406-N-28th-Dr-Phoenix-AZ-85053/7942376_zpid/,33.644,-112.12100000000001,2017-10-17,2017-10-17
395310,23807125,"3734 W Sierra St, Phoenix, AZ 85029 ",85029,0.6705381095409393,219000,https://www.zillow.com/homedetails/3734-W-Sierra-St-Phoenix-AZ-85029/7743992_zpid/,33.5908,-112.14,2017-10-24,2017-10-24
328241,23527207,"2138 W Thomas Rd, Phoenix, AZ 85015 ",85015,0.6703057527542114,235000,https://www.zillow.com/homedetails/2138-W-Thomas-Rd-Phoenix-AZ-85015/7518981_zpid/,33.481,-112.10600000000001,2017-10-11,2017-10-11
237449,23526633,"1633 W Michigan Ave, Phoenix, AZ 85023 ",85023,0.6702728688716888,209900,https://www.zillow.com/homedetails/1633-W-Michigan-Ave-Phoenix-AZ-85023/7957245_zpid/,33.6508,-112.095,2017-10-09,2017-10-09
1373477,22734771,"8762 W Mclellan Rd, Glendale, AZ 85305 ",85305,0.6698006510734558,220000,https://www.zillow.com/homedetails/8762-W-Mclellan-Rd-Glendale-AZ-85305/7461585_zpid/,33.532,-112.249,2017-10-02,2017-10-02
391123,23564599,"3113 W Shangri La Rd, Phoenix, AZ 85029 ",85029,0.6691569447517395,220000,https://www.zillow.com/homedetails/3113-W-Shangri-La-Rd-Phoenix-AZ-85029/7740593_zpid/,33.588,-112.126,2017-10-13,2017-10-13
8977947,23799668,"5619 W Mariposa St, Phoenix, AZ 85031 ",85031,0.6689761459827424,199900,https://www.zillow.com/homedetails/5619-W-Mariposa-St-Phoenix-AZ-85031/7713521_zpid/,33.5077,-112.18,2017-10-13,2017-10-13
339560,23754868,"7015 N 23rd Ln, Phoenix, AZ 85021 ",85021,0.6688526332378387,179900,https://www.zillow.com/homedetails/7015-N-23rd-Ln-Phoenix-AZ-85021/7779135_zpid/,33.5393,-112.11,2017-10-17,2017-10-17
1344284,22924285,"4622 W Palmaire Ave, Glendale, AZ 85301 ",85301,0.6685931980609894,200000,https://www.zillow.com/homedetails/4622-W-Palmaire-Ave-Glendale-AZ-85301/7725531_zpid/,33.5407,-112.15899999999999,2017-10-07,2017-10-07
394868,23527465,"3656 W Windrose Dr, Phoenix, AZ 85029 ",85029,0.6685899198055267,229900,https://www.zillow.com/homedetails/3656-W-Windrose-Dr-Phoenix-AZ-85029/7742970_zpid/,33.6016,-112.137,2017-10-12,2017-10-12
388766,22745700,"3835 W Ruth Ave, Phoenix, AZ 85051 ",85051,0.6682594120502472,162500,https://www.zillow.com/homedetails/3835-W-Ruth-Ave-Phoenix-AZ-85051/7752429_zpid/,33.5625,-112.14200000000001,2017-10-08,2017-10-08
8991893,23650023,"9352 W Jefferson St, Tolleson, AZ 85353 ",85353,0.6682565689086915,232900,https://www.zillow.com/homedetails/9352-W-Jefferson-St-Tolleson-AZ-85353/7460100_zpid/,33.4464,-112.26100000000001,2017-10-14,2017-10-14
387572,22707783,"2210 W Cactus Rd, Phoenix, AZ 85029 ",85029,0.6682557463645935,155000,https://www.zillow.com/homedetails/2210-W-Cactus-Rd-Phoenix-AZ-85029/7738653_zpid/,33.5968,-112.10600000000001,2017-09-22,2017-09-22
22933,22734467,"8739 W Fairmount Ave, Phoenix, AZ 85037 ",85037,0.668025803565979,170000,https://www.zillow.com/homedetails/8739-W-Fairmount-Ave-Phoenix-AZ-85037/7471067_zpid/,33.492,-112.24799999999999,2017-10-03,2017-10-03
23522,23512121,"1903 W 2nd St, Mesa, AZ 85201 ",85201,0.6679520547389984,174900,https://www.zillow.com/homedetails/1903-W-2nd-St-Mesa-AZ-85201/7612268_zpid/,33.4195,-111.87299999999999,2017-10-08,2017-10-08
9012379,22682953,"928 N Central Dr, Chandler, AZ 85224 ",85224,0.6679388523101807,249000,https://www.zillow.com/homedetails/928-N-Central-Dr-Chandler-AZ-85224/8186076_zpid/,33.3193,-111.863,2017-09-15,2017-09-15
1356029,23808897,"6742 N 54th Dr, Glendale, AZ 85301 ",85301,0.6675523698329926,155000,https://www.zillow.com/homedetails/6742-N-54th-Dr-Glendale-AZ-85301/67399667_zpid/,33.5366,-112.176,2017-10-26,2017-10-26
448364,23512346,"8402 W Fairmount Ave, Phoenix, AZ 85037 ",85037,0.6674757540225983,170000,https://www.zillow.com/homedetails/8402-W-Fairmount-Ave-Phoenix-AZ-85037/7470144_zpid/,33.4902,-112.24,2017-10-10,2017-10-10
387630,23803562,"3746 W Puget Ave, Phoenix, AZ 85051 ",85051,0.6668837547302247,194500,https://www.zillow.com/homedetails/3746-W-Puget-Ave-Phoenix-AZ-85051/7754271_zpid/,33.567,-112.141,2017-10-20,2017-10-20
9012405,23648971,"7326 W Sierra St, Peoria, AZ 85345 ",85345,0.6657844066619873,227000,https://www.zillow.com/homedetails/7326-W-Sierra-St-Peoria-AZ-85345/7700347_zpid/,33.5903,-112.21700000000001,2017-10-13,2017-10-13
486236,22747377,"4809 W Monte Vista Rd, Phoenix, AZ 85035 ",85035,0.6657764971256256,172900,https://www.zillow.com/homedetails/4809-W-Monte-Vista-Rd-Phoenix-AZ-85035/87791786_zpid/,33.4713,-112.163,2017-10-10,2017-10-10
524898,23810672,"9134 W Cypress St, Phoenix, AZ 85037 ",85037,0.6657464563846588,214900,https://www.zillow.com/homedetails/9134-W-Cypress-St-Phoenix-AZ-85037/67762994_zpid/,33.4719,-112.257,2017-10-27,2017-10-27
409027,23757015,"6509 W Grandview Rd, Glendale, AZ 85306 ",85306,0.6656182765960693,234900,https://www.zillow.com/homedetails/6509-W-Grandview-Rd-Glendale-AZ-85306/7902066_zpid/,33.6342,-112.198,2017-10-18,2017-10-18
404277,23754957,"13213 N 55th Ave, Glendale, AZ 85304 ",85304,0.665402626991272,230000,https://www.zillow.com/homedetails/13213-N-55th-Ave-Glendale-AZ-85304/7911876_zpid/,33.6045,-112.177,2017-10-17,2017-10-17
9021757,23800773,"9008 W Charleston Ave, Peoria, AZ 85382 ",85382,0.665051281452179,249900,https://www.zillow.com/homedetails/9008-W-Charleston-Ave-Peoria-AZ-85382/8105059_zpid/,33.6467,-112.25299999999999,2017-10-22,2017-10-22
402730,23756995,"15243 N 66th Dr, Glendale, AZ 85306 ",85306,0.665024209022522,242500,https://www.zillow.com/homedetails/15243-N-66th-Dr-Glendale-AZ-85306/8100497_zpid/,33.6248,-112.20100000000001,2017-10-19,2017-10-19
699193,23823519,"948 W Plata Ave, Mesa, AZ 85210 ",85210,0.6647961854934692,240000,https://www.zillow.com/homedetails/948-W-Plata-Ave-Mesa-AZ-85210/8191030_zpid/,33.3637,-111.853,2017-11-08,2017-11-08
401493,23754956,"11221 N 58th Ave, Glendale, AZ 85304 ",85304,0.6645912110805512,209000,https://www.zillow.com/homedetails/11221-N-58th-Ave-Glendale-AZ-85304/7736227_zpid/,33.588,-112.184,2017-10-17,2017-10-17
1347449,22745803,"5026 W Morten Ave, Glendale, AZ 85301 ",85301,0.6644721686840057,240000,https://www.zillow.com/homedetails/5026-W-Morten-Ave-Glendale-AZ-85301/7724863_zpid/,33.5472,-112.167,2017-10-08,2017-10-08
349893,23809734,"18437 N 8th Pl, Phoenix, AZ 85022 ",85022,0.6640227556228637,215000,https://www.zillow.com/homedetails/18437-N-8th-Pl-Phoenix-AZ-85022/8002699_zpid/,33.6545,-112.061,2017-10-27,2017-10-27
431605,22717310,"6827 W Verde Ln, Phoenix, AZ 85033 ",85033,0.663924765586853,175000,https://www.zillow.com/homedetails/6827-W-Verde-Ln-Phoenix-AZ-85033/7468675_zpid/,33.4808,-112.20700000000001,2017-09-21,2017-09-21
329461,22734607,"2426 W Rose Ln, Phoenix, AZ 85015 ",85015,0.6633811295032501,219900,https://www.zillow.com/homedetails/2426-W-Rose-Ln-Phoenix-AZ-85015/7772682_zpid/,33.5279,-112.111,2017-10-03,2017-10-03
395402,23803558,"3741 W Poinsettia Dr, Phoenix, AZ 85029 ",85029,0.6632716298103333,230000,https://www.zillow.com/homedetails/3741-W-Poinsettia-Dr-Phoenix-AZ-85029/7743913_zpid/,33.5926,-112.14,2017-10-23,2017-10-23
343249,22747251,"2019 N 37th Ave, Phoenix, AZ 85009 ",85009,0.6620175242424011,164850,https://www.zillow.com/homedetails/2019-N-37th-Ave-Phoenix-AZ-85009/7511305_zpid/,33.4704,-112.139,2017-10-02,2017-10-02
236208,23512189,"2919 W Libby St, Phoenix, AZ 85053 ",85053,0.6620063364505768,219000,https://www.zillow.com/homedetails/2919-W-Libby-St-Phoenix-AZ-85053/7940817_zpid/,33.6477,-112.12200000000001,2017-10-07,2017-10-07
11900,22731607,"3801 W Coolidge St, Phoenix, AZ 85019 ",85019,0.6618648827075958,175900,https://www.zillow.com/homedetails/3801-W-Coolidge-St-Phoenix-AZ-85019/7507100_zpid/,33.5048,-112.141,2017-09-29,2017-09-29
9019690,23756231,"3644 W Libby St, Glendale, AZ 85308 ",85308,0.6615817427635193,175000,https://www.zillow.com/homedetails/3644-W-Libby-St-Glendale-AZ-85308/7948081_zpid/,33.6483,-112.13799999999999,2017-10-19,2017-10-19
404139,23796915,"16257 N 63rd Dr, Glendale, AZ 85306 ",85306,0.6615632593631744,224900,https://www.zillow.com/homedetails/16257-N-63rd-Dr-Glendale-AZ-85306/7902050_zpid/,33.6345,-112.195,2017-10-23,2017-10-23
250469,22705843,"2302 W Village Dr, Phoenix, AZ 85023 ",85023,0.6615551829338073,244499,https://www.zillow.com/homedetails/2302-W-Village-Dr-Phoenix-AZ-85023/7963978_zpid/,33.645,-112.109,2017-09-20,2017-09-20
448390,23757850,"8403 W Lewis Ave, Phoenix, AZ 85037 ",85037,0.6614182591438293,160000,https://www.zillow.com/homedetails/8403-W-Lewis-Ave-Phoenix-AZ-85037/81985441_zpid/,33.4738,-112.24,2017-10-19,2017-10-19
9021175,23755408,"9162 W Charleston Ave, Peoria, AZ 85382 ",85382,0.6609892845153809,219000,https://www.zillow.com/homedetails/9162-W-Charleston-Ave-Peoria-AZ-85382/8104904_zpid/,33.6462,-112.257,2017-10-18,2017-10-18
645527,23807613,"708 W Emelita Ave, Mesa, AZ 85210 ",85210,0.6607995629310608,195000,https://www.zillow.com/homedetails/708-W-Emelita-Ave-Mesa-AZ-85210/7598409_zpid/,33.3985,-111.84700000000001,2017-10-25,2017-10-25
390740,23814265,"3037 W Charter Oak Rd, Phoenix, AZ 85029 ",85029,0.6607855200767517,207000,https://www.zillow.com/homedetails/3037-W-Charter-Oak-Rd-Phoenix-AZ-85029/7747216_zpid/,33.5977,-112.124,2017-10-28,2017-10-28
1406073,22738291,"6732 W Medlock Dr, Glendale, AZ 85303 ",85303,0.6607680916786194,190000,https://www.zillow.com/homedetails/6732-W-Medlock-Dr-Glendale-AZ-85303/7709112_zpid/,33.5116,-112.205,2017-09-26,2017-09-26
1418765,23807577,"7802 W Nicolet Ave, Glendale, AZ 85303 ",85303,0.6603413343429565,184995,https://www.zillow.com/homedetails/7802-W-Nicolet-Ave-Glendale-AZ-85303/60122813_zpid/,33.5424,-112.228,2017-10-25,2017-10-25
389263,22707820,"3907 W Davidson Ln, Phoenix, AZ 85051 ",85051,0.6603175282478333,249000,https://www.zillow.com/homedetails/3907-W-Davidson-Ln-Phoenix-AZ-85051/7746545_zpid/,33.5698,-112.14299999999999,2017-09-21,2017-09-21
9019948,22740803,"2841 W Pierce St, Phoenix, AZ 85009 ",85009,0.6601677477359772,139900,https://www.zillow.com/homedetails/2841-W-Pierce-St-Phoenix-AZ-85009/7513504_zpid/,33.4558,-112.12100000000001,2017-10-06,2017-10-06
7381656,23512343,"8231 W Meadowbrook Ave, Phoenix, AZ 85033 ",85033,0.6600848436355591,178000,https://www.zillow.com/homedetails/8231-W-Meadowbrook-Ave-Phoenix-AZ-85033/7482781_zpid/,33.5024,-112.236,2017-10-08,2017-10-08
237687,22691836,"3003 W Anderson Dr, Phoenix, AZ 85053 ",85053,0.6599908471107483,249500,https://www.zillow.com/homedetails/3003-W-Anderson-Dr-Phoenix-AZ-85053/7942212_zpid/,33.6441,-112.124,2017-09-19,2017-09-19
393352,23759043,"4238 W Barbara Ave, Phoenix, AZ 85051 ",85051,0.6597679078578949,249900,https://www.zillow.com/homedetails/4238-W-Barbara-Ave-Phoenix-AZ-85051/7753258_zpid/,33.5637,-112.15100000000001,2017-10-20,2017-10-20
8992548,23569558,"4746 W Nicolet Ave, Glendale, AZ 85301 ",85301,0.6597163736820221,157900,https://www.zillow.com/homedetails/4746-W-Nicolet-Ave-Glendale-AZ-85301/7725721_zpid/,33.5426,-112.162,2017-10-13,2017-10-13
9020054,22741753,"3829 W Montebello Ave, Phoenix, AZ 85019 ",85019,0.6592126190662384,165000,https://www.zillow.com/homedetails/3829-W-Montebello-Ave-Phoenix-AZ-85019/7719525_zpid/,33.5201,-112.14200000000001,2017-10-06,2017-10-06
1348518,22734700,"5413 W Myrtle Ave, Glendale, AZ 85301 ",85301,0.6591822445392609,166900,https://www.zillow.com/homedetails/5413-W-Myrtle-Ave-Glendale-AZ-85301/7726061_zpid/,33.5421,-112.175,2017-10-03,2017-10-03
9019387,22734485,"6810 W Merrell St, Phoenix, AZ 85033 ",85033,0.6588117837905884,185000,https://www.zillow.com/homedetails/6810-W-Merrell-St-Phoenix-AZ-85033/7468727_zpid/,33.4824,-112.206,2017-10-02,2017-10-02
1349810,22742498,"5709 N 45th Dr, Glendale, AZ 85301 ",85301,0.6586181819438934,177000,https://www.zillow.com/homedetails/5709-N-45th-Dr-Glendale-AZ-85301/7718077_zpid/,33.5209,-112.156,2017-09-26,2017-09-26
409622,23754067,"4447 W Mercer Ln, Glendale, AZ 85304 ",85304,0.6585092186927796,229000,https://www.zillow.com/homedetails/4447-W-Mercer-Ln-Glendale-AZ-85304/7727953_zpid/,33.5852,-112.156,2017-10-16,2017-10-16
457960,23512295,"5355 W Earll Dr, Phoenix, AZ 85031 ",85031,0.6580455839633942,179900,https://www.zillow.com/homedetails/5355-W-Earll-Dr-Phoenix-AZ-85031/7496878_zpid/,33.4846,-112.175,2017-10-10,2017-10-10
1352382,22742514,"6115 W Cavalier Dr, Glendale, AZ 85301 ",85301,0.6580333471298218,159900,https://www.zillow.com/homedetails/6115-W-Cavalier-Dr-Glendale-AZ-85301/7715540_zpid/,33.5266,-112.191,2017-09-19,2017-09-19
9022396,23816564,"15435 N 66th Ave, Glendale, AZ 85306 ",85306,0.6579734861850739,79900,https://www.zillow.com/homedetails/15435-N-66th-Ave-Glendale-AZ-85306/7901799_zpid/,33.6265,-112.199,2017-10-31,2017-10-31
1960784,22678331,"7424 W Minnezona Ave, Phoenix, AZ 85033 ",85033,0.6579095542430877,175000,https://www.zillow.com/homedetails/7424-W-Minnezona-Ave-Phoenix-AZ-85033/7710976_zpid/,33.5028,-112.219,2017-09-15,2017-09-15
8969477,23756066,"9324 W Mountain View Rd, Peoria, AZ 85345 ",85345,0.6574176371097564,214000,https://www.zillow.com/homedetails/9324-W-Mountain-View-Rd-Peoria-AZ-85345/7697441_zpid/,33.5733,-112.26100000000001,2017-10-18,2017-10-18
469895,23526992,"3401 W Tuckey Ln, Phoenix, AZ 85017 ",85017,0.6570072591304779,169000,https://www.zillow.com/homedetails/3401-W-Tuckey-Ln-Phoenix-AZ-85017/7760733_zpid/,33.5332,-112.132,2017-10-11,2017-10-11
1075269,23796771,"1803 N Cheri Lynn Dr, Chandler, AZ 85225 ",85225,0.656777846813202,239900,https://www.zillow.com/homedetails/1803-N-Cheri-Lynn-Dr-Chandler-AZ-85225/8183501_zpid/,33.3321,-111.853,2017-10-19,2017-10-19
9012276,23755797,"5861 W Grovers Ave, Glendale, AZ 85308 ",85308,0.6566769778728485,207000,https://www.zillow.com/homedetails/5861-W-Grovers-Ave-Glendale-AZ-85308/8099781_zpid/,33.6472,-112.186,2017-10-18,2017-10-18
391605,23759518,"4120 W Ironwood Dr, Phoenix, AZ 85051 ",85051,0.6565911293029785,245000,https://www.zillow.com/homedetails/4120-W-Ironwood-Dr-Phoenix-AZ-85051/7746405_zpid/,33.5754,-112.147,2017-10-21,2017-10-21
398347,23819805,"4148 W Bloomfield Rd, Phoenix, AZ 85029 ",85029,0.6565273821353912,228900,https://www.zillow.com/homedetails/4148-W-Bloomfield-Rd-Phoenix-AZ-85029/7742599_zpid/,33.5988,-112.149,2017-11-03,2017-11-03
973844,23809132,"628 N Dustin Ln, Chandler, AZ 85226 ",85226,0.6565155208110809,239900,https://www.zillow.com/homedetails/628-N-Dustin-Ln-Chandler-AZ-85226/8157254_zpid/,33.3139,-111.95200000000001,2017-10-05,2017-10-05
9015636,23527294,"7118 W Sells Dr, Phoenix, AZ 85033 ",85033,0.6564185440540313,184900,https://www.zillow.com/homedetails/7118-W-Sells-Dr-Phoenix-AZ-85033/88889219_zpid/,33.5022,-112.213,2017-10-11,2017-10-11
460174,22712498,"5801 W Clarendon Ave, Phoenix, AZ 85031 ",85031,0.6563526749610901,175000,https://www.zillow.com/homedetails/5801-W-Clarendon-Ave-Phoenix-AZ-85031/7496859_zpid/,33.4913,-112.185,2017-09-23,2017-09-23
8987452,23806670,"13360 N 79th Ave, Peoria, AZ 85381 ",85381,0.6561822533607483,219000,https://www.zillow.com/homedetails/13360-N-79th-Ave-Peoria-AZ-85381/8100973_zpid/,33.6063,-112.229,2017-10-25,2017-10-25
828523,23754070,"3544 W Maryland Ave, Phoenix, AZ 85019 ",85019,0.656112939119339,176000,https://www.zillow.com/homedetails/3544-W-Maryland-Ave-Phoenix-AZ-85019/7761656_zpid/,33.5312,-112.13600000000001,2017-10-16,2017-10-16
526527,23806419,"9409 W Berkeley Rd, Phoenix, AZ 85037 ",85037,0.6559025168418884,234000,https://www.zillow.com/homedetails/9409-W-Berkeley-Rd-Phoenix-AZ-85037/60047081_zpid/,33.4677,-112.262,2017-10-25,2017-10-25
394538,23756229,"3622 W Bloomfield Rd, Phoenix, AZ 85029 ",85029,0.6556908130645752,193000,https://www.zillow.com/homedetails/3622-W-Bloomfield-Rd-Phoenix-AZ-85029/7742907_zpid/,33.5986,-112.137,2017-10-17,2017-10-17
411351,23808882,"5194 W Paradise Dr, Glendale, AZ 85304 ",85304,0.6555114209651947,219900,https://www.zillow.com/homedetails/5194-W-Paradise-Dr-Glendale-AZ-85304/60978690_zpid/,33.5953,-112.171,2017-10-26,2017-10-26
9019581,23796917,"18428 N 55th Dr, Glendale, AZ 85308 ",85308,0.655230063199997,199995,https://www.zillow.com/homedetails/18428-N-55th-Dr-Glendale-AZ-85308/7901123_zpid/,33.6531,-112.178,2017-10-23,2017-10-23
9021166,23755396,"7624 W Comet Ave, Peoria, AZ 85345 ",85345,0.6551469504833222,214900,https://www.zillow.com/homedetails/7624-W-Comet-Ave-Peoria-AZ-85345/7682505_zpid/,33.5791,-112.223,2017-10-17,2017-10-17
436097,23817135,"2311 N 91st Gln, Phoenix, AZ 85037 ",85037,0.6550062119960784,226400,https://www.zillow.com/homedetails/2311-N-91st-Gln-Phoenix-AZ-85037/60974969_zpid/,33.4747,-112.257,2017-11-01,2017-11-01
392666,23759961,"4208 W El Camino Dr, Phoenix, AZ 85051 ",85051,0.6539633810520172,215000,https://www.zillow.com/homedetails/4208-W-El-Camino-Dr-Phoenix-AZ-85051/7752812_zpid/,33.5573,-112.15,2017-10-21,2017-10-21
379293,23800540,"2626 W Northview Ave, Phoenix, AZ 85051 ",85051,0.6539360523223877,129900,https://www.zillow.com/homedetails/2626-W-Northview-Ave-Phoenix-AZ-85051/7779482_zpid/,33.5439,-112.116,2017-10-24,2017-10-24
345778,23810944,"17441 N 20th St, Phoenix, AZ 85022 ",85022,0.6538915514945984,235000,https://www.zillow.com/homedetails/17441-N-20th-St-Phoenix-AZ-85022/8000666_zpid/,33.6457,-112.039,2017-10-27,2017-10-27
329167,22718810,"2340 W Mulberry Dr, Phoenix, AZ 85015 ",85015,0.6538762450218201,210000,https://www.zillow.com/homedetails/2340-W-Mulberry-Dr-Phoenix-AZ-85015/7517577_zpid/,33.4872,-112.11,2017-09-25,2017-09-25
835193,22740118,"3633 W Mariposa St, Phoenix, AZ 85019 ",85019,0.653806346654892,180000,https://www.zillow.com/homedetails/3633-W-Mariposa-St-Phoenix-AZ-85019/7506850_zpid/,33.5075,-112.13799999999999,2017-10-05,2017-10-05
829181,22685240,"3635 W Berridge Ln, Phoenix, AZ 85019 ",85019,0.6537437379360199,190000,https://www.zillow.com/homedetails/3635-W-Berridge-Ln-Phoenix-AZ-85019/7759149_zpid/,33.5254,-112.13799999999999,2017-09-17,2017-09-17
534105,22687097,"1902 W Palm Ln, Phoenix, AZ 85009 ",85009,0.653607177734375,205000,https://www.zillow.com/homedetails/1902-W-Palm-Ln-Phoenix-AZ-85009/7519867_zpid/,33.4693,-112.1,2017-09-17,2017-09-17
9022177,23811570,"5730 E Calle Sonora, Guadalupe, AZ 85283 ",85283,0.6536055743694306,89000,https://www.zillow.com/homedetails/5730-E-Calle-Sonora-Guadalupe-AZ-85283/8138847_zpid/,33.3713,-111.96,2017-10-28,2017-10-28
8996166,22690979,"8901 W Malapai Dr, Peoria, AZ 85345 ",85345,0.6535475671291351,195000,https://www.zillow.com/homedetails/8901-W-Malapai-Dr-Peoria-AZ-85345/7684242_zpid/,33.5749,-112.251,2017-09-18,2017-09-18
9019753,22739028,"517 N Center St, Mesa, AZ 85201 ",85201,0.6530398190021515,155000,https://www.zillow.com/homedetails/517-N-Center-St-Mesa-AZ-85201/7622095_zpid/,33.4245,-111.831,2017-10-04,2017-10-04
382519,23814251,"12633 N 25th Ave, Phoenix, AZ 85029 ",85029,0.6529752075672149,201000,https://www.zillow.com/homedetails/12633-N-25th-Ave-Phoenix-AZ-85029/7748274_zpid/,33.6011,-112.113,2017-10-29,2017-10-29
9021871,23807926,"12120 N 89th Dr, Peoria, AZ 85345 ",85345,0.6529320657253266,249900,https://www.zillow.com/homedetails/12120-N-89th-Dr-Peoria-AZ-85345/7685583_zpid/,33.5947,-112.25200000000001,2017-10-25,2017-10-25
9004987,23813468,"11048 N 16th Ave, Phoenix, AZ 85029 ",85029,0.652802562713623,209900,https://www.zillow.com/homedetails/11048-N-16th-Ave-Phoenix-AZ-85029/7784826_zpid/,33.5871,-112.09299999999999,2017-10-26,2017-10-26
9012334,23756198,"2848 E Michael Dr, Phoenix, AZ 85032 ",85032,0.6527419507503509,169000,https://www.zillow.com/homedetails/2848-E-Michael-Dr-Phoenix-AZ-85032/8011637_zpid/,33.6254,-112.02,2017-10-16,2017-10-16
223723,23756948,"14028 N 29th Dr, Phoenix, AZ 85053 ",85053,0.6525128543376922,199999,https://www.zillow.com/homedetails/14028-N-29th-Dr-Phoenix-AZ-85053/7942983_zpid/,33.6134,-112.12200000000001,2017-10-19,2017-10-19
1857836,23512369,"8932 W Ironwood Dr, Peoria, AZ 85345 ",85345,0.6524561643600464,188000,https://www.zillow.com/homedetails/8932-W-Ironwood-Dr-Peoria-AZ-85345/7684236_zpid/,33.5746,-112.25200000000001,2017-10-09,2017-10-09
1115786,23756148,"1723 N Longmore St, Chandler, AZ 85224 ",85224,0.6518623530864716,229900,https://www.zillow.com/homedetails/1723-N-Longmore-St-Chandler-AZ-85224/8193731_zpid/,33.3324,-111.868,2017-10-18,2017-10-18
435965,23757849,"2237 N 94th Ave, Phoenix, AZ 85037 ",85037,0.6517390429973602,229999,https://www.zillow.com/homedetails/2237-N-94th-Ave-Phoenix-AZ-85037/67773064_zpid/,33.4752,-112.26100000000001,2017-10-20,2017-10-20
629600,23810385,"1646 W Pecos Ave, Mesa, AZ 85202 ",85202,0.651538759469986,214900,https://www.zillow.com/homedetails/1646-W-Pecos-Ave-Mesa-AZ-85202/8191480_zpid/,33.3602,-111.87,2017-10-27,2017-10-27
457450,22737336,"5032 W Fairmount Ave, Phoenix, AZ 85031 ",85031,0.6514411628246307,199000,https://www.zillow.com/homedetails/5032-W-Fairmount-Ave-Phoenix-AZ-85031/7508890_zpid/,33.493,-112.169,2017-09-25,2017-09-25
41623,23754550,"6327 W Hilton Ave, Phoenix, AZ 85043 ",85043,0.6510883033275604,190000,https://www.zillow.com/homedetails/6327-W-Hilton-Ave-Phoenix-AZ-85043/53206202_zpid/,33.4279,-112.197,2017-10-17,2017-10-17
411159,23760075,"5131 W Corrine Dr, Glendale, AZ 85304 ",85304,0.6510060489177704,238900,https://www.zillow.com/homedetails/5131-W-Corrine-Dr-Glendale-AZ-85304/7911511_zpid/,33.6005,-112.171,2017-10-21,2017-10-21
1413226,22747483,"7301 W Cavalier Dr, Glendale, AZ 85303 ",85303,0.6508941888809204,179900,https://www.zillow.com/homedetails/7301-W-Cavalier-Dr-Glendale-AZ-85303/7707198_zpid/,33.5243,-112.21600000000001,2017-10-10,2017-10-10
1402438,23753365,"5404 N 71st Ave, Glendale, AZ 85303 ",85303,0.6508762896060943,194500,https://www.zillow.com/homedetails/5404-N-71st-Ave-Glendale-AZ-85303/7709528_zpid/,33.5145,-112.211,2017-10-14,2017-10-14
466810,23754081,"3038 W Tuckey Ln, Phoenix, AZ 85017 ",85017,0.6507525563240051,170000,https://www.zillow.com/homedetails/3038-W-Tuckey-Ln-Phoenix-AZ-85017/7759492_zpid/,33.5334,-112.125,2017-10-16,2017-10-16
349598,23800467,"18407 N 16th Pl, Phoenix, AZ 85022 ",85022,0.6507132172584533,240000,https://www.zillow.com/homedetails/18407-N-16th-Pl-Phoenix-AZ-85022/8001275_zpid/,33.6534,-112.04700000000001,2017-10-24,2017-10-24
455588,22692566,"4730 W Mitchell Dr, Phoenix, AZ 85031 ",85031,0.6505786538124084,180000,https://www.zillow.com/homedetails/4730-W-Mitchell-Dr-Phoenix-AZ-85031/7508638_zpid/,33.4897,-112.162,2017-09-19,2017-09-19
333549,23801782,"1415 W Cinnabar Ave, Phoenix, AZ 85021 ",85021,0.6502579152584076,215000,https://www.zillow.com/homedetails/1415-W-Cinnabar-Ave-Phoenix-AZ-85021/7781704_zpid/,33.5764,-112.09100000000001,2017-10-20,2017-10-20
629569,23810381,"1645 W Peralta Ave, Mesa, AZ 85202 ",85202,0.6501793026924133,229900,https://www.zillow.com/homedetails/1645-W-Peralta-Ave-Mesa-AZ-85202/8191627_zpid/,33.3572,-111.87,2017-10-27,2017-10-27
424819,23757935,"9632 N 53rd Ave, Glendale, AZ 85302 ",85302,0.6500995993614197,195000,https://www.zillow.com/homedetails/9632-N-53rd-Ave-Glendale-AZ-85302/7734288_zpid/,33.5739,-112.17399999999999,2017-10-20,2017-10-20
9017813,23796273,"18629 N 5th Ave, Phoenix, AZ 85027 ",85027,0.6497397184371948,185500,https://www.zillow.com/homedetails/18629-N-5th-Ave-Phoenix-AZ-85027/2092597506_zpid/,33.6559,-112.08,2017-10-23,2017-10-23
485536,22747620,"4501 W Granada Rd, Phoenix, AZ 85035 ",85035,0.6492983877658844,160000,https://www.zillow.com/homedetails/4501-W-Granada-Rd-Phoenix-AZ-85035/7494981_zpid/,33.468,-112.156,2017-10-10,2017-10-10
327942,22708057,"2118 W Campbell Ave, Phoenix, AZ 85015 ",85015,0.6491709530353547,240000,https://www.zillow.com/homedetails/2118-W-Campbell-Ave-Phoenix-AZ-85015/7767277_zpid/,33.5025,-112.105,2017-09-22,2017-09-22
422412,23760087,"6622 W Golden Ln, Glendale, AZ 85302 ",85302,0.6491117417812348,190000,https://www.zillow.com/homedetails/6622-W-Golden-Ln-Glendale-AZ-85302/50187805_zpid/,33.5652,-112.20200000000001,2017-10-20,2017-10-20
337793,22745680,"2343 W Diana Ave, Phoenix, AZ 85021 ",85021,0.6491081416606903,225000,https://www.zillow.com/homedetails/2343-W-Diana-Ave-Phoenix-AZ-85021/7782287_zpid/,33.563,-112.11,2017-10-09,2017-10-09
527753,23797429,"9509 W Elm St, Phoenix, AZ 85037 ",85037,0.6489438652992249,205000,https://www.zillow.com/homedetails/9509-W-Elm-St-Phoenix-AZ-85037/55256235_zpid/,33.5056,-112.265,2017-10-24,2017-10-24
9013905,22694429,"2418 E Dahlia Dr, Phoenix, AZ 85032 ",85032,0.6488005220890045,225000,https://www.zillow.com/homedetails/2418-E-Dahlia-Dr-Phoenix-AZ-85032/7820474_zpid/,33.6034,-112.03,2017-09-18,2017-09-18
329444,22745740,"2423 W San Miguel Ave, Phoenix, AZ 85015 ",85015,0.6487861096858978,178800,https://www.zillow.com/homedetails/2423-W-San-Miguel-Ave-Phoenix-AZ-85015/7763696_zpid/,33.5193,-112.11200000000001,2017-10-06,2017-10-06
479569,23756167,"2212 N 50th Ave, Phoenix, AZ 85035 ",85035,0.6482982754707336,149900,https://www.zillow.com/homedetails/2212-N-50th-Ave-Phoenix-AZ-85035/7494270_zpid/,33.472,-112.167,2017-10-11,2017-10-11
402249,23756994,"14811 N 52nd Ave, Glendale, AZ 85306 ",85306,0.6480412125587464,205000,https://www.zillow.com/homedetails/14811-N-52nd-Ave-Glendale-AZ-85306/7910951_zpid/,33.6197,-112.171,2017-10-19,2017-10-19
326659,22740088,"1824 W Stella Ln, Phoenix, AZ 85015 ",85015,0.6477721214294434,238900,https://www.zillow.com/homedetails/1824-W-Stella-Ln-Phoenix-AZ-85015/7774085_zpid/,33.5301,-112.098,2017-10-05,2017-10-05
1342305,22747361,"4413 W Maryland Ave, Glendale, AZ 85301 ",85301,0.6474602282047272,234500,https://www.zillow.com/homedetails/4413-W-Maryland-Ave-Glendale-AZ-85301/7724234_zpid/,33.5309,-112.154,2017-10-06,2017-10-06
415785,22699422,"4307 W Seldon Ln, Glendale, AZ 85302 ",85302,0.647407728433609,239900,https://www.zillow.com/homedetails/4307-W-Seldon-Ln-Glendale-AZ-85302/7731074_zpid/,33.5611,-112.152,2017-09-13,2017-09-13
1414930,23808887,"7413 N 75th Dr, Glendale, AZ 85303 ",85303,0.6474070608615875,241500,https://www.zillow.com/homedetails/7413-N-75th-Dr-Glendale-AZ-85303/60978522_zpid/,33.5441,-112.221,2017-10-26,2017-10-26
329122,22745742,"2335 W Rose Ln, Phoenix, AZ 85015 ",85015,0.6472429275512696,249900,https://www.zillow.com/homedetails/2335-W-Rose-Ln-Phoenix-AZ-85015/92352474_zpid/,33.5275,-112.11,2017-10-06,2017-10-06
354848,22739897,"2320 E Beck Ln, Phoenix, AZ 85022 ",85022,0.6470809817314148,170000,https://www.zillow.com/homedetails/2320-E-Beck-Ln-Phoenix-AZ-85022/8007959_zpid/,33.626999999999995,-112.03299999999999,2017-10-04,2017-10-04
1342557,22924422,"4437 W Morten Ave, Glendale, AZ 85301 ",85301,0.6470007240772248,148900,https://www.zillow.com/homedetails/4437-W-Morten-Ave-Glendale-AZ-85301/7725237_zpid/,33.5476,-112.155,2017-10-06,2017-10-06
8969573,22741412,"3002 N 54th Ln, Phoenix, AZ 85031 ",85031,0.6469583630561828,210000,https://www.zillow.com/homedetails/3002-N-54th-Ln-Phoenix-AZ-85031/7497284_zpid/,33.4831,-112.177,2017-10-06,2017-10-06
396647,23804893,"8225 N 32ND Ave, Phoenix, AZ 85051 ",85051,0.6469325304031373,120000,https://www.zillow.com/homedetails/8225-N-32ND-Ave-Phoenix-AZ-85051/7751472_zpid/,33.5568,-112.12899999999999,2017-08-28,2017-08-28
482837,22692547,"2605 N 50th Ave, Phoenix, AZ 85035 ",85035,0.6461650311946869,180000,https://www.zillow.com/homedetails/2605-N-50th-Ave-Phoenix-AZ-85035/7494002_zpid/,33.4773,-112.165,2017-09-19,2017-09-19
9022109,23811012,"13037 N 56th Ave, Glendale, AZ 85304 ",85304,0.6460673391819001,214900,https://www.zillow.com/homedetails/13037-N-56th-Ave-Glendale-AZ-85304/7896749_zpid/,33.6024,-112.177,2017-10-27,2017-10-27
527735,23797438,"9507 W Monte Vista Rd, Phoenix, AZ 85037 ",85037,0.645791643857956,214900,https://www.zillow.com/homedetails/9507-W-Monte-Vista-Rd-Phoenix-AZ-85037/60974973_zpid/,33.4697,-112.265,2017-10-24,2017-10-24
8945113,23759637,"7920 W Sweetwater Ave, Peoria, AZ 85381 ",85381,0.6456061124801635,229900,https://www.zillow.com/homedetails/7920-W-Sweetwater-Ave-Peoria-AZ-85381/8100881_zpid/,33.6029,-112.23,2017-10-19,2017-10-19
492013,22700052,"5635 W Cambridge Ave, Phoenix, AZ 85035 ",85035,0.6455695688724518,185000,https://www.zillow.com/homedetails/5635-W-Cambridge-Ave-Phoenix-AZ-85035/7492190_zpid/,33.4769,-112.182,2017-09-15,2017-09-15
404051,23755789,"13002 N 55th Dr, Glendale, AZ 85304 ",85304,0.645554268360138,249900,https://www.zillow.com/homedetails/13002-N-55th-Dr-Glendale-AZ-85304/7896792_zpid/,33.6019,-112.175,2017-10-18,2017-10-18
459700,22721620,"5715 W Roma Ave, Phoenix, AZ 85031 ",85031,0.6454851984977722,139900,https://www.zillow.com/homedetails/5715-W-Roma-Ave-Phoenix-AZ-85031/7712868_zpid/,33.4993,-112.18299999999999,2017-09-26,2017-09-26
242590,22686911,"3202 W Angela Dr, Phoenix, AZ 85053 ",85053,0.645412540435791,234900,https://www.zillow.com/homedetails/3202-W-Angela-Dr-Phoenix-AZ-85053/7942083_zpid/,33.6461,-112.12799999999999,2017-09-12,2017-09-12
501356,23806411,"7762 W Pipestone Pl, Phoenix, AZ 85035 ",85035,0.6452291786670685,185000,https://www.zillow.com/homedetails/7762-W-Pipestone-Pl-Phoenix-AZ-85035/95118267_zpid/,33.4726,-112.226,2017-10-25,2017-10-25
333024,22724856,"5523 N 23rd Ave, Phoenix, AZ 85015 ",85015,0.6449546992778779,186500,https://www.zillow.com/homedetails/5523-N-23rd-Ave-Phoenix-AZ-85015/7763546_zpid/,33.5178,-112.10799999999999,2017-09-26,2017-09-26
331966,22708058,"5114 N 20th Ave, Phoenix, AZ 85015 ",85015,0.6446821451187134,234900,https://www.zillow.com/homedetails/5114-N-20th-Ave-Phoenix-AZ-85015/7765229_zpid/,33.512,-112.103,2017-09-20,2017-09-20
335012,23755713,"13046 N 18th St, Phoenix, AZ 85022 ",85022,0.6446757555007935,130000,https://www.zillow.com/homedetails/13046-N-18th-St-Phoenix-AZ-85022/7815914_zpid/,33.6058,-112.044,2017-10-18,2017-10-18
1112291,23816172,"1411 W El Alba Way, Chandler, AZ 85224 ",85224,0.644265228509903,239000,https://www.zillow.com/homedetails/1411-W-El-Alba-Way-Chandler-AZ-85224/8176088_zpid/,33.3384,-111.866,2017-10-31,2017-10-31
1115381,23814910,"1710 N Comanche Dr, Chandler, AZ 85224 ",85224,0.6441722214221954,244888,https://www.zillow.com/homedetails/1710-N-Comanche-Dr-Chandler-AZ-85224/8194464_zpid/,33.330999999999996,-111.863,2017-10-30,2017-10-30
9020887,23650464,"6702 W Roma Ave, Phoenix, AZ 85033 ",85033,0.6440580785274506,175000,https://www.zillow.com/homedetails/6702-W-Roma-Ave-Phoenix-AZ-85033/7717096_zpid/,33.5019,-112.204,2017-10-12,2017-10-12
407671,23816224,"5901 W Nancy Rd, Glendale, AZ 85306 ",85306,0.6437396705150604,209550,https://www.zillow.com/homedetails/5901-W-Nancy-Rd-Glendale-AZ-85306/8097014_zpid/,33.6286,-112.186,2017-10-31,2017-10-31
833557,23560179,"5747 N 38th Dr, Phoenix, AZ 85019 ",85019,0.6436908721923829,198900,https://www.zillow.com/homedetails/5747-N-38th-Dr-Phoenix-AZ-85019/7719106_zpid/,33.5221,-112.141,2017-10-13,2017-10-13
1116724,23760117,"1813 N Apache Dr, Chandler, AZ 85224 ",85224,0.6436838209629059,245000,https://www.zillow.com/homedetails/1813-N-Apache-Dr-Chandler-AZ-85224/8193675_zpid/,33.3327,-111.861,2017-10-21,2017-10-21
404082,23756665,"16245 N 43rd Dr, Glendale, AZ 85306 ",85306,0.6435203552246094,247000,https://www.zillow.com/homedetails/16245-N-43rd-Dr-Glendale-AZ-85306/7950704_zpid/,33.6339,-112.152,2017-10-19,2017-10-19
393729,23754865,"7051 N 28th Dr, Phoenix, AZ 85051 ",85051,0.6434515058994293,162500,https://www.zillow.com/homedetails/7051-N-28th-Dr-Phoenix-AZ-85051/7757290_zpid/,33.5405,-112.119,2017-10-17,2017-10-17
352598,23759699,"7130 W Whyman Ave, Phoenix, AZ 85043 ",85043,0.6431160628795624,184900,https://www.zillow.com/homedetails/7130-W-Whyman-Ave-Phoenix-AZ-85043/50186003_zpid/,33.428000000000004,-112.214,2017-10-21,2017-10-21
327085,23650412,"1944 W Flower St, Phoenix, AZ 85015 ",85015,0.6430064678192139,229900,https://www.zillow.com/homedetails/1944-W-Flower-St-Phoenix-AZ-85015/7517841_zpid/,33.486,-112.102,2017-10-14,2017-10-14
352186,23759913,"2024 E Danbury Rd, Phoenix, AZ 85022 ",85022,0.6429549872875213,242000,https://www.zillow.com/homedetails/2024-E-Danbury-Rd-Phoenix-AZ-85022/8000757_zpid/,33.6429,-112.039,2017-10-21,2017-10-21
8991541,23802357,"17661 N 35th Pl, Phoenix, AZ 85032 ",85032,0.6428959965705872,235000,https://www.zillow.com/homedetails/17661-N-35th-Pl-Phoenix-AZ-85032/7998301_zpid/,33.6474,-112.00299999999999,2017-10-24,2017-10-24
1373435,23816563,"8759 W Peppertree Ln, Glendale, AZ 85305 ",85305,0.6427500665187835,249900,https://www.zillow.com/homedetails/8759-W-Peppertree-Ln-Glendale-AZ-85305/95158696_zpid/,33.5368,-112.24700000000001,2017-11-01,2017-11-01
421831,22731489,"6419 W Mountain View Rd, Glendale, AZ 85302 ",85302,0.6426197707653045,184900,https://www.zillow.com/homedetails/6419-W-Mountain-View-Rd-Glendale-AZ-85302/7703360_zpid/,33.5745,-112.198,2017-09-30,2017-09-30
415049,23811004,"10006 N 66th Ave, Glendale, AZ 85302 ",85302,0.6420168042182922,199900,https://www.zillow.com/homedetails/10006-N-66th-Ave-Glendale-AZ-85302/7706542_zpid/,33.5765,-112.20100000000001,2017-10-27,2017-10-27
17301,23755286,"5852 W Orangewood Ave, Glendale, AZ 85301 ",85301,0.6419197142124176,179900,https://www.zillow.com/homedetails/5852-W-Orangewood-Ave-Glendale-AZ-85301/7726635_zpid/,33.5461,-112.186,2017-10-18,2017-10-18
522482,23809837,"9013 W Virginia Ave, Phoenix, AZ 85037 ",85037,0.6418680906295776,174900,https://www.zillow.com/homedetails/9013-W-Virginia-Ave-Phoenix-AZ-85037/7473884_zpid/,33.4743,-112.25399999999999,2017-10-26,2017-10-26
9007207,22722105,"3730 W Coolidge St, Phoenix, AZ 85019 ",85019,0.6415026664733887,144900,https://www.zillow.com/homedetails/3730-W-Coolidge-St-Phoenix-AZ-85019/7507026_zpid/,33.5052,-112.14,2017-09-26,2017-09-26
449920,23756347,"8630 W Osborn Rd, Phoenix, AZ 85037 ",85037,0.6412540674209595,195000,https://www.zillow.com/homedetails/8630-W-Osborn-Rd-Phoenix-AZ-85037/7469964_zpid/,33.4873,-112.245,2017-10-14,2017-10-14
1351717,22738279,"6001 W Northview Ave, Glendale, AZ 85301 ",85301,0.6404731690883636,185000,https://www.zillow.com/homedetails/6001-W-Northview-Ave-Glendale-AZ-85301/7705497_zpid/,33.5431,-112.189,2017-10-04,2017-10-04
253952,23807134,"3839 W Caribbean Ln, Phoenix, AZ 85053 ",85053,0.6403356969356537,209900,https://www.zillow.com/homedetails/3839-W-Caribbean-Ln-Phoenix-AZ-85053/7944076_zpid/,33.6241,-112.141,2017-10-20,2017-10-20
9008452,23753560,"6758 W Vogel Ave, Peoria, AZ 85345 ",85345,0.6402471482753753,169900,https://www.zillow.com/homedetails/6758-W-Vogel-Ave-Peoria-AZ-85345/7702576_zpid/,33.5724,-112.205,2017-10-16,2017-10-16
829808,23512219,"3721 W Osborn Rd, Phoenix, AZ 85019 ",85019,0.640151572227478,160000,https://www.zillow.com/homedetails/3721-W-Osborn-Rd-Phoenix-AZ-85019/7507721_zpid/,33.4875,-112.14,2017-10-10,2017-10-10
9012332,23806934,"2231 E Claire Dr, Phoenix, AZ 85022 ",85022,0.6399588048458099,217500,https://www.zillow.com/homedetails/2231-E-Claire-Dr-Phoenix-AZ-85022/8014060_zpid/,33.6202,-112.03399999999999,2017-10-25,2017-10-25
312244,23755169,"1432 S 10th Ave, Phoenix, AZ 85007 ",85007,0.6394752442836762,169900,https://www.zillow.com/homedetails/1432-S-10th-Ave-Phoenix-AZ-85007/82818911_zpid/,33.4338,-112.086,2017-10-16,2017-10-16
401319,23814853,"11204 N 59th Dr, Glendale, AZ 85304 ",85304,0.6393398761749267,237000,https://www.zillow.com/homedetails/11204-N-59th-Dr-Glendale-AZ-85304/7698574_zpid/,33.5872,-112.18700000000001,2017-10-30,2017-10-30
9021378,23757717,"7437 W Eva St, Peoria, AZ 85345 ",85345,0.6392950713634491,192000,https://www.zillow.com/homedetails/7437-W-Eva-St-Peoria-AZ-85345/7702465_zpid/,33.5683,-112.219,2017-10-19,2017-10-19
221321,23756962,"9624 N 14th St, Phoenix, AZ 85020 ",85020,0.6391267061233521,175000,https://www.zillow.com/homedetails/9624-N-14th-St-Phoenix-AZ-85020/7786741_zpid/,33.5745,-112.053,2017-10-19,2017-10-19
209311,23681046,"3420 E Cambridge Ave, Phoenix, AZ 85008 ",85008,0.6390413284301758,200000,http://www.zillow.com/homedetails/3420-E-Cambridge-Ave-Phoenix-AZ-85008/81975682_zpid,33.478,-112.008,2017-10-06,2017-10-06
490976,22742493,"5531 W Edgemont Ave, Phoenix, AZ 85035 ",85035,0.6388706982135772,157000,https://www.zillow.com/homedetails/5531-W-Edgemont-Ave-Phoenix-AZ-85035/7491827_zpid/,33.4795,-112.179,2017-10-06,2017-10-06
828736,22708030,"3602 W Pasadena Ave, Phoenix, AZ 85019 ",85019,0.6388485431671143,197500,https://www.zillow.com/homedetails/3602-W-Pasadena-Ave-Phoenix-AZ-85019/7719981_zpid/,33.5109,-112.137,2017-09-20,2017-09-20
9021611,23794811,"1134 W 2nd Pl, Mesa, AZ 85201 ",85201,0.6386290967464447,234900,https://www.zillow.com/homedetails/1134-W-2nd-Pl-Mesa-AZ-85201/7611239_zpid/,33.4186,-111.85600000000001,2017-10-22,2017-10-22
339837,23752360,"15615 N 23rd Pl, Phoenix, AZ 85022 ",85022,0.6383557677268982,194500,https://www.zillow.com/homedetails/15615-N-23rd-Pl-Phoenix-AZ-85022/55267932_zpid/,33.6285,-112.03200000000001,2017-10-13,2017-10-13
330099,22738563,"3820 N 23rd Ave, Phoenix, AZ 85015 ",85015,0.638045734167099,245000,https://www.zillow.com/homedetails/3820-N-23rd-Ave-Phoenix-AZ-85015/7516043_zpid/,33.4921,-112.10799999999999,2017-10-05,2017-10-05
465148,23560191,"2926 W Marlette Ave, Phoenix, AZ 85017 ",85017,0.6379861295223236,169900,https://www.zillow.com/homedetails/2926-W-Marlette-Ave-Phoenix-AZ-85017/7761088_zpid/,33.5293,-112.12299999999999,2017-10-12,2017-10-12
830401,23753647,"3811 W Flower St, Phoenix, AZ 85019 ",85019,0.6379762291908264,150000,https://www.zillow.com/homedetails/3811-W-Flower-St-Phoenix-AZ-85019/7507570_zpid/,33.4861,-112.14200000000001,2017-10-16,2017-10-16
644243,23819377,"2213 W Del Campo Cir, Mesa, AZ 85202 ",85202,0.6379734218120575,215000,https://www.zillow.com/homedetails/2213-W-Del-Campo-Cir-Mesa-AZ-85202/7602126_zpid/,33.4009,-111.87899999999999,2017-11-03,2017-11-03
460884,23650436,"2908 N 53rd Pkwy, Phoenix, AZ 85031 ",85031,0.6379193007946015,159900,https://www.zillow.com/homedetails/2908-N-53rd-Pkwy-Phoenix-AZ-85031/7497221_zpid/,33.4825,-112.177,2017-10-14,2017-10-14
1469883,23760424,"8507 W Oraibi Dr, Peoria, AZ 85382 ",85382,0.6376822173595429,240000,https://www.zillow.com/homedetails/8507-W-Oraibi-Dr-Peoria-AZ-85382/8105886_zpid/,33.6613,-112.242,2017-10-22,2017-10-22
354621,23808089,"2310 E Winchcomb Dr, Phoenix, AZ 85022 ",85022,0.637520706653595,224900,https://www.zillow.com/homedetails/2310-E-Winchcomb-Dr-Phoenix-AZ-85022/8010116_zpid/,33.6168,-112.03399999999999,2017-10-25,2017-10-25
643119,23815022,"636 W Lindner Ave, Mesa, AZ 85210 ",85210,0.6374919652938843,225000,https://www.zillow.com/homedetails/636-W-Lindner-Ave-Mesa-AZ-85210/8170188_zpid/,33.3762,-111.848,2017-10-30,2017-10-30
503463,22747409,"5608 N 31st Dr, Phoenix, AZ 85017 ",85017,0.637464964389801,166900,https://www.zillow.com/homedetails/5608-N-31st-Dr-Phoenix-AZ-85017/7764292_zpid/,33.5186,-112.12700000000001,2017-10-10,2017-10-10
247701,23800529,"3433 W Saint Moritz Ln, Phoenix, AZ 85053 ",85053,0.6370740115642548,169900,https://www.zillow.com/homedetails/3433-W-Saint-Moritz-Ln-Phoenix-AZ-85053/7943597_zpid/,33.619,-112.133,2017-10-24,2017-10-24
407695,23796931,"5912 W Evans Dr, Glendale, AZ 85306 ",85306,0.6369110524654389,216000,https://www.zillow.com/homedetails/5912-W-Evans-Dr-Glendale-AZ-85306/8098897_zpid/,33.6173,-112.18700000000001,2017-10-23,2017-10-23
391100,23759026,"3110 W Willow Ave, Phoenix, AZ 85029 ",85029,0.6368176996707916,199000,https://www.zillow.com/homedetails/3110-W-Willow-Ave-Phoenix-AZ-85029/7745069_zpid/,33.6072,-112.126,2017-10-20,2017-10-20
9021915,23808874,"3922 E Willow Ave, Phoenix, AZ 85032 ",85032,0.6365869998931885,239900,https://www.zillow.com/homedetails/3922-E-Willow-Ave-Phoenix-AZ-85032/7813935_zpid/,33.6083,-111.99700000000001,2017-10-26,2017-10-26
409171,23815122,"6610 W Caribbean Ln, Glendale, AZ 85306 ",85306,0.6362981915473938,210000,https://www.zillow.com/homedetails/6610-W-Caribbean-Ln-Glendale-AZ-85306/8100447_zpid/,33.6248,-112.199,2017-10-30,2017-10-30
833447,23561389,"5713 N 42nd Ave, Phoenix, AZ 85019 ",85019,0.6362312853336334,165000,https://www.zillow.com/homedetails/5713-N-42nd-Ave-Phoenix-AZ-85019/7718429_zpid/,33.5207,-112.148,2017-10-13,2017-10-13
435285,23650449,"7821 W Cheery Lynn Rd, Phoenix, AZ 85033 ",85033,0.6360619604587555,175000,https://www.zillow.com/homedetails/7821-W-Cheery-Lynn-Rd-Phoenix-AZ-85033/7469425_zpid/,33.4823,-112.226,2017-10-14,2017-10-14
466583,23359711,"3023 W Rose Ln, Phoenix, AZ 85017 ",85017,0.6359256207942963,109500,http://www.zillow.com/homedetails/3023-W-Rose-Ln-Phoenix-AZ-85017/7759999_zpid,33.5274,-112.124,2017-09-07,2017-09-07
9019191,23648849,"10602 N 80th Ln, Peoria, AZ 85345 ",85345,0.6358489155769348,190000,https://www.zillow.com/homedetails/10602-N-80th-Ln-Peoria-AZ-85345/7681416_zpid/,33.5814,-112.23200000000001,2017-10-12,2017-10-12
415521,23809993,"10301 N 65th Dr, Glendale, AZ 85302 ",85302,0.6357170522212983,155250,https://www.zillow.com/homedetails/10301-N-65th-Dr-Glendale-AZ-85302/7706446_zpid/,33.5798,-112.199,2017-10-27,2017-10-27
9020549,23756672,"18819 N 1st Ave, Phoenix, AZ 85027 ",85027,0.6355948269367218,235000,https://www.zillow.com/homedetails/18819-N-1st-Ave-Phoenix-AZ-85027/7972788_zpid/,33.6573,-112.074,2017-10-19,2017-10-19
295258,22743006,"2334 E Mitchell Dr, Phoenix, AZ 85016 ",85016,0.6350754201412201,247500,https://www.zillow.com/homedetails/2334-E-Mitchell-Dr-Phoenix-AZ-85016/7539586_zpid/,33.4887,-112.031,2017-10-07,2017-10-07
404602,23754895,"4309 W Windrose Dr, Glendale, AZ 85304 ",85304,0.6348262786865234,245800,https://www.zillow.com/homedetails/4309-W-Windrose-Dr-Glendale-AZ-85304/7954901_zpid/,33.6012,-112.152,2017-10-17,2017-10-17
379795,23800528,"2801 W Las Palmaritas Dr, Phoenix, AZ 85051 ",85051,0.634644228219986,125000,https://www.zillow.com/homedetails/2801-W-Las-Palmaritas-Dr-Phoenix-AZ-85051/7751037_zpid/,33.5574,-112.119,2017-10-24,2017-10-24
332307,23801315,"1124 W Cinnabar Ave, Phoenix, AZ 85021 ",85021,0.6345398962497711,129700,https://www.zillow.com/homedetails/1124-W-Cinnabar-Ave-Phoenix-AZ-85021/7781762_zpid/,33.577,-112.088,2017-10-24,2017-10-24
1466691,23821671,"17797 N 89th Dr, Peoria, AZ 85382 ",85382,0.6342336088418961,242000,https://www.zillow.com/homedetails/17797-N-89th-Dr-Peoria-AZ-85382/71616751_zpid/,33.6449,-112.251,2017-11-05,2017-11-05
441880,23756236,"3901 N 84th Ln, Phoenix, AZ 85037 ",85037,0.633829540014267,179000,https://www.zillow.com/homedetails/3901-N-84th-Ln-Phoenix-AZ-85037/67081706_zpid/,33.4925,-112.241,2017-10-11,2017-10-11
9021398,23820026,"15243 N 67th Dr, Peoria, AZ 85381 ",85381,0.633526673913002,227000,https://www.zillow.com/homedetails/15243-N-67th-Dr-Peoria-AZ-85381/60048597_zpid/,33.6235,-112.20299999999999,2017-11-03,2017-11-03
248267,23806254,"2180 W Scully Dr, Phoenix, AZ 85023 ",85023,0.6333370089530945,192500,https://www.zillow.com/homedetails/2180-W-Scully-Dr-Phoenix-AZ-85023/95188089_zpid/,33.6333,-112.10700000000001,2017-10-25,2017-10-25
468211,22685246,"3226 W Roma Ave, Phoenix, AZ 85017 ",85017,0.633329051733017,179900,https://www.zillow.com/homedetails/3226-W-Roma-Ave-Phoenix-AZ-85017/7768053_zpid/,33.5009,-112.12899999999999,2017-09-16,2017-09-16
9022735,23819777,"13216 N 31st Way, Phoenix, AZ 85032 ",85032,0.6330918192863464,145000,https://www.zillow.com/homedetails/13216-N-31st-Way-Phoenix-AZ-85032/50188555_zpid/,33.6068,-112.014,2017-11-03,2017-11-03
9012359,23815787,"1994 N Iowa St, Chandler, AZ 85225 ",85225,0.632870328426361,229900,https://www.zillow.com/homedetails/1994-N-Iowa-St-Chandler-AZ-85225/8182689_zpid/,33.3344,-111.85,2017-10-31,2017-10-31
389751,23821705,"2641 W Wethersfield Rd, Phoenix, AZ 85029 ",85029,0.632851493358612,149000,https://www.zillow.com/homedetails/2641-W-Wethersfield-Rd-Phoenix-AZ-85029/7748488_zpid/,33.5968,-112.115,2017-11-03,2017-11-03
364303,22743539,"9353 W Taylor St, Tolleson, AZ 85353 ",85353,0.6322967290878296,99000,https://www.zillow.com/homedetails/9353-W-Taylor-St-Tolleson-AZ-85353/7477007_zpid/,33.4524,-112.26100000000001,2017-10-07,2017-10-07
449589,23796595,"8551 W Sheridan St, Phoenix, AZ 85037 ",85037,0.6319251418113708,220000,https://www.zillow.com/homedetails/8551-W-Sheridan-St-Phoenix-AZ-85037/7487376_zpid/,33.4745,-112.245,2017-10-23,2017-10-23
237433,23754381,"2957 W Michelle Dr, Phoenix, AZ 85053 ",85053,0.6318347454071045,230000,https://www.zillow.com/homedetails/2957-W-Michelle-Dr-Phoenix-AZ-85053/7940747_zpid/,33.6492,-112.124,2017-10-16,2017-10-16
9019605,22737585,"9213 W Fillmore St, Tolleson, AZ 85353 ",85353,0.6318135142326355,195000,https://www.zillow.com/homedetails/9213-W-Fillmore-St-Tolleson-AZ-85353/7476932_zpid/,33.4532,-112.258,2017-10-04,2017-10-04
204483,23315822,"1905 E Orange Dr, Phoenix, AZ 85016 ",85016,0.6313109874725342,177000,http://www.zillow.com/homedetails/1905-E-Orange-Dr-Phoenix-AZ-85016/7809437_zpid/,33.512,-112.041,2017-10-01,2017-10-01
9022016,23810119,"14459 N 87th Ave, Peoria, AZ 85381 ",85381,0.6308850407600403,195000,https://www.zillow.com/homedetails/14459-N-87th-Ave-Peoria-AZ-85381/8103136_zpid/,33.6164,-112.24799999999999,2017-10-26,2017-10-26
421660,23818813,"6371 W Orchid Ln, Glendale, AZ 85302 ",85302,0.6307535290718078,230000,https://www.zillow.com/homedetails/6371-W-Orchid-Ln-Glendale-AZ-85302/71605552_zpid/,33.5615,-112.196,2017-11-02,2017-11-02
383025,23755743,"3232 W Camino Vis, Phoenix, AZ 85051 ",85051,0.6307030439376831,219500,https://www.zillow.com/homedetails/3232-W-Camino-Vis-Phoenix-AZ-85051/7739710_zpid/,33.5732,-112.12899999999999,2017-10-18,2017-10-18
428449,23806410,"6216 W Pierson St, Phoenix, AZ 85033 ",85033,0.630658084154129,156000,https://www.zillow.com/homedetails/6216-W-Pierson-St-Phoenix-AZ-85033/7715967_zpid/,33.5066,-112.19200000000001,2017-10-25,2017-10-25
1407968,23823746,"6861 W State Ave, Glendale, AZ 85303 ",85303,0.6305445432662964,159888,https://www.zillow.com/homedetails/6861-W-State-Ave-Glendale-AZ-85303/7704780_zpid/,33.5438,-112.20700000000001,2017-11-07,2017-11-07
450214,22642480,"8705 W Roanoke Ave, Phoenix, AZ 85037 ",85037,0.6305037438869476,210000,https://www.zillow.com/homedetails/8705-W-Roanoke-Ave-Phoenix-AZ-85037/7473636_zpid/,33.4784,-112.24700000000001,2017-09-08,2017-09-08
392592,23803343,"3302 W Pershing Ave, Phoenix, AZ 85029 ",85029,0.6304437339305877,189900,https://www.zillow.com/homedetails/3302-W-Pershing-Ave-Phoenix-AZ-85029/7745089_zpid/,33.6058,-112.12899999999999,2017-10-22,2017-10-22
9021586,23760291,"8142 W Sweetwater Ave, Peoria, AZ 85381 ",85381,0.63039231300354,245000,https://www.zillow.com/homedetails/8142-W-Sweetwater-Ave-Peoria-AZ-85381/7913307_zpid/,33.6028,-112.235,2017-10-21,2017-10-21
42194,23649652,"6608 W Papago St, Phoenix, AZ 85043 ",85043,0.6298955202102661,132900,https://www.zillow.com/homedetails/6608-W-Papago-St-Phoenix-AZ-85043/7499904_zpid/,33.4352,-112.20200000000001,2017-10-13,2017-10-13
8970005,22734447,"7637 W Whitton Ave, Phoenix, AZ 85033 ",85033,0.6298923492431641,179900,https://www.zillow.com/homedetails/7637-W-Whitton-Ave-Phoenix-AZ-85033/7478287_zpid/,33.4901,-112.22399999999999,2017-10-03,2017-10-03
12224,23796679,"2809 W Loma Ln, Phoenix, AZ 85051 ",85051,0.6298287332057952,179999,https://www.zillow.com/homedetails/2809-W-Loma-Ln-Phoenix-AZ-85051/7751044_zpid/,33.5538,-112.12,2017-10-23,2017-10-23
487692,22687109,"5040 W Edgemont Ave, Phoenix, AZ 85035 ",85035,0.629797887802124,158900,https://www.zillow.com/homedetails/5040-W-Edgemont-Ave-Phoenix-AZ-85035/7493951_zpid/,33.4802,-112.167,2017-09-13,2017-09-13
697221,22739671,"3018 W Coronado Rd, Phoenix, AZ 85009 ",85009,0.6297788083553314,124900,https://www.zillow.com/homedetails/3018-W-Coronado-Rd-Phoenix-AZ-85009/63200524_zpid/,33.468,-112.124,2017-10-05,2017-10-05
359261,23797163,"2001 S 83rd Dr, Tolleson, AZ 85353 ",85353,0.6297382712364197,232500,https://www.zillow.com/homedetails/2001-S-83rd-Dr-Tolleson-AZ-85353/59271305_zpid/,33.4295,-112.23899999999999,2017-10-24,2017-10-24
378961,23821856,"11207 N 38th Ave, Phoenix, AZ 85029 ",85029,0.6297127068042755,200000,https://www.zillow.com/homedetails/11207-N-38th-Ave-Phoenix-AZ-85029/7743870_zpid/,33.5876,-112.14,2017-11-05,2017-11-05
9021889,23808090,"2926 E Charleston Ave, Phoenix, AZ 85032 ",85032,0.6296840965747833,175000,https://www.zillow.com/homedetails/2926-E-Charleston-Ave-Phoenix-AZ-85032/7998861_zpid/,33.6495,-112.01899999999999,2017-10-25,2017-10-25
417006,23760073,"4643 W Golden Ln, Glendale, AZ 85302 ",85302,0.6293958842754364,237000,https://www.zillow.com/homedetails/4643-W-Golden-Ln-Glendale-AZ-85302/7731339_zpid/,33.5646,-112.16,2017-10-20,2017-10-20
330130,23649302,"3841 N 21st Ave, Phoenix, AZ 85015 ",85015,0.6293805480003357,165000,https://www.zillow.com/homedetails/3841-N-21st-Ave-Phoenix-AZ-85015/7516223_zpid/,33.4929,-112.104,2017-10-13,2017-10-13
386606,23810930,"3661 W Alice Ave, Phoenix, AZ 85051 ",85051,0.6290136218070984,175000,https://www.zillow.com/homedetails/3661-W-Alice-Ave-Phoenix-AZ-85051/7753529_zpid/,33.5637,-112.139,2017-10-27,2017-10-27
40221,23817839,"2920 S 72nd Ln, Phoenix, AZ 85043 ",85043,0.628852117061615,224900,https://www.zillow.com/homedetails/2920-S-72nd-Ln-Phoenix-AZ-85043/67788653_zpid/,33.4217,-112.21700000000001,2017-11-01,2017-11-01
1411087,23817224,"7130 N 82nd Ln, Glendale, AZ 85303 ",85303,0.6288472473621368,219900,https://www.zillow.com/homedetails/7130-N-82nd-Ln-Glendale-AZ-85303/7682942_zpid/,33.5392,-112.23700000000001,2017-11-01,2017-11-01
9016183,23796927,"5349 W Sanna St, Glendale, AZ 85302 ",85302,0.6288366734981536,215000,https://www.zillow.com/homedetails/5349-W-Sanna-St-Glendale-AZ-85302/7734030_zpid/,33.5697,-112.175,2017-10-23,2017-10-23
827819,22744027,"3035 N 37th Dr, Phoenix, AZ 85019 ",85019,0.628805547952652,160000,https://www.zillow.com/homedetails/3035-N-37th-Dr-Phoenix-AZ-85019/7507490_zpid/,33.483000000000004,-112.139,2017-10-07,2017-10-07
501430,23817319,"7780 W Pipestone Pl, Phoenix, AZ 85035 ",85035,0.6287815272808075,153900,https://www.zillow.com/homedetails/7780-W-Pipestone-Pl-Phoenix-AZ-85035/95100946_zpid/,33.4725,-112.227,2017-11-01,2017-11-01
478553,22739658,"1823 N 63rd Dr, Phoenix, AZ 85035 ",85035,0.6287107646465302,179900,https://www.zillow.com/homedetails/1823-N-63rd-Dr-Phoenix-AZ-85035/7490646_zpid/,33.4683,-112.196,2017-10-05,2017-10-05
261913,23649326,"5308 N 78th Pl, Scottsdale, AZ 85250 ",85250,0.6285840392112731,229000,https://www.zillow.com/homedetails/5308-N-78th-Pl-Scottsdale-AZ-85250/7842267_zpid/,33.5142,-111.913,2017-10-13,2017-10-13
384656,23801697,"13642 N 31st Dr, Phoenix, AZ 85029 ",85029,0.628566998243332,239900,https://www.zillow.com/homedetails/13642-N-31st-Dr-Phoenix-AZ-85029/7747907_zpid/,33.6105,-112.126,2017-10-24,2017-10-24
483706,22742318,"2639 N 63rd Ave, Phoenix, AZ 85035 ",85035,0.6283169746398926,197000,https://www.zillow.com/homedetails/2639-N-63rd-Ave-Phoenix-AZ-85035/7491672_zpid/,33.4781,-112.195,2017-10-06,2017-10-06
9020916,23814092,"19416 N 78th Ave, Glendale, AZ 85308 ",85308,0.6281970918178559,225000,https://www.zillow.com/homedetails/19416-N-78th-Ave-Glendale-AZ-85308/7891774_zpid/,33.6605,-112.225,2017-10-29,2017-10-29
454952,23752844,"4630 W Indianola Ave, Phoenix, AZ 85031 ",85031,0.6280101537704468,159000,https://www.zillow.com/homedetails/4630-W-Indianola-Ave-Phoenix-AZ-85031/7508079_zpid/,33.4927,-112.15899999999999,2017-10-15,2017-10-15
481066,22742303,"2332 N 72nd Dr, Phoenix, AZ 85035 ",85035,0.6275777757167816,165000,https://www.zillow.com/homedetails/2332-N-72nd-Dr-Phoenix-AZ-85035/7474687_zpid/,33.4742,-112.21600000000001,2017-10-06,2017-10-06
9021735,23800650,"4211 N 10th St, Phoenix, AZ 85014 ",85014,0.6275727093219757,175000,https://www.zillow.com/homedetails/4211-N-10th-St-Phoenix-AZ-85014/7769742_zpid/,33.4967,-112.06,2017-10-24,2017-10-24
9018492,23649027,"8938 W Vogel Ave, Peoria, AZ 85345 ",85345,0.6274439215660095,195000,https://www.zillow.com/homedetails/8938-W-Vogel-Ave-Peoria-AZ-85345/7696649_zpid/,33.5716,-112.25200000000001,2017-10-13,2017-10-13
1354882,22731455,"6539 N 61st Ave, Glendale, AZ 85301 ",85301,0.627422422170639,205000,https://www.zillow.com/homedetails/6539-N-61st-Ave-Glendale-AZ-85301/7707779_zpid/,33.5328,-112.191,2017-09-29,2017-09-29
435016,22734461,"7750 W Clarendon Ave, Phoenix, AZ 85033 ",85033,0.6271526932716369,167900,https://www.zillow.com/homedetails/7750-W-Clarendon-Ave-Phoenix-AZ-85033/7478454_zpid/,33.4911,-112.227,2017-10-03,2017-10-03
225624,23814657,"1442 E Topeka Dr, Phoenix, AZ 85024 ",85024,0.6270833313465118,235000,https://www.zillow.com/homedetails/1442-E-Topeka-Dr-Phoenix-AZ-85024/7995848_zpid/,33.6599,-112.051,2017-10-30,2017-10-30
359548,23821999,"2450 S 88th Ln, Tolleson, AZ 85353 ",85353,0.6267486840486527,195000,https://www.zillow.com/homedetails/2450-S-88th-Ln-Tolleson-AZ-85353/67772853_zpid/,33.4246,-112.251,2017-11-06,2017-11-06
