property_id,transaction_id,address,zipcode,ypred,list,url,lat,long,date_listed,transaction_date
9016802,22737152,"11602 N 67th Dr, Peoria, AZ 85345 ",85345,0.7116690158843995,204999,https://www.zillow.com/homedetails/11602-N-67th-Dr-Peoria-AZ-85345/7699701_zpid/,33.5907,-112.20299999999999,2017-10-04,2017-10-04
1107842,22737147,"1098 W Whitten St, Chandler, AZ 85224 ",85224,0.7111844599246979,245000,https://www.zillow.com/homedetails/1098-W-Whitten-St-Chandler-AZ-85224/8207893_zpid/,33.2966,-111.86200000000001,2017-10-04,2017-10-04
43124,23755414,"7301 W Payson Rd, Phoenix, AZ 85043 ",85043,0.7079186856746673,195000,https://www.zillow.com/homedetails/7301-W-Payson-Rd-Phoenix-AZ-85043/60975135_zpid/,33.4225,-112.21700000000001,2017-10-18,2017-10-18
359488,23526402,"2409 S 90th Gln, Tolleson, AZ 85353 ",85353,0.706346583366394,204900,https://www.zillow.com/homedetails/2409-S-90th-Gln-Tolleson-AZ-85353/67772730_zpid/,33.425,-112.25399999999999,2017-10-11,2017-10-11
422815,22722094,"8324 N 56th Ln, Glendale, AZ 85302 ",85302,0.7035513103008271,215000,https://www.zillow.com/homedetails/8324-N-56th-Ln-Glendale-AZ-85302/7732897_zpid/,33.5576,-112.181,2017-09-26,2017-09-26
382253,22737157,"12607 N 38th Ln, Phoenix, AZ 85029 ",85029,0.7013383209705353,199000,https://www.zillow.com/homedetails/12607-N-38th-Ln-Phoenix-AZ-85029/7743224_zpid/,33.5997,-112.14200000000001,2017-09-25,2017-09-25
1859,23650472,"9128 W Alvarado St, Phoenix, AZ 85037 ",85037,0.6999820351600647,214000,https://www.zillow.com/homedetails/9128-W-Alvarado-St-Phoenix-AZ-85037/60047210_zpid/,33.4712,-112.257,2017-10-12,2017-10-12
975705,23809139,"704 N Country Club Way, Chandler, AZ 85226 ",85226,0.6997961699962616,249900,https://www.zillow.com/homedetails/704-N-Country-Club-Way-Chandler-AZ-85226/8155320_zpid/,33.315,-111.904,2017-10-13,2017-10-13
410834,22724941,"5015 W Rosewood Ave, Glendale, AZ 85304 ",85304,0.695365595817566,229900,https://www.zillow.com/homedetails/5015-W-Rosewood-Ave-Glendale-AZ-85304/7954807_zpid/,33.6013,-112.166,2017-09-27,2017-09-27
360355,22733584,"8331 W Pima St, Tolleson, AZ 85353 ",85353,0.6950859606266022,205000,https://www.zillow.com/homedetails/8331-W-Pima-St-Tolleson-AZ-85353/58770098_zpid/,33.4334,-112.24,2017-10-02,2017-10-02
8458,23753315,"2712 W Saint Moritz Ln, Phoenix, AZ 85053 ",85053,0.6947803258895874,235000,https://www.zillow.com/homedetails/2712-W-Saint-Moritz-Ln-Phoenix-AZ-85053/7943035_zpid/,33.6179,-112.118,2017-10-11,2017-10-11
40001,22747266,"2221 S 71st Dr, Phoenix, AZ 85043 ",85043,0.694215041399002,178000,https://www.zillow.com/homedetails/2221-S-71st-Dr-Phoenix-AZ-85043/50185990_zpid/,33.4261,-112.213,2017-10-10,2017-10-10
342960,22744839,"1722 S 64th Ave, Phoenix, AZ 85043 ",85043,0.693511551618576,177000,https://www.zillow.com/homedetails/1722-S-64th-Ave-Phoenix-AZ-85043/55257220_zpid/,33.4323,-112.198,2017-10-09,2017-10-09
520341,22734448,"8921 W Edgemont Ave, Phoenix, AZ 85037 ",85037,0.6932890474796295,199000,https://www.zillow.com/homedetails/8921-W-Edgemont-Ave-Phoenix-AZ-85037/7487901_zpid/,33.4783,-112.25200000000001,2017-10-02,2017-10-02
1466674,22744636,"17713 N 89th Dr, Peoria, AZ 85382 ",85382,0.6926388025283814,199900,https://www.zillow.com/homedetails/17713-N-89th-Dr-Peoria-AZ-85382/71619900_zpid/,33.6439,-112.251,2017-10-07,2017-10-07
9015638,22704145,"8444 W Lewis Ave, Phoenix, AZ 85037 ",85037,0.6925108134746552,176900,https://www.zillow.com/homedetails/8444-W-Lewis-Ave-Phoenix-AZ-85037/82823102_zpid/,33.4743,-112.241,2017-09-21,2017-09-21
240420,23756210,"3114 W Lisbon Ln, Phoenix, AZ 85053 ",85053,0.6921231150627136,209999,https://www.zillow.com/homedetails/3114-W-Lisbon-Ln-Phoenix-AZ-85053/7953236_zpid/,33.6198,-112.125,2017-10-18,2017-10-18
1112897,23756134,"1500 W Mission Dr, Chandler, AZ 85224 ",85224,0.6906864762306213,229900,https://www.zillow.com/homedetails/1500-W-Mission-Dr-Chandler-AZ-85224/8199237_zpid/,33.3445,-111.867,2017-10-19,2017-10-19
9019413,22734765,"7013 W Aire Libre Ave, Peoria, AZ 85382 ",85382,0.6900191307067871,243500,https://www.zillow.com/homedetails/7013-W-Aire-Libre-Ave-Peoria-AZ-85382/7903079_zpid/,33.635,-112.209,2017-10-03,2017-10-03
9005657,22739452,"10439 W Papago St, Tolleson, AZ 85353 ",85353,0.6891854882240296,229900,https://www.zillow.com/homedetails/10439-W-Papago-St-Tolleson-AZ-85353/125986296_zpid/,33.4338,-112.24600000000001,2017-10-05,2017-10-05
1111878,22746069,"1380 W Whitten St, Chandler, AZ 85224 ",85224,0.6891596913337708,245000,https://www.zillow.com/homedetails/1380-W-Whitten-St-Chandler-AZ-85224/8207259_zpid/,33.2962,-111.866,2017-10-09,2017-10-09
359160,23759845,"15 N 86th Ln, Tolleson, AZ 85353 ",85353,0.6883163809776306,219000,https://www.zillow.com/homedetails/15-N-86th-Ln-Tolleson-AZ-85353/95078499_zpid/,33.4485,-112.24600000000001,2017-10-21,2017-10-21
9206,22707770,"1220 W Ironwood Dr, Phoenix, AZ 85021 ",85021,0.6873128712177277,175000,https://www.zillow.com/homedetails/1220-W-Ironwood-Dr-Phoenix-AZ-85021/7781692_zpid/,33.576,-112.089,2017-09-22,2017-09-22
420565,22722076,"5807 W Golden Ln, Glendale, AZ 85302 ",85302,0.6869135499000549,225000,https://www.zillow.com/homedetails/5807-W-Golden-Ln-Glendale-AZ-85302/7733220_zpid/,33.5649,-112.185,2017-09-26,2017-09-26
9019697,22934616,"8053 W Rue De Lamour, Peoria, AZ 85381 ",85381,0.6866992056369782,215000,https://www.zillow.com/homedetails/8053-W-Rue-De-Lamour-Peoria-AZ-85381/92349460_zpid/,33.6082,-112.23200000000001,2017-10-10,2017-10-10
1414927,22731466,"7413 N 67th Dr, Glendale, AZ 85303 ",85303,0.6851669371128082,214900,https://www.zillow.com/homedetails/7413-N-67th-Dr-Glendale-AZ-85303/7705033_zpid/,33.5447,-112.20299999999999,2017-09-29,2017-09-29
353672,22728286,"2201 E Nisbet Rd, Phoenix, AZ 85022 ",85022,0.6849538266658783,199900,https://www.zillow.com/homedetails/2201-E-Nisbet-Rd-Phoenix-AZ-85022/8010593_zpid/,33.6231,-112.035,2017-09-28,2017-09-28
1347860,22924091,"5172 W Morten Ave, Glendale, AZ 85301 ",85301,0.6841389536857605,239000,https://www.zillow.com/homedetails/5172-W-Morten-Ave-Glendale-AZ-85301/52425448_zpid/,33.5473,-112.17,2017-10-10,2017-10-10
1367,22703940,"18821 N 45th Ave, Glendale, AZ 85308 ",85308,0.684053760766983,214900,https://www.zillow.com/homedetails/18821-N-45th-Ave-Glendale-AZ-85308/7938702_zpid/,33.6571,-112.15700000000001,2017-09-20,2017-09-20
395768,23759963,"3820 W Bloomfield Rd, Phoenix, AZ 85029 ",85029,0.6840149819850921,205000,https://www.zillow.com/homedetails/3820-W-Bloomfield-Rd-Phoenix-AZ-85029/7743188_zpid/,33.5983,-112.141,2017-10-20,2017-10-20
9015637,22739690,"7843 W Palm Ln, Phoenix, AZ 85035 ",85035,0.6840079605579377,169980,https://www.zillow.com/homedetails/7843-W-Palm-Ln-Phoenix-AZ-85035/95123133_zpid/,33.4687,-112.228,2017-10-05,2017-10-05
418693,22737337,"5215 W Hatcher Rd, Glendale, AZ 85302 ",85302,0.6837223291397094,224900,https://www.zillow.com/homedetails/5215-W-Hatcher-Rd-Glendale-AZ-85302/7734108_zpid/,33.5705,-112.17200000000001,2017-10-03,2017-10-03
345142,23753531,"1739 E Bluefield Ave, Phoenix, AZ 85022 ",85022,0.6836528897285461,224900,https://www.zillow.com/homedetails/1739-E-Bluefield-Ave-Phoenix-AZ-85022/8001407_zpid/,33.6526,-112.044,2017-10-16,2017-10-16
448988,22734457,"8504 W College Dr, Phoenix, AZ 85037 ",85037,0.6833767652511596,190000,https://www.zillow.com/homedetails/8504-W-College-Dr-Phoenix-AZ-85037/7483600_zpid/,33.5084,-112.243,2017-10-03,2017-10-03
420568,22722083,"5807 W Puget Ave, Glendale, AZ 85302 ",85302,0.6833489298820495,200000,https://www.zillow.com/homedetails/5807-W-Puget-Ave-Glendale-AZ-85302/7733279_zpid/,33.5668,-112.185,2017-09-25,2017-09-25
8973255,23753390,"7811 W Palm Ln, Phoenix, AZ 85035 ",85035,0.6831585764884949,175900,https://www.zillow.com/homedetails/7811-W-Palm-Ln-Phoenix-AZ-85035/95151582_zpid/,33.4685,-112.228,2017-10-13,2017-10-13
8977160,23648891,"16231 N 91st Dr, Peoria, AZ 85382 ",85382,0.683042573928833,234000,https://www.zillow.com/homedetails/16231-N-91st-Dr-Peoria-AZ-85382/2123153916_zpid/,33.6316,-112.25200000000001,2017-10-11,2017-10-11
420453,22724813,"5771 W Seldon Ln, Glendale, AZ 85302 ",85302,0.6829981923103332,195000,https://www.zillow.com/homedetails/5771-W-Seldon-Ln-Glendale-AZ-85302/58535922_zpid/,33.5608,-112.184,2017-09-27,2017-09-27
378956,23753283,"11206 N 37th Ave, Phoenix, AZ 85029 ",85029,0.6824867427349091,224900,https://www.zillow.com/homedetails/11206-N-37th-Ave-Phoenix-AZ-85029/7743882_zpid/,33.5877,-112.139,2017-10-11,2017-10-11
43395,23752723,"7911 W Hilton Ave, Phoenix, AZ 85043 ",85043,0.6815393745899201,232000,https://www.zillow.com/homedetails/7911-W-Hilton-Ave-Phoenix-AZ-85043/50893343_zpid/,33.4289,-112.23,2017-10-15,2017-10-15
478447,23758543,"1819 N 77th Dr, Phoenix, AZ 85035 ",85035,0.6814873695373536,168000,https://www.zillow.com/homedetails/1819-N-77th-Dr-Phoenix-AZ-85035/95179476_zpid/,33.4679,-112.225,2017-10-20,2017-10-20
1118311,23754280,"2019 W Western Dr, Chandler, AZ 85224 ",85224,0.6814007997512818,236500,https://www.zillow.com/homedetails/2019-W-Western-Dr-Chandler-AZ-85224/8197093_zpid/,33.3558,-111.87899999999999,2017-10-12,2017-10-12
526828,22737450,"9418 W Sheridan St, Phoenix, AZ 85037 ",85037,0.6813299655914307,214500,https://www.zillow.com/homedetails/9418-W-Sheridan-St-Phoenix-AZ-85037/67773035_zpid/,33.475,-112.262,2017-09-28,2017-09-28
8959592,22744660,"8143 W Windrose Dr, Peoria, AZ 85381 ",85381,0.6811743557453156,237500,https://www.zillow.com/homedetails/8143-W-Windrose-Dr-Peoria-AZ-85381/8101003_zpid/,33.6006,-112.235,2017-10-07,2017-10-07
698093,22730315,"940 W Impala Cir, Mesa, AZ 85210 ",85210,0.6804579854011535,229500,https://www.zillow.com/homedetails/940-W-Impala-Cir-Mesa-AZ-85210/7600175_zpid/,33.3826,-111.852,2017-09-29,2017-09-29
231524,23650293,"17459 N 28th Ave, Phoenix, AZ 85053 ",85053,0.6804394900798798,199000,https://www.zillow.com/homedetails/17459-N-28th-Ave-Phoenix-AZ-85053/7942436_zpid/,33.6449,-112.119,2017-10-14,2017-10-14
638428,22747252,"2026 W Inlet Loop, Mesa, AZ 85202 ",85202,0.6796258330345154,229999,https://www.zillow.com/homedetails/2026-W-Inlet-Loop-Mesa-AZ-85202/8250680_zpid/,33.3818,-111.87700000000001,2017-10-10,2017-10-10
422451,22733384,"6639 W Brown St, Glendale, AZ 85302 ",85302,0.6791238963603974,199900,https://www.zillow.com/homedetails/6639-W-Brown-St-Glendale-AZ-85302/7706586_zpid/,33.5781,-112.20200000000001,2017-10-02,2017-10-02
640835,22743106,"622 W Portobello Ave, Mesa, AZ 85210 ",85210,0.6789739966392517,240000,https://www.zillow.com/homedetails/622-W-Portobello-Ave-Mesa-AZ-85210/8190949_zpid/,33.3608,-111.84700000000001,2017-10-06,2017-10-06
9019405,22734801,"12802 N 21st Ave, Phoenix, AZ 85029 ",85029,0.6788678586483001,219900,https://www.zillow.com/homedetails/12802-N-21st-Ave-Phoenix-AZ-85029/7739025_zpid/,33.6019,-112.104,2017-10-03,2017-10-03
1413516,22924606,"7311 N 73rd Dr, Glendale, AZ 85303 ",85303,0.6788155138492584,248700,https://www.zillow.com/homedetails/7311-N-73rd-Dr-Glendale-AZ-85303/59270763_zpid/,33.5425,-112.21600000000001,2017-10-07,2017-10-07
351857,23512137,"2002 E Aire Libre Ave, Phoenix, AZ 85022 ",85022,0.6773952066898346,244777,https://www.zillow.com/homedetails/2002-E-Aire-Libre-Ave-Phoenix-AZ-85022/50181849_zpid/,33.6376,-112.039,2017-09-24,2017-09-24
410719,23804017,"4923 W Larkspur Dr, Glendale, AZ 85304 ",85304,0.6772667109966278,242000,https://www.zillow.com/homedetails/4923-W-Larkspur-Dr-Glendale-AZ-85304/7954371_zpid/,33.5993,-112.165,2017-10-19,2017-10-19
394581,23799121,"3626 W Rue De Lamour Ave, Phoenix, AZ 85029 ",85029,0.6770936965942382,215000,https://www.zillow.com/homedetails/3626-W-Rue-De-Lamour-Ave-Phoenix-AZ-85029/7741437_zpid/,33.6102,-112.137,2017-10-17,2017-10-17
9011928,23753384,"7411 W Wolf St, Phoenix, AZ 85033 ",85033,0.6769998729228973,229900,https://www.zillow.com/homedetails/7411-W-Wolf-St-Phoenix-AZ-85033/95184996_zpid/,33.5059,-112.219,2017-10-12,2017-10-12
9020094,22742091,"7615 W Cinnabar Ave, Peoria, AZ 85345 ",85345,0.6767940580844879,200000,https://www.zillow.com/homedetails/7615-W-Cinnabar-Ave-Peoria-AZ-85345/7682240_zpid/,33.5761,-112.223,2017-10-05,2017-10-05
1416084,22925102,"7583 W Krall St, Glendale, AZ 85303 ",85303,0.6765514969825744,230000,https://www.zillow.com/homedetails/7583-W-Krall-St-Glendale-AZ-85303/7463213_zpid/,33.5346,-112.22200000000001,2017-10-06,2017-10-06
1413126,22738304,"7263 W Palmaire Ave, Glendale, AZ 85303 ",85303,0.6764875710010528,249000,https://www.zillow.com/homedetails/7263-W-Palmaire-Ave-Glendale-AZ-85303/95127336_zpid/,33.5405,-112.215,2017-10-04,2017-10-04
330786,22738433,"1001 E Bluefield Ave, Phoenix, AZ 85022 ",85022,0.6761114299297333,207500,https://www.zillow.com/homedetails/1001-E-Bluefield-Ave-Phoenix-AZ-85022/8002596_zpid/,33.6522,-112.06,2017-10-04,2017-10-04
231292,23754709,"17406 N 28th Dr, Phoenix, AZ 85053 ",85053,0.6756561279296875,199000,https://www.zillow.com/homedetails/17406-N-28th-Dr-Phoenix-AZ-85053/7942376_zpid/,33.644,-112.12100000000001,2017-10-17,2017-10-17
8987663,22708157,"5215 W Piute Ave, Glendale, AZ 85308 ",85308,0.675451683998108,225000,https://www.zillow.com/homedetails/5215-W-Piute-Ave-Glendale-AZ-85308/7889604_zpid/,33.6621,-112.171,2017-09-21,2017-09-21
8989019,22747254,"2049 N 77th Gln, Phoenix, AZ 85035 ",85035,0.6753869473934173,168250,https://www.zillow.com/homedetails/2049-N-77th-Gln-Phoenix-AZ-85035/95149994_zpid/,33.4706,-112.226,2017-10-05,2017-10-05
444887,22730839,"4607 N 92nd Ln, Phoenix, AZ 85037 ",85037,0.6752114951610565,214900,https://www.zillow.com/homedetails/4607-N-92nd-Ln-Phoenix-AZ-85037/7466411_zpid/,33.5044,-112.259,2017-09-28,2017-09-28
527019,22747540,"9424 W Pierson St, Phoenix, AZ 85037 ",85037,0.6752075374126434,212000,https://www.zillow.com/homedetails/9424-W-Pierson-St-Phoenix-AZ-85037/52423672_zpid/,33.5071,-112.26299999999999,2017-10-10,2017-10-10
354125,22802972,"2231 E Everett Dr, Phoenix, AZ 85022 ",85022,0.6750196397304535,206900,https://www.zillow.com/homedetails/2231-E-Everett-Dr-Phoenix-AZ-85022/8014080_zpid/,33.6195,-112.03399999999999,2017-10-10,2017-10-10
223723,23756948,"14028 N 29th Dr, Phoenix, AZ 85053 ",85053,0.6748722195625305,199999,https://www.zillow.com/homedetails/14028-N-29th-Dr-Phoenix-AZ-85053/7942983_zpid/,33.6134,-112.12200000000001,2017-10-19,2017-10-19
8996157,22735450,"11202 N 69th Dr, Peoria, AZ 85345 ",85345,0.674600350856781,208900,https://www.zillow.com/homedetails/11202-N-69th-Dr-Peoria-AZ-85345/7699586_zpid/,33.5869,-112.208,2017-10-03,2017-10-03
420229,22745815,"5712 W Freeway Ln, Glendale, AZ 85302 ",85302,0.6739731907844544,245000,https://www.zillow.com/homedetails/5712-W-Freeway-Ln-Glendale-AZ-85302/55260819_zpid/,33.5612,-112.182,2017-10-09,2017-10-09
394541,22734836,"3622 W Charter Oak Rd, Phoenix, AZ 85029 ",85029,0.673872995376587,223000,https://www.zillow.com/homedetails/3622-W-Charter-Oak-Rd-Phoenix-AZ-85029/7742894_zpid/,33.5978,-112.137,2017-10-03,2017-10-03
8968871,23512069,"15611 N 33rd Pl, Phoenix, AZ 85032 ",85032,0.6736332416534424,210000,https://www.zillow.com/homedetails/15611-N-33rd-Pl-Phoenix-AZ-85032/55267923_zpid/,33.6291,-112.01,2017-10-10,2017-10-10
477499,23753529,"1636 N 73rd Dr, Phoenix, AZ 85035 ",85035,0.6735288679599762,175000,https://www.zillow.com/homedetails/1636-N-73rd-Dr-Phoenix-AZ-85035/7475024_zpid/,33.4671,-112.21700000000001,2017-10-12,2017-10-12
435581,22732846,"2207 N 87th Dr, Phoenix, AZ 85037 ",85037,0.6734296917915344,184900,https://www.zillow.com/homedetails/2207-N-87th-Dr-Phoenix-AZ-85037/7487726_zpid/,33.4706,-112.24700000000001,2017-09-30,2017-09-30
1885528,22710615,"8223 W Carol Ave, Peoria, AZ 85345 ",85345,0.6734216928482055,205000,https://www.zillow.com/homedetails/8223-W-Carol-Ave-Peoria-AZ-85345/60978276_zpid/,33.5706,-112.236,2017-09-21,2017-09-21
501566,23807411,"7828 W Bonitos Dr, Phoenix, AZ 85035 ",85035,0.6733466923236847,162999,https://www.zillow.com/homedetails/7828-W-Bonitos-Dr-Phoenix-AZ-85035/82823203_zpid/,33.4717,-112.228,2017-10-19,2017-10-19
448390,23757850,"8403 W Lewis Ave, Phoenix, AZ 85037 ",85037,0.6733039736747741,160000,https://www.zillow.com/homedetails/8403-W-Lewis-Ave-Phoenix-AZ-85037/81985441_zpid/,33.4738,-112.24,2017-10-19,2017-10-19
9021175,23755408,"9162 W Charleston Ave, Peoria, AZ 85382 ",85382,0.6730283617973327,219000,https://www.zillow.com/homedetails/9162-W-Charleston-Ave-Peoria-AZ-85382/8104904_zpid/,33.6462,-112.257,2017-10-18,2017-10-18
450692,23753402,"8742 W Edgemont Ave, Phoenix, AZ 85037 ",85037,0.6719312965869904,190000,https://www.zillow.com/homedetails/8742-W-Edgemont-Ave-Phoenix-AZ-85037/7473770_zpid/,33.4794,-112.249,2017-10-12,2017-10-12
9021166,23755396,"7624 W Comet Ave, Peoria, AZ 85345 ",85345,0.6715770125389099,214900,https://www.zillow.com/homedetails/7624-W-Comet-Ave-Peoria-AZ-85345/7682505_zpid/,33.5791,-112.223,2017-10-17,2017-10-17
350131,22705127,"6405 W Preston Ln, Phoenix, AZ 85043 ",85043,0.6715334832668305,187000,https://www.zillow.com/homedetails/6405-W-Preston-Ln-Phoenix-AZ-85043/55257428_zpid/,33.4235,-112.198,2017-09-22,2017-09-22
229448,22722705,"18611 N 22nd St LOT 82, Phoenix, AZ 85024 ",85024,0.6713171184062958,245000,https://www.zillow.com/homedetails/18611-N-22nd-St-LOT-82-Phoenix-AZ-85024/23725409_zpid/,33.6567,-112.03299999999999,2017-09-26,2017-09-26
422454,22731449,"6652 W Delmonico Ln, Glendale, AZ 85302 ",85302,0.6712987363338471,235000,https://www.zillow.com/homedetails/6652-W-Delmonico-Ln-Glendale-AZ-85302/50187742_zpid/,33.5645,-112.20200000000001,2017-09-29,2017-09-29
9004346,22704088,"2412 N 73rd Ln, Phoenix, AZ 85035 ",85035,0.6710707902908325,219000,https://www.zillow.com/homedetails/2412-N-73rd-Ln-Phoenix-AZ-85035/95085660_zpid/,33.4744,-112.21799999999999,2017-09-21,2017-09-21
219954,23753395,"825 E Ruth Ave, Phoenix, AZ 85020 ",85020,0.6708497703075409,239900,https://www.zillow.com/homedetails/825-E-Ruth-Ave-Phoenix-AZ-85020/7789613_zpid/,33.5632,-112.06299999999999,2017-10-11,2017-10-11
8988709,22725854,"9561 N 85th Dr, Peoria, AZ 85345 ",85345,0.6704913735389709,209900,https://www.zillow.com/homedetails/9561-N-85th-Dr-Peoria-AZ-85345/7697054_zpid/,33.5716,-112.243,2017-09-27,2017-09-27
422357,23752505,"6612 W Brown St, Glendale, AZ 85302 ",85302,0.6704911649227142,199000,https://www.zillow.com/homedetails/6612-W-Brown-St-Glendale-AZ-85302/7706362_zpid/,33.5783,-112.20100000000001,2017-10-14,2017-10-14
9013787,22693106,"5647 W Villa Theresa Dr, Glendale, AZ 85308 ",85308,0.6704399526119232,210000,https://www.zillow.com/homedetails/5647-W-Villa-Theresa-Dr-Glendale-AZ-85308/7901269_zpid/,33.6537,-112.182,2017-09-19,2017-09-19
1369777,22747439,"6235 N 89th Ave, Glendale, AZ 85305 ",85305,0.6704356431961059,229900,https://www.zillow.com/homedetails/6235-N-89th-Ave-Glendale-AZ-85305/7462018_zpid/,33.5276,-112.251,2017-10-10,2017-10-10
639551,23807280,"604 W Kiva Ave, Mesa, AZ 85210 ",85210,0.670188170671463,243000,https://www.zillow.com/homedetails/604-W-Kiva-Ave-Mesa-AZ-85210/8170162_zpid/,33.3769,-111.84700000000001,2017-10-19,2017-10-19
339560,23754868,"7015 N 23rd Ln, Phoenix, AZ 85021 ",85021,0.6698576509952545,179900,https://www.zillow.com/homedetails/7015-N-23rd-Ln-Phoenix-AZ-85021/7779135_zpid/,33.5393,-112.11,2017-10-17,2017-10-17
416972,23569544,"4633 W Ruth Ave, Glendale, AZ 85302 ",85302,0.6697233200073243,200000,https://www.zillow.com/homedetails/4633-W-Ruth-Ave-Glendale-AZ-85302/7731286_zpid/,33.5632,-112.15899999999999,2017-10-13,2017-10-13
401171,22726857,"14216 N 45th Dr, Glendale, AZ 85306 ",85306,0.669277161359787,199900,https://www.zillow.com/homedetails/14216-N-45th-Dr-Glendale-AZ-85306/7952135_zpid/,33.6149,-112.15700000000001,2017-09-26,2017-09-26
1373217,23752511,"8728 W Tuckey Ln, Glendale, AZ 85305 ",85305,0.6692755460739136,215000,https://www.zillow.com/homedetails/8728-W-Tuckey-Ln-Glendale-AZ-85305/7461657_zpid/,33.533,-112.24799999999999,2017-10-14,2017-10-14
9021378,23757717,"7437 W Eva St, Peoria, AZ 85345 ",85345,0.6692509174346923,192000,https://www.zillow.com/homedetails/7437-W-Eva-St-Peoria-AZ-85345/7702465_zpid/,33.5683,-112.219,2017-10-19,2017-10-19
8973719,22726972,"9226 W Coolbrook Ave, Peoria, AZ 85382 ",85382,0.6688877165317535,239900,https://www.zillow.com/homedetails/9226-W-Coolbrook-Ave-Peoria-AZ-85382/95165053_zpid/,33.6421,-112.258,2017-09-27,2017-09-27
419065,22712714,"5320 W Freeway Ln, Glendale, AZ 85302 ",85302,0.6688281893730164,214900,https://www.zillow.com/homedetails/5320-W-Freeway-Ln-Glendale-AZ-85302/7733757_zpid/,33.562,-112.17399999999999,2017-09-23,2017-09-23
9012337,23512200,"3324 E Thunderbird Rd, Phoenix, AZ 85032 ",85032,0.668761420249939,216000,https://www.zillow.com/homedetails/3324-E-Thunderbird-Rd-Phoenix-AZ-85032/8011849_zpid/,33.6116,-112.01100000000001,2017-10-05,2017-10-05
41623,23754550,"6327 W Hilton Ave, Phoenix, AZ 85043 ",85043,0.6680054664611816,190000,https://www.zillow.com/homedetails/6327-W-Hilton-Ave-Phoenix-AZ-85043/53206202_zpid/,33.4279,-112.197,2017-10-17,2017-10-17
9021565,23760091,"6974 W Juniper Ave, Peoria, AZ 85382 ",85382,0.667754453420639,219900,https://www.zillow.com/homedetails/6974-W-Juniper-Ave-Peoria-AZ-85382/7903019_zpid/,33.6365,-112.21,2017-10-21,2017-10-21
7419652,23752910,"4450 N 37TH Ave, Phoenix, AZ 85019 ",85019,0.6675958514213562,240000,https://www.zillow.com/homedetails/4450-N-37TH-Ave-Phoenix-AZ-85019/95137035_zpid/,33.5016,-112.139,2017-10-15,2017-10-15
415556,22738441,"10322 N 61st Dr, Glendale, AZ 85302 ",85302,0.6674855172634124,239900,https://www.zillow.com/homedetails/10322-N-61st-Dr-Glendale-AZ-85302/7703691_zpid/,33.58,-112.191,2017-10-04,2017-10-04
1374448,22745824,"8915 W Mclellan Rd, Glendale, AZ 85305 ",85305,0.667154175043106,215000,https://www.zillow.com/homedetails/8915-W-Mclellan-Rd-Glendale-AZ-85305/7461790_zpid/,33.5323,-112.25200000000001,2017-10-08,2017-10-08
214915,23512047,"1336 E Becker Ln, Phoenix, AZ 85020 ",85020,0.6670465886592865,229499,https://www.zillow.com/homedetails/1336-E-Becker-Ln-Phoenix-AZ-85020/7785603_zpid/,33.5832,-112.053,2017-10-06,2017-10-06
17301,23755286,"5852 W Orangewood Ave, Glendale, AZ 85301 ",85301,0.6668609499931335,179900,https://www.zillow.com/homedetails/5852-W-Orangewood-Ave-Glendale-AZ-85301/7726635_zpid/,33.5461,-112.186,2017-10-18,2017-10-18
1407343,22745826,"6817 W State Ave, Glendale, AZ 85303 ",85303,0.6662797451019287,180000,https://www.zillow.com/homedetails/6817-W-State-Ave-Glendale-AZ-85303/7704770_zpid/,33.544000000000004,-112.206,2017-10-08,2017-10-08
349017,22737509,"3535 W Garfield St, Phoenix, AZ 85009 ",85009,0.6662111222743988,150000,https://www.zillow.com/homedetails/3535-W-Garfield-St-Phoenix-AZ-85009/60047772_zpid/,33.4578,-112.13600000000001,2017-10-03,2017-10-03
246567,22745687,"3407 W Port Au Prince Ln, Phoenix, AZ 85053 ",85053,0.6660314083099366,175000,https://www.zillow.com/homedetails/3407-W-Port-Au-Prince-Ln-Phoenix-AZ-85053/7943671_zpid/,33.6229,-112.132,2017-10-09,2017-10-09
396990,23512234,"4008 W Windrose Dr, Phoenix, AZ 85029 ",85029,0.6659990787506104,194999,https://www.zillow.com/homedetails/4008-W-Windrose-Dr-Phoenix-AZ-85029/7742420_zpid/,33.6012,-112.146,2017-10-10,2017-10-10
9016917,22713964,"16415 N 29th Pl, Phoenix, AZ 85032 ",85032,0.6659531593322754,239000,https://www.zillow.com/homedetails/16415-N-29th-Pl-Phoenix-AZ-85032/8005881_zpid/,33.6358,-112.01899999999999,2017-09-24,2017-09-24
527635,22717844,"9459 W Virginia Ave, Phoenix, AZ 85037 ",85037,0.6658875226974488,200000,https://www.zillow.com/homedetails/9459-W-Virginia-Ave-Phoenix-AZ-85037/62727169_zpid/,33.4764,-112.26299999999999,2017-09-20,2017-09-20
432541,22734473,"7113 W Sheila Ln, Phoenix, AZ 85033 ",85033,0.6654283761978149,189000,https://www.zillow.com/homedetails/7113-W-Sheila-Ln-Phoenix-AZ-85033/55257199_zpid/,33.4878,-112.213,2017-10-03,2017-10-03
250773,22736410,"517 E Kerry Ln, Phoenix, AZ 85024 ",85024,0.6648234248161315,235000,https://www.zillow.com/homedetails/517-E-Kerry-Ln-Phoenix-AZ-85024/7972504_zpid/,33.6603,-112.06700000000001,2017-09-29,2017-09-29
413890,23753554,"6209 W Bloomfield Rd, Glendale, AZ 85304 ",85304,0.6647161304950714,230000,https://www.zillow.com/homedetails/6209-W-Bloomfield-Rd-Glendale-AZ-85304/7912238_zpid/,33.5984,-112.19200000000001,2017-10-16,2017-10-16
422412,23760087,"6622 W Golden Ln, Glendale, AZ 85302 ",85302,0.6644191145896912,190000,https://www.zillow.com/homedetails/6622-W-Golden-Ln-Glendale-AZ-85302/50187805_zpid/,33.5652,-112.20200000000001,2017-10-20,2017-10-20
412062,23570538,"5339 W Cholla St, Glendale, AZ 85304 ",85304,0.6640298068523407,209000,https://www.zillow.com/homedetails/5339-W-Cholla-St-Glendale-AZ-85304/7736846_zpid/,33.5891,-112.175,2017-10-12,2017-10-12
15292,22708244,"8334 W Ocotillo Rd, Glendale, AZ 85305 ",85305,0.6637983679771423,215900,https://www.zillow.com/homedetails/8334-W-Ocotillo-Rd-Glendale-AZ-85305/7461418_zpid/,33.534,-112.23899999999999,2017-09-20,2017-09-20
409027,23757015,"6509 W Grandview Rd, Glendale, AZ 85306 ",85306,0.6637756407260895,234900,https://www.zillow.com/homedetails/6509-W-Grandview-Rd-Glendale-AZ-85306/7902066_zpid/,33.6342,-112.198,2017-10-18,2017-10-18
404277,23754957,"13213 N 55th Ave, Glendale, AZ 85304 ",85304,0.6635937094688416,230000,https://www.zillow.com/homedetails/13213-N-55th-Ave-Glendale-AZ-85304/7911876_zpid/,33.6045,-112.177,2017-10-17,2017-10-17
402730,23756995,"15243 N 66th Dr, Glendale, AZ 85306 ",85306,0.663237190246582,242500,https://www.zillow.com/homedetails/15243-N-66th-Dr-Glendale-AZ-85306/8100497_zpid/,33.6248,-112.20100000000001,2017-10-19,2017-10-19
387630,23803562,"3746 W Puget Ave, Phoenix, AZ 85051 ",85051,0.6632265090942383,194500,https://www.zillow.com/homedetails/3746-W-Puget-Ave-Phoenix-AZ-85051/7754271_zpid/,33.567,-112.141,2017-10-20,2017-10-20
253112,22738546,"3806 W Mauna Loa Ln, Phoenix, AZ 85053 ",85053,0.6631965517997742,234500,https://www.zillow.com/homedetails/3806-W-Mauna-Loa-Ln-Phoenix-AZ-85053/7943940_zpid/,33.6207,-112.14,2017-10-05,2017-10-05
8969477,23756066,"9324 W Mountain View Rd, Peoria, AZ 85345 ",85345,0.66287682056427,214000,https://www.zillow.com/homedetails/9324-W-Mountain-View-Rd-Peoria-AZ-85345/7697441_zpid/,33.5733,-112.26100000000001,2017-10-18,2017-10-18
9012276,23755797,"5861 W Grovers Ave, Glendale, AZ 85308 ",85308,0.6628272712230683,207000,https://www.zillow.com/homedetails/5861-W-Grovers-Ave-Glendale-AZ-85308/8099781_zpid/,33.6472,-112.186,2017-10-18,2017-10-18
229334,22738886,"16290 N 29th Ave, Phoenix, AZ 85053 ",85053,0.6626824736595154,221900,https://www.zillow.com/homedetails/16290-N-29th-Ave-Phoenix-AZ-85053/7954076_zpid/,33.6347,-112.12,2017-10-04,2017-10-04
379611,23756191,"2729 W Lawrence Ln, Phoenix, AZ 85051 ",85051,0.6625081419944763,181000,https://www.zillow.com/homedetails/2729-W-Lawrence-Ln-Phoenix-AZ-85051/7750269_zpid/,33.5641,-112.118,2017-10-16,2017-10-16
9012587,22734105,"4946 W Charleston Ave, Glendale, AZ 85308 ",85308,0.6621891975402832,245000,https://www.zillow.com/homedetails/4946-W-Charleston-Ave-Glendale-AZ-85308/7949618_zpid/,33.6487,-112.167,2017-10-02,2017-10-02
9019950,22740802,"3015 W Yuma St, Phoenix, AZ 85009 ",85009,0.6620526552200318,189900,https://www.zillow.com/homedetails/3015-W-Yuma-St-Phoenix-AZ-85009/7500920_zpid/,33.4349,-112.125,2017-10-06,2017-10-06
393352,23759043,"4238 W Barbara Ave, Phoenix, AZ 85051 ",85051,0.662040913105011,249900,https://www.zillow.com/homedetails/4238-W-Barbara-Ave-Phoenix-AZ-85051/7753258_zpid/,33.5637,-112.15100000000001,2017-10-20,2017-10-20
258476,23717515,"614 W Rosemonte Dr, Phoenix, AZ 85027 ",85027,0.6617368280887603,234900,https://www.zillow.com/homedetails/614-W-Rosemonte-Dr-Phoenix-AZ-85027/7968459_zpid/,33.657,-112.08200000000001,2017-10-12,2017-10-12
8945113,23759637,"7920 W Sweetwater Ave, Peoria, AZ 85381 ",85381,0.6607295632362366,229900,https://www.zillow.com/homedetails/7920-W-Sweetwater-Ave-Peoria-AZ-85381/8100881_zpid/,33.6029,-112.23,2017-10-19,2017-10-19
424819,23757935,"9632 N 53rd Ave, Glendale, AZ 85302 ",85302,0.660687905550003,195000,https://www.zillow.com/homedetails/9632-N-53rd-Ave-Glendale-AZ-85302/7734288_zpid/,33.5739,-112.17399999999999,2017-10-20,2017-10-20
1115786,23756148,"1723 N Longmore St, Chandler, AZ 85224 ",85224,0.6604618608951569,229900,https://www.zillow.com/homedetails/1723-N-Longmore-St-Chandler-AZ-85224/8193731_zpid/,33.3324,-111.868,2017-10-18,2017-10-18
389628,22740117,"3927 W State Ave, Phoenix, AZ 85051 ",85051,0.660376501083374,235000,https://www.zillow.com/homedetails/3927-W-State-Ave-Phoenix-AZ-85051/7757783_zpid/,33.5431,-112.14399999999999,2017-10-05,2017-10-05
249880,22703950,"429 E Kristal Way, Phoenix, AZ 85024 ",85024,0.6603015244007111,239000,https://www.zillow.com/homedetails/429-E-Kristal-Way-Phoenix-AZ-85024/7972535_zpid/,33.6609,-112.068,2017-09-21,2017-09-21
8989113,22740158,"19153 N 75th Dr, Glendale, AZ 85308 ",85308,0.6599987089633942,235000,https://www.zillow.com/homedetails/19153-N-75th-Dr-Glendale-AZ-85308/7892099_zpid/,33.6583,-112.221,2017-10-05,2017-10-05
1466628,23756048,"17464 N 92nd Gln, Peoria, AZ 85382 ",85382,0.6599872231483459,249900,https://www.zillow.com/homedetails/17464-N-92nd-Gln-Peoria-AZ-85382/95078061_zpid/,33.6427,-112.258,2017-10-18,2017-10-18
380868,23801450,"12018 N 42nd Dr, Phoenix, AZ 85029 ",85029,0.6599779605865479,189000,https://www.zillow.com/homedetails/12018-N-42nd-Dr-Phoenix-AZ-85029/7744164_zpid/,33.595,-112.15100000000001,2017-10-21,2017-10-21
8991893,23650023,"9352 W Jefferson St, Tolleson, AZ 85353 ",85353,0.6594947755336762,232900,https://www.zillow.com/homedetails/9352-W-Jefferson-St-Tolleson-AZ-85353/7460100_zpid/,33.4464,-112.26100000000001,2017-10-14,2017-10-14
252724,23650304,"3745 W Tierra Buena Ln, Phoenix, AZ 85053 ",85053,0.659448218345642,213900,https://www.zillow.com/homedetails/3745-W-Tierra-Buena-Ln-Phoenix-AZ-85053/7945954_zpid/,33.6286,-112.14,2017-10-13,2017-10-13
243287,22690475,"3218 W Angela Dr, Phoenix, AZ 85053 ",85053,0.6592952370643616,209000,https://www.zillow.com/homedetails/3218-W-Angela-Dr-Phoenix-AZ-85053/7942085_zpid/,33.6461,-112.12899999999999,2017-09-18,2017-09-18
390730,22745703,"4032 W North Ln, Phoenix, AZ 85051 ",85051,0.6591246485710144,195000,https://www.zillow.com/homedetails/4032-W-North-Ln-Phoenix-AZ-85051/7746045_zpid/,33.5817,-112.146,2017-10-08,2017-10-08
1075269,23796771,"1803 N Cheri Lynn Dr, Chandler, AZ 85225 ",85225,0.6589930951595306,239900,https://www.zillow.com/homedetails/1803-N-Cheri-Lynn-Dr-Chandler-AZ-85225/8183501_zpid/,33.3321,-111.853,2017-10-19,2017-10-19
394979,23752466,"7602 N 33rd Ave, Phoenix, AZ 85051 ",85051,0.6587130844593048,190500,https://www.zillow.com/homedetails/7602-N-33rd-Ave-Phoenix-AZ-85051/7755092_zpid/,33.5478,-112.13,2017-10-14,2017-10-14
1401750,22738609,"5060 N 71st Dr, Glendale, AZ 85303 ",85303,0.6584087550640106,195000,https://www.zillow.com/homedetails/5060-N-71st-Dr-Glendale-AZ-85303/7708796_zpid/,33.5113,-112.212,2017-09-20,2017-09-20
401493,23754956,"11221 N 58th Ave, Glendale, AZ 85304 ",85304,0.6583967208862305,209000,https://www.zillow.com/homedetails/11221-N-58th-Ave-Glendale-AZ-85304/7736227_zpid/,33.588,-112.184,2017-10-17,2017-10-17
390375,23759015,"3010 W Sahuaro Dr, Phoenix, AZ 85029 ",85029,0.6582940757274628,215000,https://www.zillow.com/homedetails/3010-W-Sahuaro-Dr-Phoenix-AZ-85029/7739762_zpid/,33.5843,-112.124,2017-10-20,2017-10-20
9016804,22738611,"7237 W Sierra St, Peoria, AZ 85345 ",85345,0.6581586122512817,200000,https://www.zillow.com/homedetails/7237-W-Sierra-St-Peoria-AZ-85345/7700458_zpid/,33.5903,-112.215,2017-10-04,2017-10-04
435965,23757849,"2237 N 94th Ave, Phoenix, AZ 85037 ",85037,0.6579087018966675,229999,https://www.zillow.com/homedetails/2237-N-94th-Ave-Phoenix-AZ-85037/67773064_zpid/,33.4752,-112.26100000000001,2017-10-20,2017-10-20
397149,22712744,"4019 W Yucca St, Phoenix, AZ 85029 ",85029,0.6578332841396332,230000,https://www.zillow.com/homedetails/4019-W-Yucca-St-Phoenix-AZ-85029/7744828_zpid/,33.5877,-112.146,2017-09-23,2017-09-23
9019690,23756231,"3644 W Libby St, Glendale, AZ 85308 ",85308,0.6576830565929412,175000,https://www.zillow.com/homedetails/3644-W-Libby-St-Glendale-AZ-85308/7948081_zpid/,33.6483,-112.13799999999999,2017-10-19,2017-10-19
8992552,23527037,"6029 W Mary Jane Ln, Glendale, AZ 85306 ",85306,0.657336300611496,239000,https://www.zillow.com/homedetails/6029-W-Mary-Jane-Ln-Glendale-AZ-85306/8097193_zpid/,33.6273,-112.189,2017-10-11,2017-10-11
524898,23810672,"9134 W Cypress St, Phoenix, AZ 85037 ",85037,0.6567175149917602,214900,https://www.zillow.com/homedetails/9134-W-Cypress-St-Phoenix-AZ-85037/67762994_zpid/,33.4719,-112.257,2017-10-27,2017-10-27
230822,23754370,"19206 N 4th St, Phoenix, AZ 85024 ",85024,0.65653675198555,224900,https://www.zillow.com/homedetails/19206-N-4th-St-Phoenix-AZ-85024/7972304_zpid/,33.6605,-112.07,2017-10-16,2017-10-16
344412,23649622,"2406 W Tonto St, Phoenix, AZ 85009 ",85009,0.6563098132610321,195000,https://www.zillow.com/homedetails/2406-W-Tonto-St-Phoenix-AZ-85009/7515658_zpid/,33.4388,-112.111,2017-10-12,2017-10-12
9019686,22738495,"17452 N 55th Ave, Glendale, AZ 85308 ",85308,0.656035041809082,249900,https://www.zillow.com/homedetails/17452-N-55th-Ave-Glendale-AZ-85308/8099766_zpid/,33.6452,-112.178,2017-10-04,2017-10-04
237010,22738534,"2939 W Campo Bello Dr, Phoenix, AZ 85053 ",85053,0.655923354625702,199900,https://www.zillow.com/homedetails/2939-W-Campo-Bello-Dr-Phoenix-AZ-85053/7942237_zpid/,33.6448,-112.12299999999999,2017-10-05,2017-10-05
409707,23564615,"4513 W Sunnyside Ave, Glendale, AZ 85304 ",85304,0.6554109811782837,239900,https://www.zillow.com/homedetails/4513-W-Sunnyside-Ave-Glendale-AZ-85304/7726914_zpid/,33.5922,-112.156,2017-10-13,2017-10-13
394538,23756229,"3622 W Bloomfield Rd, Phoenix, AZ 85029 ",85029,0.6553492248058319,193000,https://www.zillow.com/homedetails/3622-W-Bloomfield-Rd-Phoenix-AZ-85029/7742907_zpid/,33.5986,-112.137,2017-10-17,2017-10-17
411581,22708161,"5226 W Eugie Ave, Glendale, AZ 85304 ",85304,0.6551889300346374,220000,https://www.zillow.com/homedetails/5226-W-Eugie-Ave-Glendale-AZ-85304/7911821_zpid/,33.608000000000004,-112.17200000000001,2017-09-21,2017-09-21
264257,23752112,"7723 W Oraibi Dr, Glendale, AZ 85308 ",85308,0.6550215303897857,244995,https://www.zillow.com/homedetails/7723-W-Oraibi-Dr-Glendale-AZ-85308/7891683_zpid/,33.6615,-112.22399999999999,2017-10-13,2017-10-13
333549,23801782,"1415 W Cinnabar Ave, Phoenix, AZ 85021 ",85021,0.6550121665000915,215000,https://www.zillow.com/homedetails/1415-W-Cinnabar-Ave-Phoenix-AZ-85021/7781704_zpid/,33.5764,-112.09100000000001,2017-10-20,2017-10-20
8975955,23754080,"2233 W Vista Ave, Phoenix, AZ 85021 ",85021,0.6549571692943573,231900,https://www.zillow.com/homedetails/2233-W-Vista-Ave-Phoenix-AZ-85021/2093423506_zpid/,33.547,-112.10700000000001,2017-10-16,2017-10-16
243121,23752741,"3214 W Villa Rita Dr, Phoenix, AZ 85053 ",85053,0.6548938632011414,220000,https://www.zillow.com/homedetails/3214-W-Villa-Rita-Dr-Phoenix-AZ-85053/7941484_zpid/,33.6505,-112.12799999999999,2017-10-14,2017-10-14
339679,23527007,"7027 N 23rd Ln, Phoenix, AZ 85021 ",85021,0.654861181974411,149750,https://www.zillow.com/homedetails/7027-N-23rd-Ln-Phoenix-AZ-85021/7779133_zpid/,33.5397,-112.11,2017-10-11,2017-10-11
422180,22708207,"6532 W Purdue Ave, Glendale, AZ 85302 ",85302,0.6546753823757172,176500,https://www.zillow.com/homedetails/6532-W-Purdue-Ave-Glendale-AZ-85302/7703321_zpid/,33.5737,-112.2,2017-09-21,2017-09-21
411799,22708163,"5304 W Sunnyside Dr, Glendale, AZ 85304 ",85304,0.6543002605438233,239900,https://www.zillow.com/homedetails/5304-W-Sunnyside-Dr-Glendale-AZ-85304/7737447_zpid/,33.5927,-112.17299999999999,2017-09-21,2017-09-21
337572,22740038,"2307 W Alice Ave, Phoenix, AZ 85021 ",85021,0.6542944014072418,217900,https://www.zillow.com/homedetails/2307-W-Alice-Ave-Phoenix-AZ-85021/7782260_zpid/,33.5637,-112.109,2017-10-05,2017-10-05
397538,23810931,"4046 W Cactus Rd, Phoenix, AZ 85029 ",85029,0.6542738020420075,225000,https://www.zillow.com/homedetails/4046-W-Cactus-Rd-Phoenix-AZ-85029/7742480_zpid/,33.5968,-112.146,2017-10-27,2017-10-27
9021767,23805326,"1139 W Auburn St, Mesa, AZ 85201 ",85201,0.65421222448349,225000,https://www.zillow.com/homedetails/1139-W-Auburn-St-Mesa-AZ-85201/81997574_zpid/,33.4176,-111.85600000000001,2017-10-24,2017-10-24
8966098,22734768,"7726 W Piute Ave, Glendale, AZ 85308 ",85308,0.6539159536361694,245000,https://www.zillow.com/homedetails/7726-W-Piute-Ave-Glendale-AZ-85308/7891754_zpid/,33.6608,-112.22399999999999,2017-10-02,2017-10-02
22933,22734467,"8739 W Fairmount Ave, Phoenix, AZ 85037 ",85037,0.6538359999656678,170000,https://www.zillow.com/homedetails/8739-W-Fairmount-Ave-Phoenix-AZ-85037/7471067_zpid/,33.492,-112.24799999999999,2017-10-03,2017-10-03
1346544,22724803,"4852 W Frier Dr, Glendale, AZ 85301 ",85301,0.6537862718105316,235000,https://www.zillow.com/homedetails/4852-W-Frier-Dr-Glendale-AZ-85301/7724567_zpid/,33.5494,-112.164,2017-09-27,2017-09-27
383025,23755743,"3232 W Camino Vis, Phoenix, AZ 85051 ",85051,0.6529551446437836,219500,https://www.zillow.com/homedetails/3232-W-Camino-Vis-Phoenix-AZ-85051/7739710_zpid/,33.5732,-112.12899999999999,2017-10-18,2017-10-18
7482430,22705845,"2321 W Ponderosa Ln, Phoenix, AZ 85023 ",85023,0.6529132544994354,249900,https://www.zillow.com/homedetails/2321-W-Ponderosa-Ln-Phoenix-AZ-85023/7960922_zpid/,33.6265,-112.109,2017-09-22,2017-09-22
406394,22734683,"5218 W Banff Ln, Glendale, AZ 85306 ",85306,0.6528186082839966,159000,https://www.zillow.com/homedetails/5218-W-Banff-Ln-Glendale-AZ-85306/7911066_zpid/,33.6195,-112.17200000000001,2017-10-03,2017-10-03
1356715,22740170,"7327 N 47th Ave, Glendale, AZ 85301 ",85301,0.6522427320480346,189900,https://www.zillow.com/homedetails/7327-N-47th-Ave-Glendale-AZ-85301/7725576_zpid/,33.545,-112.16,2017-10-05,2017-10-05
393008,23752324,"3333 W Columbine Dr, Phoenix, AZ 85029 ",85029,0.6522235691547393,169900,https://www.zillow.com/homedetails/3333-W-Columbine-Dr-Phoenix-AZ-85029/7747780_zpid/,33.5991,-112.131,2017-10-13,2017-10-13
404051,23755789,"13002 N 55th Dr, Glendale, AZ 85304 ",85304,0.651952713727951,249900,https://www.zillow.com/homedetails/13002-N-55th-Dr-Glendale-AZ-85304/7896792_zpid/,33.6019,-112.175,2017-10-18,2017-10-18
390056,22737272,"2917 W Aster Dr, Phoenix, AZ 85029 ",85029,0.6516940474510193,199900,https://www.zillow.com/homedetails/2917-W-Aster-Dr-Phoenix-AZ-85029/7741102_zpid/,33.6021,-112.12200000000001,2017-09-19,2017-09-19
352598,23759699,"7130 W Whyman Ave, Phoenix, AZ 85043 ",85043,0.6516689360141754,184900,https://www.zillow.com/homedetails/7130-W-Whyman-Ave-Phoenix-AZ-85043/50186003_zpid/,33.428000000000004,-112.214,2017-10-21,2017-10-21
8998214,23512216,"3704 W Campo Bello Dr, Glendale, AZ 85308 ",85308,0.6509238958358765,209785,https://www.zillow.com/homedetails/3704-W-Campo-Bello-Dr-Glendale-AZ-85308/7947429_zpid/,33.6443,-112.14,2017-10-09,2017-10-09
1090459,23810641,"631 W Caroline Ln, Chandler, AZ 85225 ",85225,0.6504638314247131,230000,https://www.zillow.com/homedetails/631-W-Caroline-Ln-Chandler-AZ-85225/8183658_zpid/,33.3304,-111.851,2017-10-27,2017-10-27
9018341,23569410,"18613 N 68th Ave, Glendale, AZ 85308 ",85308,0.6504229784011841,249900,https://www.zillow.com/homedetails/18613-N-68th-Ave-Glendale-AZ-85308/7891573_zpid/,33.6545,-112.205,2017-10-13,2017-10-13
1373477,22734771,"8762 W Mclellan Rd, Glendale, AZ 85305 ",85305,0.6503226459026337,220000,https://www.zillow.com/homedetails/8762-W-Mclellan-Rd-Glendale-AZ-85305/7461585_zpid/,33.532,-112.249,2017-10-02,2017-10-02
403656,22738452,"12633 N 47th Dr, Glendale, AZ 85304 ",85304,0.6503120958805084,186999,https://www.zillow.com/homedetails/12633-N-47th-Dr-Glendale-AZ-85304/7954518_zpid/,33.601,-112.161,2017-09-28,2017-09-28
9019258,22732947,"3101 W Dailey St, Phoenix, AZ 85053 ",85053,0.6500991582870483,219000,https://www.zillow.com/homedetails/3101-W-Dailey-St-Phoenix-AZ-85053/7943122_zpid/,33.6127,-112.125,2017-10-01,2017-10-01
8982670,23753363,"1934 N Iowa St, Chandler, AZ 85225 ",85225,0.6496183216571808,215500,https://www.zillow.com/homedetails/1934-N-Iowa-St-Chandler-AZ-85225/8182675_zpid/,33.3331,-111.85,2017-10-13,2017-10-13
1402438,23753365,"5404 N 71st Ave, Glendale, AZ 85303 ",85303,0.6494328141212463,194500,https://www.zillow.com/homedetails/5404-N-71st-Ave-Glendale-AZ-85303/7709528_zpid/,33.5145,-112.211,2017-10-14,2017-10-14
1414969,23527039,"7414 W Tuckey Ln, Glendale, AZ 85303 ",85303,0.648958557844162,204900,https://www.zillow.com/homedetails/7414-W-Tuckey-Ln-Glendale-AZ-85303/7706691_zpid/,33.533,-112.219,2017-10-11,2017-10-11
9019087,22731125,"3117 E Charleston Ave, Phoenix, AZ 85032 ",85032,0.6488548934459686,239999,https://www.zillow.com/homedetails/3117-E-Charleston-Ave-Phoenix-AZ-85032/7999065_zpid/,33.6498,-112.015,2017-09-30,2017-09-30
393461,22738571,"4244 W Butler Dr, Phoenix, AZ 85051 ",85051,0.6484744250774384,185900,https://www.zillow.com/homedetails/4244-W-Butler-Dr-Phoenix-AZ-85051/7752975_zpid/,33.5601,-112.15100000000001,2017-09-29,2017-09-29
378692,22719387,"10228 N 36th Ave, Phoenix, AZ 85051 ",85051,0.6481586635112763,195000,https://www.zillow.com/homedetails/10228-N-36th-Ave-Phoenix-AZ-85051/7745264_zpid/,33.5794,-112.13600000000001,2017-09-25,2017-09-25
9012405,23648971,"7326 W Sierra St, Peoria, AZ 85345 ",85345,0.6476784229278565,227000,https://www.zillow.com/homedetails/7326-W-Sierra-St-Peoria-AZ-85345/7700347_zpid/,33.5903,-112.21700000000001,2017-10-13,2017-10-13
393729,23754865,"7051 N 28th Dr, Phoenix, AZ 85051 ",85051,0.6475426256656647,162500,https://www.zillow.com/homedetails/7051-N-28th-Dr-Phoenix-AZ-85051/7757290_zpid/,33.5405,-112.119,2017-10-17,2017-10-17
9019728,22738893,"17413 N 8th Ave, Phoenix, AZ 85023 ",85023,0.6473997175693512,189500,https://www.zillow.com/homedetails/17413-N-8th-Ave-Phoenix-AZ-85023/7963487_zpid/,33.6445,-112.085,2017-10-04,2017-10-04
527753,23797429,"9509 W Elm St, Phoenix, AZ 85037 ",85037,0.6473880648612976,205000,https://www.zillow.com/homedetails/9509-W-Elm-St-Phoenix-AZ-85037/55256235_zpid/,33.5056,-112.265,2017-10-24,2017-10-24
8988082,23800729,"6914 W Sierra St, Peoria, AZ 85345 ",85345,0.6471967279911042,204900,https://www.zillow.com/homedetails/6914-W-Sierra-St-Peoria-AZ-85345/7699742_zpid/,33.5904,-112.208,2017-10-19,2017-10-19
1418765,23807577,"7802 W Nicolet Ave, Glendale, AZ 85303 ",85303,0.6471763551235199,184995,https://www.zillow.com/homedetails/7802-W-Nicolet-Ave-Glendale-AZ-85303/60122813_zpid/,33.5424,-112.228,2017-10-25,2017-10-25
9021059,23754396,"3533 W Villa Rita Dr, Glendale, AZ 85308 ",85308,0.6471575260162353,229500,https://www.zillow.com/homedetails/3533-W-Villa-Rita-Dr-Glendale-AZ-85308/7947826_zpid/,33.6502,-112.13600000000001,2017-10-16,2017-10-16
9021060,23754387,"3522 W Michelle Dr, Glendale, AZ 85308 ",85308,0.6470647335052491,232500,https://www.zillow.com/homedetails/3522-W-Michelle-Dr-Glendale-AZ-85308/7947823_zpid/,33.6498,-112.135,2017-10-16,2017-10-16
349893,23809734,"18437 N 8th Pl, Phoenix, AZ 85022 ",85022,0.6468022465705872,215000,https://www.zillow.com/homedetails/18437-N-8th-Pl-Phoenix-AZ-85022/8002699_zpid/,33.6545,-112.061,2017-10-27,2017-10-27
8987315,22730403,"2932 W Woodridge Dr, Phoenix, AZ 85053 ",85053,0.6466498076915741,222000,https://www.zillow.com/homedetails/2932-W-Woodridge-Dr-Phoenix-AZ-85053/2093185978_zpid/,33.6407,-112.12299999999999,2017-09-29,2017-09-29
256320,22745705,"4221 W Redfield Rd, Phoenix, AZ 85053 ",85053,0.6466280341148376,220000,https://www.zillow.com/homedetails/4221-W-Redfield-Rd-Phoenix-AZ-85053/7945153_zpid/,33.6138,-112.148,2017-10-07,2017-10-07
402895,22731310,"12216 N 47th Ln, Glendale, AZ 85304 ",85304,0.6464568197727203,244500,https://www.zillow.com/homedetails/12216-N-47th-Ln-Glendale-AZ-85304/7954289_zpid/,33.597,-112.162,2017-09-29,2017-09-29
9019948,22740803,"2841 W Pierce St, Phoenix, AZ 85009 ",85009,0.646330201625824,139900,https://www.zillow.com/homedetails/2841-W-Pierce-St-Phoenix-AZ-85009/7513504_zpid/,33.4558,-112.12100000000001,2017-10-06,2017-10-06
402249,23756994,"14811 N 52nd Ave, Glendale, AZ 85306 ",85306,0.6462126135826111,205000,https://www.zillow.com/homedetails/14811-N-52nd-Ave-Glendale-AZ-85306/7910951_zpid/,33.6197,-112.171,2017-10-19,2017-10-19
9020416,22747654,"4237 W Sheridan St, Phoenix, AZ 85009 ",85009,0.6460877060890198,156900,https://www.zillow.com/homedetails/4237-W-Sheridan-St-Phoenix-AZ-85009/7512937_zpid/,33.4752,-112.15100000000001,2017-10-10,2017-10-10
7381656,23512343,"8231 W Meadowbrook Ave, Phoenix, AZ 85033 ",85033,0.6460799515247345,178000,https://www.zillow.com/homedetails/8231-W-Meadowbrook-Ave-Phoenix-AZ-85033/7482781_zpid/,33.5024,-112.236,2017-10-08,2017-10-08
406604,23570306,"5256 W Acapulco Ln, Glendale, AZ 85306 ",85306,0.6459494233131409,228900,https://www.zillow.com/homedetails/5256-W-Acapulco-Ln-Glendale-AZ-85306/8097745_zpid/,33.6232,-112.17299999999999,2017-10-13,2017-10-13
8969496,23512165,"2433 E Karen Dr, Phoenix, AZ 85032 ",85032,0.6459385037422181,247900,https://www.zillow.com/homedetails/2433-E-Karen-Dr-Phoenix-AZ-85032/8013849_zpid/,33.6257,-112.029,2017-10-02,2017-10-02
9019387,22734485,"6810 W Merrell St, Phoenix, AZ 85033 ",85033,0.6459335505962371,185000,https://www.zillow.com/homedetails/6810-W-Merrell-St-Phoenix-AZ-85033/7468727_zpid/,33.4824,-112.206,2017-10-02,2017-10-02
238502,22738960,"3020 W Angela Dr, Phoenix, AZ 85053 ",85053,0.6459319353103637,189900,https://www.zillow.com/homedetails/3020-W-Angela-Dr-Phoenix-AZ-85053/7942287_zpid/,33.6461,-112.124,2017-10-05,2017-10-05
13738,23752919,"5444 W Gardenia Ave, Glendale, AZ 85301 ",85301,0.6459032118320465,160000,https://www.zillow.com/homedetails/5444-W-Gardenia-Ave-Glendale-AZ-85301/7726172_zpid/,33.5452,-112.177,2017-10-15,2017-10-15
389082,22692197,"2502 W Dahlia Dr, Phoenix, AZ 85029 ",85029,0.6456674993038177,179900,https://www.zillow.com/homedetails/2502-W-Dahlia-Dr-Phoenix-AZ-85029/7748311_zpid/,33.6031,-112.113,2017-09-19,2017-09-19
404082,23756665,"16245 N 43rd Dr, Glendale, AZ 85306 ",85306,0.6456127345561982,247000,https://www.zillow.com/homedetails/16245-N-43rd-Dr-Glendale-AZ-85306/7950704_zpid/,33.6339,-112.152,2017-10-19,2017-10-19
391229,23512195,"3120 W Clinton St, Phoenix, AZ 85029 ",85029,0.6454839587211609,182000,https://www.zillow.com/homedetails/3120-W-Clinton-St-Phoenix-AZ-85029/7740856_zpid/,33.5834,-112.126,2017-10-07,2017-10-07
1470395,23800753,"8645 W Lockland Ct, Peoria, AZ 85382 ",85382,0.6452520728111267,223000,https://www.zillow.com/homedetails/8645-W-Lockland-Ct-Peoria-AZ-85382/8105342_zpid/,33.6306,-112.244,2017-10-23,2017-10-23
9020156,22744025,"6271 W Elm St, Phoenix, AZ 85033 ",85033,0.6449856698513031,159999,https://www.zillow.com/homedetails/6271-W-Elm-St-Phoenix-AZ-85033/7716254_zpid/,33.5051,-112.193,2017-10-06,2017-10-06
424551,22713757,"9415 N 49th Ave, Glendale, AZ 85302 ",85302,0.6449487805366516,239500,https://www.zillow.com/homedetails/9415-N-49th-Ave-Glendale-AZ-85302/7730049_zpid/,33.5721,-112.165,2017-09-24,2017-09-24
8974575,22729520,"1956 W Shady Glen Ave, Phoenix, AZ 85023 ",85023,0.6448068678379059,197000,https://www.zillow.com/homedetails/1956-W-Shady-Glen-Ave-Phoenix-AZ-85023/7958344_zpid/,33.6478,-112.102,2017-09-28,2017-09-28
448364,23512346,"8402 W Fairmount Ave, Phoenix, AZ 85037 ",85037,0.6447656154632568,170000,https://www.zillow.com/homedetails/8402-W-Fairmount-Ave-Phoenix-AZ-85037/7470144_zpid/,33.4902,-112.24,2017-10-10,2017-10-10
9020549,23756672,"18819 N 1st Ave, Phoenix, AZ 85027 ",85027,0.6445388257503509,235000,https://www.zillow.com/homedetails/18819-N-1st-Ave-Phoenix-AZ-85027/7972788_zpid/,33.6573,-112.074,2017-10-19,2017-10-19
395088,22745777,"7623 N 40th Dr, Phoenix, AZ 85051 ",85051,0.6444161653518676,179900,https://www.zillow.com/homedetails/7623-N-40th-Dr-Phoenix-AZ-85051/7757964_zpid/,33.5484,-112.145,2017-10-09,2017-10-09
11893,22712711,"3648 W Minnezona Ave, Phoenix, AZ 85019 ",85019,0.644340318441391,176850,https://www.zillow.com/homedetails/3648-W-Minnezona-Ave-Phoenix-AZ-85019/7506966_zpid/,33.5029,-112.13799999999999,2017-09-23,2017-09-23
221321,23756962,"9624 N 14th St, Phoenix, AZ 85020 ",85020,0.6442564725875854,175000,https://www.zillow.com/homedetails/9624-N-14th-St-Phoenix-AZ-85020/7786741_zpid/,33.5745,-112.053,2017-10-19,2017-10-19
236208,23512189,"2919 W Libby St, Phoenix, AZ 85053 ",85053,0.644221031665802,219000,https://www.zillow.com/homedetails/2919-W-Libby-St-Phoenix-AZ-85053/7940817_zpid/,33.6477,-112.12200000000001,2017-10-07,2017-10-07
449589,23796595,"8551 W Sheridan St, Phoenix, AZ 85037 ",85037,0.6441757380962372,220000,https://www.zillow.com/homedetails/8551-W-Sheridan-St-Phoenix-AZ-85037/7487376_zpid/,33.4745,-112.245,2017-10-23,2017-10-23
409830,22738588,"4543 W Lupine Ave, Glendale, AZ 85304 ",85304,0.6441685259342194,200000,https://www.zillow.com/homedetails/4543-W-Lupine-Ave-Glendale-AZ-85304/7727031_zpid/,33.59,-112.15700000000001,2017-10-04,2017-10-04
379528,22745656,"11438 N 30th Ave, Phoenix, AZ 85029 ",85029,0.6439644873142243,239900,https://www.zillow.com/homedetails/11438-N-30th-Ave-Phoenix-AZ-85029/7739912_zpid/,33.5907,-112.124,2017-10-10,2017-10-10
249194,22734090,"245 W Topeka Dr, Phoenix, AZ 85027 ",85027,0.6438089549541474,240000,https://www.zillow.com/homedetails/245-W-Topeka-Dr-Phoenix-AZ-85027/7968620_zpid/,33.6596,-112.07799999999999,2017-10-03,2017-10-03
409540,23803892,"4430 W Poinsettia Dr, Glendale, AZ 85304 ",85304,0.6431692123413086,214900,https://www.zillow.com/homedetails/4430-W-Poinsettia-Dr-Glendale-AZ-85304/7727257_zpid/,33.5933,-112.154,2017-10-24,2017-10-24
469895,23526992,"3401 W Tuckey Ln, Phoenix, AZ 85017 ",85017,0.6429516077041626,169000,https://www.zillow.com/homedetails/3401-W-Tuckey-Ln-Phoenix-AZ-85017/7760733_zpid/,33.5332,-112.132,2017-10-11,2017-10-11
1356029,23808897,"6742 N 54th Dr, Glendale, AZ 85301 ",85301,0.6428165256977081,155000,https://www.zillow.com/homedetails/6742-N-54th-Dr-Glendale-AZ-85301/67399667_zpid/,33.5366,-112.176,2017-10-26,2017-10-26
483971,22688771,"2734 N 73rd Gln, Phoenix, AZ 85035 ",85035,0.6427817344665527,209900,https://www.zillow.com/homedetails/2734-N-73rd-Gln-Phoenix-AZ-85035/95167972_zpid/,33.4783,-112.21799999999999,2017-09-18,2017-09-18
388525,23754065,"2330 W Columbine Dr, Phoenix, AZ 85029 ",85029,0.6425639092922211,219900,https://www.zillow.com/homedetails/2330-W-Columbine-Dr-Phoenix-AZ-85029/7738746_zpid/,33.5996,-112.109,2017-10-16,2017-10-16
394516,22731648,"7235 N 41st Dr, Phoenix, AZ 85051 ",85051,0.6424387216567993,189900,https://www.zillow.com/homedetails/7235-N-41st-Dr-Phoenix-AZ-85051/7756452_zpid/,33.5434,-112.148,2017-09-30,2017-09-30
224188,23754064,"14213 N 35th Dr, Phoenix, AZ 85053 ",85053,0.6424086809158325,200000,https://www.zillow.com/homedetails/14213-N-35th-Dr-Phoenix-AZ-85053/7944539_zpid/,33.6154,-112.135,2017-10-16,2017-10-16
9019388,22734487,"7202 W Merrell St, Phoenix, AZ 85033 ",85033,0.642333847284317,179900,https://www.zillow.com/homedetails/7202-W-Merrell-St-Phoenix-AZ-85033/7468506_zpid/,33.4817,-112.214,2017-10-03,2017-10-03
1857836,23512369,"8932 W Ironwood Dr, Peoria, AZ 85345 ",85345,0.6423095047473908,188000,https://www.zillow.com/homedetails/8932-W-Ironwood-Dr-Peoria-AZ-85345/7684236_zpid/,33.5746,-112.25200000000001,2017-10-09,2017-10-09
459463,22737652,"5657 W Roma Ave, Phoenix, AZ 85031 ",85031,0.6420738875865937,189900,https://www.zillow.com/homedetails/5657-W-Roma-Ave-Phoenix-AZ-85031/7712821_zpid/,33.4992,-112.182,2017-10-03,2017-10-03
431605,22717310,"6827 W Verde Ln, Phoenix, AZ 85033 ",85033,0.6420314490795136,175000,https://www.zillow.com/homedetails/6827-W-Verde-Ln-Phoenix-AZ-85033/7468675_zpid/,33.4808,-112.20700000000001,2017-09-21,2017-09-21
404602,23754895,"4309 W Windrose Dr, Glendale, AZ 85304 ",85304,0.6419250190258026,245800,https://www.zillow.com/homedetails/4309-W-Windrose-Dr-Glendale-AZ-85304/7954901_zpid/,33.6012,-112.152,2017-10-17,2017-10-17
9020909,23752409,"3770 E Pershing Ave, Phoenix, AZ 85032 ",85032,0.6418319940567017,215000,https://www.zillow.com/homedetails/3770-E-Pershing-Ave-Phoenix-AZ-85032/7814096_zpid/,33.6066,-112.0,2017-10-13,2017-10-13
394868,23527465,"3656 W Windrose Dr, Phoenix, AZ 85029 ",85029,0.6415288507938385,229900,https://www.zillow.com/homedetails/3656-W-Windrose-Dr-Phoenix-AZ-85029/7742970_zpid/,33.6016,-112.137,2017-10-12,2017-10-12
247778,23796681,"3436 W Acoma Dr, Phoenix, AZ 85053 ",85053,0.6413634777069092,234900,https://www.zillow.com/homedetails/3436-W-Acoma-Dr-Phoenix-AZ-85053/7943333_zpid/,33.6178,-112.133,2017-10-23,2017-10-23
394229,22745774,"7201 N 37th Ave, Phoenix, AZ 85051 ",85051,0.641332596540451,164900,https://www.zillow.com/homedetails/7201-N-37th-Ave-Phoenix-AZ-85051/7756316_zpid/,33.5423,-112.13799999999999,2017-10-09,2017-10-09
8989240,22742092,"7827 W Paradise Dr, Peoria, AZ 85345 ",85345,0.6412990152835846,229900,https://www.zillow.com/homedetails/7827-W-Paradise-Dr-Peoria-AZ-85345/7680374_zpid/,33.5944,-112.228,2017-10-05,2017-10-05
431225,23756305,"6723 W Earll Dr, Phoenix, AZ 85033 ",85033,0.6411577343940735,153900,https://www.zillow.com/homedetails/6723-W-Earll-Dr-Phoenix-AZ-85033/7468541_zpid/,33.4834,-112.204,2017-10-18,2017-10-18
341210,23752365,"1638 E Juniper Ave, Phoenix, AZ 85022 ",85022,0.6410937964916229,205000,https://www.zillow.com/homedetails/1638-E-Juniper-Ave-Phoenix-AZ-85022/8004988_zpid/,33.6392,-112.046,2017-10-14,2017-10-14
9015636,23527294,"7118 W Sells Dr, Phoenix, AZ 85033 ",85033,0.6409545361995697,184900,https://www.zillow.com/homedetails/7118-W-Sells-Dr-Phoenix-AZ-85033/88889219_zpid/,33.5022,-112.213,2017-10-11,2017-10-11
410621,22731417,"4855 W Mescal St, Glendale, AZ 85304 ",85304,0.6406788349151611,229000,https://www.zillow.com/homedetails/4855-W-Mescal-St-Glendale-AZ-85304/7728091_zpid/,33.5863,-112.164,2017-09-28,2017-09-28
522482,23809837,"9013 W Virginia Ave, Phoenix, AZ 85037 ",85037,0.6406669974327087,174900,https://www.zillow.com/homedetails/9013-W-Virginia-Ave-Phoenix-AZ-85037/7473884_zpid/,33.4743,-112.25399999999999,2017-10-26,2017-10-26
345778,23810944,"17441 N 20th St, Phoenix, AZ 85022 ",85022,0.6405352532863617,235000,https://www.zillow.com/homedetails/17441-N-20th-St-Phoenix-AZ-85022/8000666_zpid/,33.6457,-112.039,2017-10-27,2017-10-27
230933,22721279,"18608 N 17th Ave, Phoenix, AZ 85027 ",85027,0.6404313981533051,225000,https://www.zillow.com/homedetails/18608-N-17th-Ave-Phoenix-AZ-85027/7969674_zpid/,33.6552,-112.096,2017-09-25,2017-09-25
253952,23807134,"3839 W Caribbean Ln, Phoenix, AZ 85053 ",85053,0.6403068363666534,209900,https://www.zillow.com/homedetails/3839-W-Caribbean-Ln-Phoenix-AZ-85053/7944076_zpid/,33.6241,-112.141,2017-10-20,2017-10-20
312244,23755169,"1432 S 10th Ave, Phoenix, AZ 85007 ",85007,0.6401021003723144,169900,https://www.zillow.com/homedetails/1432-S-10th-Ave-Phoenix-AZ-85007/82818911_zpid/,33.4338,-112.086,2017-10-16,2017-10-16
388115,22734840,"3814 W Davidson Ln, Phoenix, AZ 85051 ",85051,0.6399266839027404,195000,https://www.zillow.com/homedetails/3814-W-Davidson-Ln-Phoenix-AZ-85051/7746767_zpid/,33.5701,-112.141,2017-10-03,2017-10-03
835193,22740118,"3633 W Mariposa St, Phoenix, AZ 85019 ",85019,0.6397099971771241,180000,https://www.zillow.com/homedetails/3633-W-Mariposa-St-Phoenix-AZ-85019/7506850_zpid/,33.5075,-112.13799999999999,2017-10-05,2017-10-05
244569,22730415,"1941 W Angela Dr, Phoenix, AZ 85023 ",85023,0.6396317064762116,215000,https://www.zillow.com/homedetails/1941-W-Angela-Dr-Phoenix-AZ-85023/7958404_zpid/,33.6457,-112.102,2017-09-30,2017-09-30
8987452,23806670,"13360 N 79th Ave, Peoria, AZ 85381 ",85381,0.6396085321903229,219000,https://www.zillow.com/homedetails/13360-N-79th-Ave-Peoria-AZ-85381/8100973_zpid/,33.6063,-112.229,2017-10-25,2017-10-25
417006,23760073,"4643 W Golden Ln, Glendale, AZ 85302 ",85302,0.63952796459198,237000,https://www.zillow.com/homedetails/4643-W-Golden-Ln-Glendale-AZ-85302/7731339_zpid/,33.5646,-112.16,2017-10-20,2017-10-20
9021757,23800773,"9008 W Charleston Ave, Peoria, AZ 85382 ",85382,0.6392407834529876,249900,https://www.zillow.com/homedetails/9008-W-Charleston-Ave-Peoria-AZ-85382/8105059_zpid/,33.6467,-112.25299999999999,2017-10-22,2017-10-22
527735,23797438,"9507 W Monte Vista Rd, Phoenix, AZ 85037 ",85037,0.6391636013984681,214900,https://www.zillow.com/homedetails/9507-W-Monte-Vista-Rd-Phoenix-AZ-85037/60974973_zpid/,33.4697,-112.265,2017-10-24,2017-10-24
391100,23759026,"3110 W Willow Ave, Phoenix, AZ 85029 ",85029,0.6388928472995759,199000,https://www.zillow.com/homedetails/3110-W-Willow-Ave-Phoenix-AZ-85029/7745069_zpid/,33.6072,-112.126,2017-10-20,2017-10-20
9019062,22730923,"6418 W Hazelwood St, Phoenix, AZ 85033 ",85033,0.6388577461242676,200000,https://www.zillow.com/homedetails/6418-W-Hazelwood-St-Phoenix-AZ-85033/7712311_zpid/,33.5053,-112.198,2017-09-29,2017-09-29
486236,22747377,"4809 W Monte Vista Rd, Phoenix, AZ 85035 ",85035,0.6386260271072388,172900,https://www.zillow.com/homedetails/4809-W-Monte-Vista-Rd-Phoenix-AZ-85035/87791786_zpid/,33.4713,-112.163,2017-10-10,2017-10-10
414806,22647037,"6601 W Poinsettia Dr, Glendale, AZ 85304 ",85304,0.6385942220687866,195000,https://www.zillow.com/homedetails/6601-W-Poinsettia-Dr-Glendale-AZ-85304/7699545_zpid/,33.5934,-112.20100000000001,2017-09-09,2017-09-09
392666,23759961,"4208 W El Camino Dr, Phoenix, AZ 85051 ",85051,0.638461422920227,215000,https://www.zillow.com/homedetails/4208-W-El-Camino-Dr-Phoenix-AZ-85051/7752812_zpid/,33.5573,-112.15,2017-10-21,2017-10-21
391123,23564599,"3113 W Shangri La Rd, Phoenix, AZ 85029 ",85029,0.6383268177509308,220000,https://www.zillow.com/homedetails/3113-W-Shangri-La-Rd-Phoenix-AZ-85029/7740593_zpid/,33.588,-112.126,2017-10-13,2017-10-13
411351,23808882,"5194 W Paradise Dr, Glendale, AZ 85304 ",85304,0.6382667243480682,219900,https://www.zillow.com/homedetails/5194-W-Paradise-Dr-Glendale-AZ-85304/60978690_zpid/,33.5953,-112.171,2017-10-26,2017-10-26
387437,22731343,"3737 W Ruth Ave, Phoenix, AZ 85051 ",85051,0.638230711221695,168900,https://www.zillow.com/homedetails/3737-W-Ruth-Ave-Phoenix-AZ-85051/7752421_zpid/,33.5623,-112.141,2017-09-28,2017-09-28
9020435,22875945,"3838 W Carol Ave, Phoenix, AZ 85051 ",85051,0.6382271468639373,219990,https://www.zillow.com/homedetails/3838-W-Carol-Ave-Phoenix-AZ-85051/7746969_zpid/,33.5731,-112.14200000000001,2017-10-10,2017-10-10
8977947,23799668,"5619 W Mariposa St, Phoenix, AZ 85031 ",85031,0.6381109952926636,199900,https://www.zillow.com/homedetails/5619-W-Mariposa-St-Phoenix-AZ-85031/7713521_zpid/,33.5077,-112.18,2017-10-13,2017-10-13
223069,23526873,"13828 N 41st Ave, Phoenix, AZ 85053 ",85053,0.6377069413661957,243000,https://www.zillow.com/homedetails/13828-N-41st-Ave-Phoenix-AZ-85053/7945205_zpid/,33.6119,-112.147,2017-10-11,2017-10-11
828523,23754070,"3544 W Maryland Ave, Phoenix, AZ 85019 ",85019,0.6376358151435852,176000,https://www.zillow.com/homedetails/3544-W-Maryland-Ave-Phoenix-AZ-85019/7761656_zpid/,33.5312,-112.13600000000001,2017-10-16,2017-10-16
395310,23807125,"3734 W Sierra St, Phoenix, AZ 85029 ",85029,0.6374118149280548,219000,https://www.zillow.com/homedetails/3734-W-Sierra-St-Phoenix-AZ-85029/7743992_zpid/,33.5908,-112.14,2017-10-24,2017-10-24
335012,23755713,"13046 N 18th St, Phoenix, AZ 85022 ",85022,0.6373761415481567,130000,https://www.zillow.com/homedetails/13046-N-18th-St-Phoenix-AZ-85022/7815914_zpid/,33.6058,-112.044,2017-10-18,2017-10-18
334383,22732912,"12827 N 22nd Pl, Phoenix, AZ 85022 ",85022,0.6372447609901428,218000,https://www.zillow.com/homedetails/12827-N-22nd-Pl-Phoenix-AZ-85022/7815663_zpid/,33.6034,-112.03299999999999,2017-10-01,2017-10-01
328241,23527207,"2138 W Thomas Rd, Phoenix, AZ 85015 ",85015,0.6368273138999939,235000,https://www.zillow.com/homedetails/2138-W-Thomas-Rd-Phoenix-AZ-85015/7518981_zpid/,33.481,-112.10600000000001,2017-10-11,2017-10-11
9019302,22733399,"4718 W Nicolet Ave, Glendale, AZ 85301 ",85301,0.6368227541446686,169000,https://www.zillow.com/homedetails/4718-W-Nicolet-Ave-Glendale-AZ-85301/7725715_zpid/,33.5429,-112.161,2017-10-02,2017-10-02
9008452,23753560,"6758 W Vogel Ave, Peoria, AZ 85345 ",85345,0.6363897502422333,169900,https://www.zillow.com/homedetails/6758-W-Vogel-Ave-Peoria-AZ-85345/7702576_zpid/,33.5724,-112.205,2017-10-16,2017-10-16
237449,23526633,"1633 W Michigan Ave, Phoenix, AZ 85023 ",85023,0.6363193929195404,209900,https://www.zillow.com/homedetails/1633-W-Michigan-Ave-Phoenix-AZ-85023/7957245_zpid/,33.6508,-112.095,2017-10-09,2017-10-09
9019191,23648849,"10602 N 80th Ln, Peoria, AZ 85345 ",85345,0.6361938357353211,190000,https://www.zillow.com/homedetails/10602-N-80th-Ln-Peoria-AZ-85345/7681416_zpid/,33.5814,-112.23200000000001,2017-10-12,2017-10-12
234821,23757764,"2808 W Charleston Ave, Phoenix, AZ 85053 ",85053,0.635965210199356,219900,https://www.zillow.com/homedetails/2808-W-Charleston-Ave-Phoenix-AZ-85053/7940927_zpid/,33.6492,-112.12,2017-10-19,2017-10-19
1344284,22924285,"4622 W Palmaire Ave, Glendale, AZ 85301 ",85301,0.6358842313289642,200000,https://www.zillow.com/homedetails/4622-W-Palmaire-Ave-Glendale-AZ-85301/7725531_zpid/,33.5407,-112.15899999999999,2017-10-07,2017-10-07
497370,23755248,"6740 W Encanto Blvd, Phoenix, AZ 85035 ",85035,0.6357284188270569,195000,https://www.zillow.com/homedetails/6740-W-Encanto-Blvd-Phoenix-AZ-85035/7475724_zpid/,33.4737,-112.205,2017-10-17,2017-10-17
403204,22738450,"12401 N 47th Dr, Glendale, AZ 85304 ",85304,0.6357253551483154,234900,https://www.zillow.com/homedetails/12401-N-47th-Dr-Glendale-AZ-85304/7954440_zpid/,33.5982,-112.161,2017-09-26,2017-09-26
466810,23754081,"3038 W Tuckey Ln, Phoenix, AZ 85017 ",85017,0.6356784284114838,170000,https://www.zillow.com/homedetails/3038-W-Tuckey-Ln-Phoenix-AZ-85017/7759492_zpid/,33.5334,-112.125,2017-10-16,2017-10-16
390477,22731348,"3018 W Lupine Ave, Phoenix, AZ 85029 ",85029,0.6356472790241241,245000,https://www.zillow.com/homedetails/3018-W-Lupine-Ave-Phoenix-AZ-85029/7739937_zpid/,33.5913,-112.124,2017-09-28,2017-09-28
1417614,22742595,"7737 W Rancho Dr, Glendale, AZ 85303 ",85303,0.6346030473709107,190000,https://www.zillow.com/homedetails/7737-W-Rancho-Dr-Glendale-AZ-85303/7463369_zpid/,33.5214,-112.227,2017-09-15,2017-09-15
8996166,22690979,"8901 W Malapai Dr, Peoria, AZ 85345 ",85345,0.634574693441391,195000,https://www.zillow.com/homedetails/8901-W-Malapai-Dr-Peoria-AZ-85345/7684242_zpid/,33.5749,-112.251,2017-09-18,2017-09-18
629600,23810385,"1646 W Pecos Ave, Mesa, AZ 85202 ",85202,0.6344562530517578,214900,https://www.zillow.com/homedetails/1646-W-Pecos-Ave-Mesa-AZ-85202/8191480_zpid/,33.3602,-111.87,2017-10-27,2017-10-27
435285,23650449,"7821 W Cheery Lynn Rd, Phoenix, AZ 85033 ",85033,0.6342258512973785,175000,https://www.zillow.com/homedetails/7821-W-Cheery-Lynn-Rd-Phoenix-AZ-85033/7469425_zpid/,33.4823,-112.226,2017-10-14,2017-10-14
11900,22731607,"3801 W Coolidge St, Phoenix, AZ 85019 ",85019,0.6339441001415252,175900,https://www.zillow.com/homedetails/3801-W-Coolidge-St-Phoenix-AZ-85019/7507100_zpid/,33.5048,-112.141,2017-09-29,2017-09-29
1349810,22742498,"5709 N 45th Dr, Glendale, AZ 85301 ",85301,0.633934760093689,177000,https://www.zillow.com/homedetails/5709-N-45th-Dr-Glendale-AZ-85301/7718077_zpid/,33.5209,-112.156,2017-09-26,2017-09-26
655,23759939,"2207 W Marlette Ave, Phoenix, AZ 85015 ",85015,0.6338419258594513,170000,https://www.zillow.com/homedetails/2207-W-Marlette-Ave-Phoenix-AZ-85015/7773096_zpid/,33.5291,-112.10700000000001,2017-10-20,2017-10-20
221325,22745716,"9625 N 2nd St, Phoenix, AZ 85020 ",85020,0.6337747216224671,175000,https://www.zillow.com/homedetails/9625-N-2nd-St-Phoenix-AZ-85020/7788559_zpid/,33.5743,-112.072,2017-10-09,2017-10-09
352186,23759913,"2024 E Danbury Rd, Phoenix, AZ 85022 ",85022,0.6337051391601562,242000,https://www.zillow.com/homedetails/2024-E-Danbury-Rd-Phoenix-AZ-85022/8000757_zpid/,33.6429,-112.039,2017-10-21,2017-10-21
359261,23797163,"2001 S 83rd Dr, Tolleson, AZ 85353 ",85353,0.6336323738098144,232500,https://www.zillow.com/homedetails/2001-S-83rd-Dr-Tolleson-AZ-85353/59271305_zpid/,33.4295,-112.23899999999999,2017-10-24,2017-10-24
501356,23806411,"7762 W Pipestone Pl, Phoenix, AZ 85035 ",85035,0.6335833549499512,185000,https://www.zillow.com/homedetails/7762-W-Pipestone-Pl-Phoenix-AZ-85035/95118267_zpid/,33.4726,-112.226,2017-10-25,2017-10-25
9022216,23813716,"8333 W Watkins St, Tolleson, AZ 85353 ",85353,0.6334786653518677,194900,https://www.zillow.com/homedetails/8333-W-Watkins-St-Tolleson-AZ-85353/54886336_zpid/,33.4265,-112.24,2017-10-28,2017-10-28
390304,23759037,"3005 W Sierra St, Phoenix, AZ 85029 ",85029,0.6334586918354035,195000,https://www.zillow.com/homedetails/3005-W-Sierra-St-Phoenix-AZ-85029/7739931_zpid/,33.5915,-112.124,2017-10-20,2017-10-20
9018492,23649027,"8938 W Vogel Ave, Peoria, AZ 85345 ",85345,0.6334301888942718,195000,https://www.zillow.com/homedetails/8938-W-Vogel-Ave-Peoria-AZ-85345/7696649_zpid/,33.5716,-112.25200000000001,2017-10-13,2017-10-13
476523,23755651,"3215 N 53rd Dr, Phoenix, AZ 85031 ",85031,0.6331048369407654,179000,https://www.zillow.com/homedetails/3215-N-53rd-Dr-Phoenix-AZ-85031/7497049_zpid/,33.4867,-112.17299999999999,2017-10-18,2017-10-18
833557,23560179,"5747 N 38th Dr, Phoenix, AZ 85019 ",85019,0.632838249206543,198900,https://www.zillow.com/homedetails/5747-N-38th-Dr-Phoenix-AZ-85019/7719106_zpid/,33.5221,-112.141,2017-10-13,2017-10-13
1413226,22747483,"7301 W Cavalier Dr, Glendale, AZ 85303 ",85303,0.6327540814876557,179900,https://www.zillow.com/homedetails/7301-W-Cavalier-Dr-Glendale-AZ-85303/7707198_zpid/,33.5243,-112.21600000000001,2017-10-10,2017-10-10
1116724,23760117,"1813 N Apache Dr, Chandler, AZ 85224 ",85224,0.632624751329422,245000,https://www.zillow.com/homedetails/1813-N-Apache-Dr-Chandler-AZ-85224/8193675_zpid/,33.3327,-111.861,2017-10-21,2017-10-21
395402,23803558,"3741 W Poinsettia Dr, Phoenix, AZ 85029 ",85029,0.6326159238815308,230000,https://www.zillow.com/homedetails/3741-W-Poinsettia-Dr-Phoenix-AZ-85029/7743913_zpid/,33.5926,-112.14,2017-10-23,2017-10-23
227536,22735776,"15219 N 37th Ave, Phoenix, AZ 85053 ",85053,0.6325955808162689,219000,https://www.zillow.com/homedetails/15219-N-37th-Ave-Phoenix-AZ-85053/7944373_zpid/,33.6242,-112.137,2017-09-22,2017-09-22
436015,23756332,"8010 W Earll Dr, Phoenix, AZ 85033 ",85033,0.6324833333492279,178500,https://www.zillow.com/homedetails/8010-W-Earll-Dr-Phoenix-AZ-85033/7479344_zpid/,33.4842,-112.23100000000001,2017-10-18,2017-10-18
421065,23757012,"6035 W Manzanita Dr, Glendale, AZ 85302 ",85302,0.6324552118778228,195000,https://www.zillow.com/homedetails/6035-W-Manzanita-Dr-Glendale-AZ-85302/7704242_zpid/,33.5558,-112.19,2017-10-19,2017-10-19
629569,23810381,"1645 W Peralta Ave, Mesa, AZ 85202 ",85202,0.6323597848415374,229900,https://www.zillow.com/homedetails/1645-W-Peralta-Ave-Mesa-AZ-85202/8191627_zpid/,33.3572,-111.87,2017-10-27,2017-10-27
9001917,22709962,"17665 N 36th St, Phoenix, AZ 85032 ",85032,0.6318652093410492,228000,https://www.zillow.com/homedetails/17665-N-36th-St-Phoenix-AZ-85032/7998322_zpid/,33.6472,-112.00200000000001,2017-09-22,2017-09-22
457960,23512295,"5355 W Earll Dr, Phoenix, AZ 85031 ",85031,0.6317867994308471,179900,https://www.zillow.com/homedetails/5355-W-Earll-Dr-Phoenix-AZ-85031/7496878_zpid/,33.4846,-112.175,2017-10-10,2017-10-10
696770,23756750,"2922 W Granada Rd, Phoenix, AZ 85009 ",85009,0.6317537307739258,215000,https://www.zillow.com/homedetails/2922-W-Granada-Rd-Phoenix-AZ-85009/81980880_zpid/,33.4689,-112.12200000000001,2017-10-17,2017-10-17
1343054,23755792,"4515 W Bryce Ln, Glendale, AZ 85301 ",85301,0.6316042244434357,219500,https://www.zillow.com/homedetails/4515-W-Bryce-Ln-Glendale-AZ-85301/7725079_zpid/,33.5499,-112.15700000000001,2017-10-18,2017-10-18
1347449,22745803,"5026 W Morten Ave, Glendale, AZ 85301 ",85301,0.6310243546962738,240000,https://www.zillow.com/homedetails/5026-W-Morten-Ave-Glendale-AZ-85301/7724863_zpid/,33.5472,-112.167,2017-10-08,2017-10-08
411159,23760075,"5131 W Corrine Dr, Glendale, AZ 85304 ",85304,0.6309557855129242,238900,https://www.zillow.com/homedetails/5131-W-Corrine-Dr-Glendale-AZ-85304/7911511_zpid/,33.6005,-112.171,2017-10-21,2017-10-21
424902,22708254,"9726 N 55th Dr, Glendale, AZ 85302 ",85302,0.6308212578296661,205500,https://www.zillow.com/homedetails/9726-N-55th-Dr-Glendale-AZ-85302/7734870_zpid/,33.5745,-112.178,2017-09-21,2017-09-21
9020887,23650464,"6702 W Roma Ave, Phoenix, AZ 85033 ",85033,0.6304923176765442,175000,https://www.zillow.com/homedetails/6702-W-Roma-Ave-Phoenix-AZ-85033/7717096_zpid/,33.5019,-112.204,2017-10-12,2017-10-12
1342305,22747361,"4413 W Maryland Ave, Glendale, AZ 85301 ",85301,0.630483078956604,234500,https://www.zillow.com/homedetails/4413-W-Maryland-Ave-Glendale-AZ-85301/7724234_zpid/,33.5309,-112.154,2017-10-06,2017-10-06
465148,23560191,"2926 W Marlette Ave, Phoenix, AZ 85017 ",85017,0.6299041271209717,169900,https://www.zillow.com/homedetails/2926-W-Marlette-Ave-Phoenix-AZ-85017/7761088_zpid/,33.5293,-112.12299999999999,2017-10-12,2017-10-12
340682,23754867,"7214 N 22nd Dr, Phoenix, AZ 85021 ",85021,0.6298172831535339,219900,https://www.zillow.com/homedetails/7214-N-22nd-Dr-Phoenix-AZ-85021/7778844_zpid/,33.5428,-112.10700000000001,2017-10-17,2017-10-17
404139,23796915,"16257 N 63rd Dr, Glendale, AZ 85306 ",85306,0.6296204090118408,224900,https://www.zillow.com/homedetails/16257-N-63rd-Dr-Glendale-AZ-85306/7902050_zpid/,33.6345,-112.195,2017-10-23,2017-10-23
7415543,23760080,"5627 W Mission Ln, Glendale, AZ 85302 ",85302,0.6294623076915741,223900,https://www.zillow.com/homedetails/5627-W-Mission-Ln-Glendale-AZ-85302/7734682_zpid/,33.569,-112.18,2017-10-20,2017-10-20
329461,22734607,"2426 W Rose Ln, Phoenix, AZ 85015 ",85015,0.6291471719741821,219900,https://www.zillow.com/homedetails/2426-W-Rose-Ln-Phoenix-AZ-85015/7772682_zpid/,33.5279,-112.111,2017-10-03,2017-10-03
387030,22724922,"2114 W Sunnyside Dr, Phoenix, AZ 85029 ",85029,0.6289346933364868,176900,https://www.zillow.com/homedetails/2114-W-Sunnyside-Dr-Phoenix-AZ-85029/7748813_zpid/,33.5934,-112.104,2017-09-27,2017-09-27
9019581,23796917,"18428 N 55th Dr, Glendale, AZ 85308 ",85308,0.628745049238205,199995,https://www.zillow.com/homedetails/18428-N-55th-Dr-Glendale-AZ-85308/7901123_zpid/,33.6531,-112.178,2017-10-23,2017-10-23
415521,23809993,"10301 N 65th Dr, Glendale, AZ 85302 ",85302,0.6286354839801789,155250,https://www.zillow.com/homedetails/10301-N-65th-Dr-Glendale-AZ-85302/7706446_zpid/,33.5798,-112.199,2017-10-27,2017-10-27
379541,23756102,"11439 N 33rd Ave, Phoenix, AZ 85029 ",85029,0.6283225834369659,217400,https://www.zillow.com/homedetails/11439-N-33rd-Ave-Phoenix-AZ-85029/7749169_zpid/,33.5913,-112.13,2017-10-18,2017-10-18
337793,22745680,"2343 W Diana Ave, Phoenix, AZ 85021 ",85021,0.6280415058135986,225000,https://www.zillow.com/homedetails/2343-W-Diana-Ave-Phoenix-AZ-85021/7782287_zpid/,33.563,-112.11,2017-10-09,2017-10-09
645527,23807613,"708 W Emelita Ave, Mesa, AZ 85210 ",85210,0.6280180275440216,195000,https://www.zillow.com/homedetails/708-W-Emelita-Ave-Mesa-AZ-85210/7598409_zpid/,33.3985,-111.84700000000001,2017-10-25,2017-10-25
410753,23759090,"4934 W Becker Ln, Glendale, AZ 85304 ",85304,0.6276221930980682,238500,https://www.zillow.com/homedetails/4934-W-Becker-Ln-Glendale-AZ-85304/67083499_zpid/,33.5826,-112.166,2017-10-20,2017-10-20
391605,23759518,"4120 W Ironwood Dr, Phoenix, AZ 85051 ",85051,0.6273014008998871,245000,https://www.zillow.com/homedetails/4120-W-Ironwood-Dr-Phoenix-AZ-85051/7746405_zpid/,33.5754,-112.147,2017-10-21,2017-10-21
23522,23512121,"1903 W 2nd St, Mesa, AZ 85201 ",85201,0.6272792816162109,174900,https://www.zillow.com/homedetails/1903-W-2nd-St-Mesa-AZ-85201/7612268_zpid/,33.4195,-111.87299999999999,2017-10-08,2017-10-08
434848,23811348,"2008 N 89th Dr, Phoenix, AZ 85037 ",85037,0.6270709216594696,170000,https://www.zillow.com/homedetails/2008-N-89th-Dr-Phoenix-AZ-85037/7486878_zpid/,33.469,-112.25200000000001,2017-10-27,2017-10-27
9021526,23759618,"7008 W Cesar St, Peoria, AZ 85345 ",85345,0.6268685340881348,167900,https://www.zillow.com/homedetails/7008-W-Cesar-St-Peoria-AZ-85345/67401351_zpid/,33.5823,-112.21,2017-10-20,2017-10-20
9021586,23760291,"8142 W Sweetwater Ave, Peoria, AZ 85381 ",85381,0.6262034833431244,245000,https://www.zillow.com/homedetails/8142-W-Sweetwater-Ave-Peoria-AZ-85381/7913307_zpid/,33.6028,-112.235,2017-10-21,2017-10-21
9022016,23810119,"14459 N 87th Ave, Peoria, AZ 85381 ",85381,0.6260930180549622,195000,https://www.zillow.com/homedetails/14459-N-87th-Ave-Peoria-AZ-85381/8103136_zpid/,33.6164,-112.24799999999999,2017-10-26,2017-10-26
388893,23756003,"2420 W Willow Ave, Phoenix, AZ 85029 ",85029,0.6260864019393921,179900,https://www.zillow.com/homedetails/2420-W-Willow-Ave-Phoenix-AZ-85029/7738239_zpid/,33.6079,-112.111,2017-10-18,2017-10-18
17178,22720130,"14813 N 35th St, Phoenix, AZ 85032 ",85032,0.6260367572307587,204900,https://www.zillow.com/homedetails/14813-N-35th-St-Phoenix-AZ-85032/8014278_zpid/,33.6214,-112.006,2017-09-25,2017-09-25
9022109,23811012,"13037 N 56th Ave, Glendale, AZ 85304 ",85304,0.6258687257766724,214900,https://www.zillow.com/homedetails/13037-N-56th-Ave-Glendale-AZ-85304/7896749_zpid/,33.6024,-112.177,2017-10-27,2017-10-27
455588,22692566,"4730 W Mitchell Dr, Phoenix, AZ 85031 ",85031,0.6258197367191315,180000,https://www.zillow.com/homedetails/4730-W-Mitchell-Dr-Phoenix-AZ-85031/7508638_zpid/,33.4897,-112.162,2017-09-19,2017-09-19
397540,23756961,"4046 W Desert Cove Ave, Phoenix, AZ 85029 ",85029,0.6256604492664337,227500,https://www.zillow.com/homedetails/4046-W-Desert-Cove-Ave-Phoenix-AZ-85029/7744742_zpid/,33.5857,-112.146,2017-10-19,2017-10-19
460174,22712498,"5801 W Clarendon Ave, Phoenix, AZ 85031 ",85031,0.6255724549293518,175000,https://www.zillow.com/homedetails/5801-W-Clarendon-Ave-Phoenix-AZ-85031/7496859_zpid/,33.4913,-112.185,2017-09-23,2017-09-23
9021871,23807926,"12120 N 89th Dr, Peoria, AZ 85345 ",85345,0.6254676163196564,249900,https://www.zillow.com/homedetails/12120-N-89th-Dr-Peoria-AZ-85345/7685583_zpid/,33.5947,-112.25200000000001,2017-10-25,2017-10-25
449920,23756347,"8630 W Osborn Rd, Phoenix, AZ 85037 ",85037,0.6254369616508484,195000,https://www.zillow.com/homedetails/8630-W-Osborn-Rd-Phoenix-AZ-85037/7469964_zpid/,33.4873,-112.245,2017-10-14,2017-10-14
415049,23811004,"10006 N 66th Ave, Glendale, AZ 85302 ",85302,0.6254155099391937,199900,https://www.zillow.com/homedetails/10006-N-66th-Ave-Glendale-AZ-85302/7706542_zpid/,33.5765,-112.20100000000001,2017-10-27,2017-10-27
237433,23754381,"2957 W Michelle Dr, Phoenix, AZ 85053 ",85053,0.6253643691539764,230000,https://www.zillow.com/homedetails/2957-W-Michelle-Dr-Phoenix-AZ-85053/7940747_zpid/,33.6492,-112.124,2017-10-16,2017-10-16
409622,23754067,"4447 W Mercer Ln, Glendale, AZ 85304 ",85304,0.6252406716346741,229000,https://www.zillow.com/homedetails/4447-W-Mercer-Ln-Glendale-AZ-85304/7727953_zpid/,33.5852,-112.156,2017-10-16,2017-10-16
209311,23681046,"3420 E Cambridge Ave, Phoenix, AZ 85008 ",85008,0.6247729003429413,200000,http://www.zillow.com/homedetails/3420-E-Cambridge-Ave-Phoenix-AZ-85008/81975682_zpid,33.478,-112.008,2017-10-06,2017-10-06
384997,23756951,"1516 W Surrey Ave, Phoenix, AZ 85029 ",85029,0.6247178792953492,229000,https://www.zillow.com/homedetails/1516-W-Surrey-Ave-Phoenix-AZ-85029/7784343_zpid/,33.6053,-112.09200000000001,2017-10-19,2017-10-19
149903,23800141,"8309 E Indian School Rd, Scottsdale, AZ 85251 ",85251,0.6246881067752839,239850,https://www.zillow.com/homedetails/8309-E-Indian-School-Rd-Scottsdale-AZ-85251/7577019_zpid/,33.4948,-111.902,2017-10-15,2017-10-15
485536,22747620,"4501 W Granada Rd, Phoenix, AZ 85035 ",85035,0.6246272027492523,160000,https://www.zillow.com/homedetails/4501-W-Granada-Rd-Phoenix-AZ-85035/7494981_zpid/,33.468,-112.156,2017-10-10,2017-10-10
1406073,22738291,"6732 W Medlock Dr, Glendale, AZ 85303 ",85303,0.6242904186248779,190000,https://www.zillow.com/homedetails/6732-W-Medlock-Dr-Glendale-AZ-85303/7709112_zpid/,33.5116,-112.205,2017-09-26,2017-09-26
390740,23814265,"3037 W Charter Oak Rd, Phoenix, AZ 85029 ",85029,0.6240584850311279,207000,https://www.zillow.com/homedetails/3037-W-Charter-Oak-Rd-Phoenix-AZ-85029/7747216_zpid/,33.5977,-112.124,2017-10-28,2017-10-28
329444,22745740,"2423 W San Miguel Ave, Phoenix, AZ 85015 ",85015,0.623892080783844,178800,https://www.zillow.com/homedetails/2423-W-San-Miguel-Ave-Phoenix-AZ-85015/7763696_zpid/,33.5193,-112.11200000000001,2017-10-06,2017-10-06
8992548,23569558,"4746 W Nicolet Ave, Glendale, AZ 85301 ",85301,0.623816841840744,157900,https://www.zillow.com/homedetails/4746-W-Nicolet-Ave-Glendale-AZ-85301/7725721_zpid/,33.5426,-112.162,2017-10-13,2017-10-13
386606,23810930,"3661 W Alice Ave, Phoenix, AZ 85051 ",85051,0.6238014876842499,175000,https://www.zillow.com/homedetails/3661-W-Alice-Ave-Phoenix-AZ-85051/7753529_zpid/,33.5637,-112.139,2017-10-27,2017-10-27
349598,23800467,"18407 N 16th Pl, Phoenix, AZ 85022 ",85022,0.6237992405891418,240000,https://www.zillow.com/homedetails/18407-N-16th-Pl-Phoenix-AZ-85022/8001275_zpid/,33.6534,-112.04700000000001,2017-10-24,2017-10-24
204483,23315822,"1905 E Orange Dr, Phoenix, AZ 85016 ",85016,0.6236622095108032,177000,http://www.zillow.com/homedetails/1905-E-Orange-Dr-Phoenix-AZ-85016/7809437_zpid/,33.512,-112.041,2017-10-01,2017-10-01
384656,23801697,"13642 N 31st Dr, Phoenix, AZ 85029 ",85029,0.6235528469085694,239900,https://www.zillow.com/homedetails/13642-N-31st-Dr-Phoenix-AZ-85029/7747907_zpid/,33.6105,-112.126,2017-10-24,2017-10-24
1348518,22734700,"5413 W Myrtle Ave, Glendale, AZ 85301 ",85301,0.6235485672950745,166900,https://www.zillow.com/homedetails/5413-W-Myrtle-Ave-Glendale-AZ-85301/7726061_zpid/,33.5421,-112.175,2017-10-03,2017-10-03
9012334,23756198,"2848 E Michael Dr, Phoenix, AZ 85032 ",85032,0.6231334209442139,169000,https://www.zillow.com/homedetails/2848-E-Michael-Dr-Phoenix-AZ-85032/8011637_zpid/,33.6254,-112.02,2017-10-16,2017-10-16
457450,22737336,"5032 W Fairmount Ave, Phoenix, AZ 85031 ",85031,0.6230806529521942,199000,https://www.zillow.com/homedetails/5032-W-Fairmount-Ave-Phoenix-AZ-85031/7508890_zpid/,33.493,-112.169,2017-09-25,2017-09-25
327085,23650412,"1944 W Flower St, Phoenix, AZ 85015 ",85015,0.6230071127414704,229900,https://www.zillow.com/homedetails/1944-W-Flower-St-Phoenix-AZ-85015/7517841_zpid/,33.486,-112.102,2017-10-14,2017-10-14
9020280,23754857,"2106 W Cactus Wren Dr, Phoenix, AZ 85021 ",85021,0.622530460357666,223500,https://www.zillow.com/homedetails/2106-W-Cactus-Wren-Dr-Phoenix-AZ-85021/7778987_zpid/,33.5396,-112.104,2017-10-17,2017-10-17
392024,23756985,"4134 W Linger Ln, Phoenix, AZ 85051 ",85051,0.6224762022495269,235000,https://www.zillow.com/homedetails/4134-W-Linger-Ln-Phoenix-AZ-85051/7755387_zpid/,33.5528,-112.148,2017-10-19,2017-10-19
248267,23806254,"2180 W Scully Dr, Phoenix, AZ 85023 ",85023,0.6224378168582916,192500,https://www.zillow.com/homedetails/2180-W-Scully-Dr-Phoenix-AZ-85023/95188089_zpid/,33.6333,-112.10700000000001,2017-10-25,2017-10-25
8954944,23798695,"2414 E Dahlia Dr, Phoenix, AZ 85032 ",85032,0.6222703754901886,232000,https://www.zillow.com/homedetails/2414-E-Dahlia-Dr-Phoenix-AZ-85032/7820475_zpid/,33.6034,-112.03,2017-10-19,2017-10-19
466583,23359711,"3023 W Rose Ln, Phoenix, AZ 85017 ",85017,0.6222104132175446,109500,http://www.zillow.com/homedetails/3023-W-Rose-Ln-Phoenix-AZ-85017/7759999_zpid,33.5274,-112.124,2017-09-07,2017-09-07
326659,22740088,"1824 W Stella Ln, Phoenix, AZ 85015 ",85015,0.6220629215240479,238900,https://www.zillow.com/homedetails/1824-W-Stella-Ln-Phoenix-AZ-85015/7774085_zpid/,33.5301,-112.098,2017-10-05,2017-10-05
359302,23814410,"2021 S 83rd Dr, Tolleson, AZ 85353 ",85353,0.6219142019748688,197900,https://www.zillow.com/homedetails/2021-S-83rd-Dr-Tolleson-AZ-85353/59271300_zpid/,33.4288,-112.23899999999999,2017-10-29,2017-10-29
388766,22745700,"3835 W Ruth Ave, Phoenix, AZ 85051 ",85051,0.6218114018440246,162500,https://www.zillow.com/homedetails/3835-W-Ruth-Ave-Phoenix-AZ-85051/7752429_zpid/,33.5625,-112.14200000000001,2017-10-08,2017-10-08
9017813,23796273,"18629 N 5th Ave, Phoenix, AZ 85027 ",85027,0.621730899810791,185500,https://www.zillow.com/homedetails/18629-N-5th-Ave-Phoenix-AZ-85027/2092597506_zpid/,33.6559,-112.08,2017-10-23,2017-10-23
526527,23806419,"9409 W Berkeley Rd, Phoenix, AZ 85037 ",85037,0.621693754196167,234000,https://www.zillow.com/homedetails/9409-W-Berkeley-Rd-Phoenix-AZ-85037/60047081_zpid/,33.4677,-112.262,2017-10-25,2017-10-25
337806,23759021,"2344 W Seldon Ln, Phoenix, AZ 85021 ",85021,0.6215555131435394,184500,https://www.zillow.com/homedetails/2344-W-Seldon-Ln-Phoenix-AZ-85021/7782369_zpid/,33.5613,-112.11,2017-10-20,2017-10-20
237687,22691836,"3003 W Anderson Dr, Phoenix, AZ 85053 ",85053,0.6215279042720795,249500,https://www.zillow.com/homedetails/3003-W-Anderson-Dr-Phoenix-AZ-85053/7942212_zpid/,33.6441,-112.124,2017-09-19,2017-09-19
12224,23796679,"2809 W Loma Ln, Phoenix, AZ 85051 ",85051,0.6212590634822845,179999,https://www.zillow.com/homedetails/2809-W-Loma-Ln-Phoenix-AZ-85051/7751044_zpid/,33.5538,-112.12,2017-10-23,2017-10-23
1414930,23808887,"7413 N 75th Dr, Glendale, AZ 85303 ",85303,0.6209054291248322,241500,https://www.zillow.com/homedetails/7413-N-75th-Dr-Glendale-AZ-85303/60978522_zpid/,33.5441,-112.221,2017-10-26,2017-10-26
9012332,23806934,"2231 E Claire Dr, Phoenix, AZ 85022 ",85022,0.6208766758441925,217500,https://www.zillow.com/homedetails/2231-E-Claire-Dr-Phoenix-AZ-85022/8014060_zpid/,33.6202,-112.03399999999999,2017-10-25,2017-10-25
219229,23804829,"801 E Ruth Ave, Phoenix, AZ 85020 ",85020,0.6208562850952148,220000,https://www.zillow.com/homedetails/801-E-Ruth-Ave-Phoenix-AZ-85020/7789608_zpid/,33.5632,-112.064,2017-10-20,2017-10-20
329122,22745742,"2335 W Rose Ln, Phoenix, AZ 85015 ",85015,0.6205280244350433,249900,https://www.zillow.com/homedetails/2335-W-Rose-Ln-Phoenix-AZ-85015/92352474_zpid/,33.5275,-112.11,2017-10-06,2017-10-06
8992065,23759230,"1935 W Utopia Rd, Phoenix, AZ 85027 ",85027,0.6204839468002319,224000,https://www.zillow.com/homedetails/1935-W-Utopia-Rd-Phoenix-AZ-85027/7969900_zpid/,33.662,-112.102,2017-10-20,2017-10-20
828736,22708030,"3602 W Pasadena Ave, Phoenix, AZ 85019 ",85019,0.6203030645847321,197500,https://www.zillow.com/homedetails/3602-W-Pasadena-Ave-Phoenix-AZ-85019/7719981_zpid/,33.5109,-112.137,2017-09-20,2017-09-20
343249,22747251,"2019 N 37th Ave, Phoenix, AZ 85009 ",85009,0.6201735198497772,164850,https://www.zillow.com/homedetails/2019-N-37th-Ave-Phoenix-AZ-85009/7511305_zpid/,33.4704,-112.139,2017-10-02,2017-10-02
250469,22705843,"2302 W Village Dr, Phoenix, AZ 85023 ",85023,0.6199660539627075,244499,https://www.zillow.com/homedetails/2302-W-Village-Dr-Phoenix-AZ-85023/7963978_zpid/,33.645,-112.109,2017-09-20,2017-09-20
422582,23760094,"8112 N 60th Ln, Glendale, AZ 85302 ",85302,0.6199299573898316,185000,https://www.zillow.com/homedetails/8112-N-60th-Ln-Glendale-AZ-85302/7704280_zpid/,33.5545,-112.19,2017-10-21,2017-10-21
422856,23760093,"8334 N 55th Ave, Glendale, AZ 85302 ",85302,0.619811761379242,199900,https://www.zillow.com/homedetails/8334-N-55th-Ave-Glendale-AZ-85302/7732811_zpid/,33.558,-112.178,2017-10-20,2017-10-20
331425,23759005,"10244 N 15th Dr, Phoenix, AZ 85021 ",85021,0.6197302222251893,169900,https://www.zillow.com/homedetails/10244-N-15th-Dr-Phoenix-AZ-85021/7782182_zpid/,33.5801,-112.09200000000001,2017-10-20,2017-10-20
959874,23760151,"3830 W Elgin St, Chandler, AZ 85226 ",85226,0.6195444941520691,229000,https://www.zillow.com/homedetails/3830-W-Elgin-St-Chandler-AZ-85226/8156099_zpid/,33.2972,-111.90899999999999,2017-10-20,2017-10-20
9006292,23757762,"2011 W Taro Ln, Phoenix, AZ 85027 ",85027,0.6195094645023346,249900,https://www.zillow.com/homedetails/2011-W-Taro-Ln-Phoenix-AZ-85027/7969989_zpid/,33.6587,-112.103,2017-10-19,2017-10-19
354848,22739897,"2320 E Beck Ln, Phoenix, AZ 85022 ",85022,0.6194177985191345,170000,https://www.zillow.com/homedetails/2320-E-Beck-Ln-Phoenix-AZ-85022/8007959_zpid/,33.626999999999995,-112.03299999999999,2017-10-04,2017-10-04
395781,23756333,"8041 N 30th Dr, Phoenix, AZ 85051 ",85051,0.6193163335323334,143000,https://www.zillow.com/homedetails/8041-N-30th-Dr-Phoenix-AZ-85051/7751249_zpid/,33.5548,-112.124,2017-10-18,2017-10-18
1355976,23757019,"6736 N 65th Ave, Glendale, AZ 85301 ",85301,0.6192696988582611,155000,https://www.zillow.com/homedetails/6736-N-65th-Ave-Glendale-AZ-85301/2140432572_zpid/,33.5359,-112.199,2017-10-19,2017-10-19
1352382,22742514,"6115 W Cavalier Dr, Glendale, AZ 85301 ",85301,0.6189749479293823,159900,https://www.zillow.com/homedetails/6115-W-Cavalier-Dr-Glendale-AZ-85301/7715540_zpid/,33.5266,-112.191,2017-09-19,2017-09-19
503463,22747409,"5608 N 31st Dr, Phoenix, AZ 85017 ",85017,0.6189721763134003,166900,https://www.zillow.com/homedetails/5608-N-31st-Dr-Phoenix-AZ-85017/7764292_zpid/,33.5186,-112.12700000000001,2017-10-10,2017-10-10
428449,23806410,"6216 W Pierson St, Phoenix, AZ 85033 ",85033,0.618921834230423,156000,https://www.zillow.com/homedetails/6216-W-Pierson-St-Phoenix-AZ-85033/7715967_zpid/,33.5066,-112.19200000000001,2017-10-25,2017-10-25
833517,23755740,"5734 N 42nd Ln, Phoenix, AZ 85019 ",85019,0.6188738822937012,199999,https://www.zillow.com/homedetails/5734-N-42nd-Ln-Phoenix-AZ-85019/7718979_zpid/,33.5214,-112.15100000000001,2017-10-18,2017-10-18
9022177,23811570,"5730 E Calle Sonora, Guadalupe, AZ 85283 ",85283,0.6185370504856109,89000,https://www.zillow.com/homedetails/5730-E-Calle-Sonora-Guadalupe-AZ-85283/8138847_zpid/,33.3713,-111.96,2017-10-28,2017-10-28
396647,23804893,"8225 N 32ND Ave, Phoenix, AZ 85051 ",85051,0.6185347855091095,120000,https://www.zillow.com/homedetails/8225-N-32ND-Ave-Phoenix-AZ-85051/7751472_zpid/,33.5568,-112.12899999999999,2017-08-28,2017-08-28
1418874,23813245,"7811 W Stella Ave, Glendale, AZ 85303 ",85303,0.6185344457626343,211900,https://www.zillow.com/homedetails/7811-W-Stella-Ave-Glendale-AZ-85303/35756348_zpid/,33.529,-112.226,2017-10-28,2017-10-28
1093584,23758033,"781 W Del Rio St, Chandler, AZ 85225 ",85225,0.6183771133422852,249900,https://www.zillow.com/homedetails/781-W-Del-Rio-St-Chandler-AZ-85225/8186554_zpid/,33.3158,-111.854,2017-10-20,2017-10-20
398347,23819805,"4148 W Bloomfield Rd, Phoenix, AZ 85029 ",85029,0.6178633570671082,228900,https://www.zillow.com/homedetails/4148-W-Bloomfield-Rd-Phoenix-AZ-85029/7742599_zpid/,33.5988,-112.149,2017-11-03,2017-11-03
1867405,23806135,"7571 W Comet Ave, Peoria, AZ 85345 ",85345,0.6176975011825562,212000,https://www.zillow.com/homedetails/7571-W-Comet-Ave-Peoria-AZ-85345/7682477_zpid/,33.5791,-112.22200000000001,2017-10-25,2017-10-25
407695,23796931,"5912 W Evans Dr, Glendale, AZ 85306 ",85306,0.6176754057407379,216000,https://www.zillow.com/homedetails/5912-W-Evans-Dr-Glendale-AZ-85306/8098897_zpid/,33.6173,-112.18700000000001,2017-10-23,2017-10-23
9004987,23813468,"11048 N 16th Ave, Phoenix, AZ 85029 ",85029,0.617639809846878,209900,https://www.zillow.com/homedetails/11048-N-16th-Ave-Phoenix-AZ-85029/7784826_zpid/,33.5871,-112.09299999999999,2017-10-26,2017-10-26
483706,22742318,"2639 N 63rd Ave, Phoenix, AZ 85035 ",85035,0.6175508975982666,197000,https://www.zillow.com/homedetails/2639-N-63rd-Ave-Phoenix-AZ-85035/7491672_zpid/,33.4781,-112.195,2017-10-06,2017-10-06
699193,23823519,"948 W Plata Ave, Mesa, AZ 85210 ",85210,0.6173533260822296,240000,https://www.zillow.com/homedetails/948-W-Plata-Ave-Mesa-AZ-85210/8191030_zpid/,33.3637,-111.853,2017-11-08,2017-11-08
8969573,22741412,"3002 N 54th Ln, Phoenix, AZ 85031 ",85031,0.6172013461589814,210000,https://www.zillow.com/homedetails/3002-N-54th-Ln-Phoenix-AZ-85031/7497284_zpid/,33.4831,-112.177,2017-10-06,2017-10-06
8964605,23512021,"11414 N 98th Ave, Sun City, AZ 85351 ",85351,0.6170668721199035,169000,https://www.zillow.com/homedetails/11414-N-98th-Ave-Sun-City-AZ-85351/7685874_zpid/,33.5884,-112.27,2017-10-09,2017-10-09
1351717,22738279,"6001 W Northview Ave, Glendale, AZ 85301 ",85301,0.6169603884220123,185000,https://www.zillow.com/homedetails/6001-W-Northview-Ave-Glendale-AZ-85301/7705497_zpid/,33.5431,-112.189,2017-10-04,2017-10-04
170981,22736552,"7825 E Kimsey Ln, Scottsdale, AZ 85257 ",85257,0.6167517483234406,245500,https://www.zillow.com/homedetails/7825-E-Kimsey-Ln-Scottsdale-AZ-85257/7583164_zpid/,33.4559,-111.91,2017-09-20,2017-09-20
43639,23797424,"8024 W Willetta St, Phoenix, AZ 85043 ",85043,0.616696012020111,179900,https://www.zillow.com/homedetails/8024-W-Willetta-St-Phoenix-AZ-85043/81952343_zpid/,33.4637,-112.23200000000001,2017-10-24,2017-10-24
1115381,23814910,"1710 N Comanche Dr, Chandler, AZ 85224 ",85224,0.6165747940540314,244888,https://www.zillow.com/homedetails/1710-N-Comanche-Dr-Chandler-AZ-85224/8194464_zpid/,33.330999999999996,-111.863,2017-10-30,2017-10-30
390175,23756004,"2929 W Sunnyside Dr, Phoenix, AZ 85029 ",85029,0.6165247797966004,182000,https://www.zillow.com/homedetails/2929-W-Sunnyside-Dr-Phoenix-AZ-85029/7741010_zpid/,33.593,-112.12299999999999,2017-10-19,2017-10-19
1407968,23823746,"6861 W State Ave, Glendale, AZ 85303 ",85303,0.6164749383926391,159888,https://www.zillow.com/homedetails/6861-W-State-Ave-Glendale-AZ-85303/7704780_zpid/,33.5438,-112.20700000000001,2017-11-07,2017-11-07
1354882,22731455,"6539 N 61st Ave, Glendale, AZ 85301 ",85301,0.6162731647491455,205000,https://www.zillow.com/homedetails/6539-N-61st-Ave-Glendale-AZ-85301/7707779_zpid/,33.5328,-112.191,2017-09-29,2017-09-29
9021200,23755671,"3819 N 63rd Ave, Phoenix, AZ 85033 ",85033,0.6162713706493378,169900,https://www.zillow.com/homedetails/3819-N-63rd-Ave-Phoenix-AZ-85033/7496525_zpid/,33.4925,-112.195,2017-10-18,2017-10-18
8966249,23803880,"4402 W Cathy Cir, Glendale, AZ 85308 ",85308,0.6161673128604889,234900,https://www.zillow.com/homedetails/4402-W-Cathy-Cir-Glendale-AZ-85308/7950475_zpid/,33.6466,-112.154,2017-10-24,2017-10-24
247701,23800529,"3433 W Saint Moritz Ln, Phoenix, AZ 85053 ",85053,0.6160055875778199,169900,https://www.zillow.com/homedetails/3433-W-Saint-Moritz-Ln-Phoenix-AZ-85053/7943597_zpid/,33.619,-112.133,2017-10-24,2017-10-24
9020054,22741753,"3829 W Montebello Ave, Phoenix, AZ 85019 ",85019,0.6158072918653488,165000,https://www.zillow.com/homedetails/3829-W-Montebello-Ave-Phoenix-AZ-85019/7719525_zpid/,33.5201,-112.14200000000001,2017-10-06,2017-10-06
1112291,23816172,"1411 W El Alba Way, Chandler, AZ 85224 ",85224,0.6156402647495269,239000,https://www.zillow.com/homedetails/1411-W-El-Alba-Way-Chandler-AZ-85224/8176088_zpid/,33.3384,-111.866,2017-10-31,2017-10-31
527842,23809845,"9515 W Monte Vista Rd, Phoenix, AZ 85037 ",85037,0.6156252920627594,228000,https://www.zillow.com/homedetails/9515-W-Monte-Vista-Rd-Phoenix-AZ-85037/60974977_zpid/,33.4699,-112.265,2017-10-26,2017-10-26
463158,22747298,"2733 W Berridge Ln, Phoenix, AZ 85017 ",85017,0.6151779890060425,170000,https://www.zillow.com/homedetails/2733-W-Berridge-Ln-Phoenix-AZ-85017/7759928_zpid/,33.5253,-112.118,2017-10-10,2017-10-10
421831,22731489,"6419 W Mountain View Rd, Glendale, AZ 85302 ",85302,0.6151251375675202,184900,https://www.zillow.com/homedetails/6419-W-Mountain-View-Rd-Glendale-AZ-85302/7703360_zpid/,33.5745,-112.198,2017-09-30,2017-09-30
478553,22739658,"1823 N 63rd Dr, Phoenix, AZ 85035 ",85035,0.6150282025337219,179900,https://www.zillow.com/homedetails/1823-N-63rd-Dr-Phoenix-AZ-85035/7490646_zpid/,33.4683,-112.196,2017-10-05,2017-10-05
7380359,22747336,"3611 W Maricopa St, Phoenix, AZ 85009 ",85009,0.6145208179950714,146600,https://www.zillow.com/homedetails/3611-W-Maricopa-St-Phoenix-AZ-85009/7506371_zpid/,33.4383,-112.137,2017-10-10,2017-10-10
42194,23649652,"6608 W Papago St, Phoenix, AZ 85043 ",85043,0.6144866287708283,132900,https://www.zillow.com/homedetails/6608-W-Papago-St-Phoenix-AZ-85043/7499904_zpid/,33.4352,-112.20200000000001,2017-10-13,2017-10-13
973844,23809132,"628 N Dustin Ln, Chandler, AZ 85226 ",85226,0.614420372247696,239900,https://www.zillow.com/homedetails/628-N-Dustin-Ln-Chandler-AZ-85226/8157254_zpid/,33.3139,-111.95200000000001,2017-10-05,2017-10-05
387572,22707783,"2210 W Cactus Rd, Phoenix, AZ 85029 ",85029,0.6139636397361755,155000,https://www.zillow.com/homedetails/2210-W-Cactus-Rd-Phoenix-AZ-85029/7738653_zpid/,33.5968,-112.10600000000001,2017-09-22,2017-09-22
459700,22721620,"5715 W Roma Ave, Phoenix, AZ 85031 ",85031,0.6138403654098511,139900,https://www.zillow.com/homedetails/5715-W-Roma-Ave-Phoenix-AZ-85031/7712868_zpid/,33.4993,-112.18299999999999,2017-09-26,2017-09-26
441326,23650432,"3042 N 87th Ave, Phoenix, AZ 85037 ",85037,0.6137587189674377,204999,https://www.zillow.com/homedetails/3042-N-87th-Ave-Phoenix-AZ-85037/7479842_zpid/,33.483000000000004,-112.24700000000001,2017-10-13,2017-10-13
333024,22724856,"5523 N 23rd Ave, Phoenix, AZ 85015 ",85015,0.6137174010276795,186500,https://www.zillow.com/homedetails/5523-N-23rd-Ave-Phoenix-AZ-85015/7763546_zpid/,33.5178,-112.10799999999999,2017-09-26,2017-09-26
9000590,22678276,"2725 N 40th Ave, Phoenix, AZ 85009 ",85009,0.6137151479721069,162900,https://www.zillow.com/homedetails/2725-N-40th-Ave-Phoenix-AZ-85009/7512795_zpid/,33.4798,-112.145,2017-09-15,2017-09-15
327239,23756976,"2012 W Solano Dr, Phoenix, AZ 85015 ",85015,0.6136779725551605,214500,https://www.zillow.com/homedetails/2012-W-Solano-Dr-Phoenix-AZ-85015/7763332_zpid/,33.5212,-112.103,2017-10-19,2017-10-19
479569,23756167,"2212 N 50th Ave, Phoenix, AZ 85035 ",85035,0.6129587948322296,149900,https://www.zillow.com/homedetails/2212-N-50th-Ave-Phoenix-AZ-85035/7494270_zpid/,33.472,-112.167,2017-10-11,2017-10-11
9022735,23819777,"13216 N 31st Way, Phoenix, AZ 85032 ",85032,0.6128616690635681,145000,https://www.zillow.com/homedetails/13216-N-31st-Way-Phoenix-AZ-85032/50188555_zpid/,33.6068,-112.014,2017-11-03,2017-11-03
1349271,23815006,"5556 W Gardenia Ave, Glendale, AZ 85301 ",85301,0.6126865565776825,174900,https://www.zillow.com/homedetails/5556-W-Gardenia-Ave-Glendale-AZ-85301/2136646466_zpid/,33.5451,-112.18,2017-10-30,2017-10-30
482837,22692547,"2605 N 50th Ave, Phoenix, AZ 85035 ",85035,0.6122832953929901,180000,https://www.zillow.com/homedetails/2605-N-50th-Ave-Phoenix-AZ-85035/7494002_zpid/,33.4773,-112.165,2017-09-19,2017-09-19
8970005,22734447,"7637 W Whitton Ave, Phoenix, AZ 85033 ",85033,0.6122573494911194,179900,https://www.zillow.com/homedetails/7637-W-Whitton-Ave-Phoenix-AZ-85033/7478287_zpid/,33.4901,-112.22399999999999,2017-10-03,2017-10-03
521769,23806422,"9002 W Clarendon Ave, Phoenix, AZ 85037 ",85037,0.6119749486446381,169000,https://www.zillow.com/homedetails/9002-W-Clarendon-Ave-Phoenix-AZ-85037/7470545_zpid/,33.4905,-112.25399999999999,2017-10-25,2017-10-25
9012375,23760167,"709 W Mcnair St, Chandler, AZ 85225 ",85225,0.6116661369800568,227000,https://www.zillow.com/homedetails/709-W-Mcnair-St-Chandler-AZ-85225/8198852_zpid/,33.3514,-111.855,2017-10-20,2017-10-20
9021304,23756946,"2800 E Danbury Rd, Phoenix, AZ 85032 ",85032,0.6114941477775574,185000,https://www.zillow.com/homedetails/2800-E-Danbury-Rd-Phoenix-AZ-85032/7999387_zpid/,33.6418,-112.022,2017-10-19,2017-10-19
382519,23814251,"12633 N 25th Ave, Phoenix, AZ 85029 ",85029,0.6114600121974945,201000,https://www.zillow.com/homedetails/12633-N-25th-Ave-Phoenix-AZ-85029/7748274_zpid/,33.6011,-112.113,2017-10-29,2017-10-29
470656,22708029,"3446 W Montebello Ave, Phoenix, AZ 85017 ",85017,0.6110783994197846,169800,https://www.zillow.com/homedetails/3446-W-Montebello-Ave-Phoenix-AZ-85017/7762454_zpid/,33.5205,-112.134,2017-09-20,2017-09-20
389263,22707820,"3907 W Davidson Ln, Phoenix, AZ 85051 ",85051,0.6108942627906799,249000,https://www.zillow.com/homedetails/3907-W-Davidson-Ln-Phoenix-AZ-85051/7746545_zpid/,33.5698,-112.14299999999999,2017-09-21,2017-09-21
413798,23811011,"6136 W Sierra St, Glendale, AZ 85304 ",85304,0.6107662856578827,244990,https://www.zillow.com/homedetails/6136-W-Sierra-St-Glendale-AZ-85304/7698235_zpid/,33.5914,-112.19200000000001,2017-10-27,2017-10-27
9005267,23756302,"6502 W Orange Dr, Glendale, AZ 85301 ",85301,0.6103248357772827,199999,https://www.zillow.com/homedetails/6502-W-Orange-Dr-Glendale-AZ-85301/7714917_zpid/,33.5133,-112.198,2017-10-16,2017-10-16
379293,23800540,"2626 W Northview Ave, Phoenix, AZ 85051 ",85051,0.6100720286369323,129900,https://www.zillow.com/homedetails/2626-W-Northview-Ave-Phoenix-AZ-85051/7779482_zpid/,33.5439,-112.116,2017-10-24,2017-10-24
339837,23752360,"15615 N 23rd Pl, Phoenix, AZ 85022 ",85022,0.6099971652030944,194500,https://www.zillow.com/homedetails/15615-N-23rd-Pl-Phoenix-AZ-85022/55267932_zpid/,33.6285,-112.03200000000001,2017-10-13,2017-10-13
426687,22730847,"4834 N 81st Dr, Phoenix, AZ 85033 ",85033,0.6099191606044769,179900,https://www.zillow.com/homedetails/4834-N-81st-Dr-Phoenix-AZ-85033/7482505_zpid/,33.5079,-112.235,2017-09-29,2017-09-29
9016683,23754755,"2816 N 32nd Pl, Phoenix, AZ 85008 ",85008,0.6098385035991669,185000,https://www.zillow.com/homedetails/2816-N-32nd-Pl-Phoenix-AZ-85008/7540834_zpid/,33.4793,-112.012,2017-10-17,2017-10-17
9019063,22730919,"6602 W Hazelwood St, Phoenix, AZ 85033 ",85033,0.6097387611865998,205000,https://www.zillow.com/homedetails/6602-W-Hazelwood-St-Phoenix-AZ-85033/7712325_zpid/,33.5053,-112.20100000000001,2017-09-28,2017-09-28
1466624,23811557,"17462 N 92nd Gln, Peoria, AZ 85382 ",85382,0.6094063520431519,229000,https://www.zillow.com/homedetails/17462-N-92nd-Gln-Peoria-AZ-85382/95103614_zpid/,33.6425,-112.259,2017-10-27,2017-10-27
829181,22685240,"3635 W Berridge Ln, Phoenix, AZ 85019 ",85019,0.6093038082122803,190000,https://www.zillow.com/homedetails/3635-W-Berridge-Ln-Phoenix-AZ-85019/7759149_zpid/,33.5254,-112.13799999999999,2017-09-17,2017-09-17
501430,23817319,"7780 W Pipestone Pl, Phoenix, AZ 85035 ",85035,0.6092644512653351,153900,https://www.zillow.com/homedetails/7780-W-Pipestone-Pl-Phoenix-AZ-85035/95100946_zpid/,33.4725,-112.227,2017-11-01,2017-11-01
402261,23811006,"14814 N 62nd Ave, Glendale, AZ 85306 ",85306,0.6091685175895691,200000,https://www.zillow.com/homedetails/14814-N-62nd-Ave-Glendale-AZ-85306/8098781_zpid/,33.6185,-112.191,2017-10-27,2017-10-27
329115,23755232,"2335 W Campus Dr, Phoenix, AZ 85015 ",85015,0.6088676631450654,212800,https://www.zillow.com/homedetails/2335-W-Campus-Dr-Phoenix-AZ-85015/7518987_zpid/,33.484,-112.11,2017-10-17,2017-10-17
261913,23649326,"5308 N 78th Pl, Scottsdale, AZ 85250 ",85250,0.6087881326675415,229000,https://www.zillow.com/homedetails/5308-N-78th-Pl-Scottsdale-AZ-85250/7842267_zpid/,33.5142,-111.913,2017-10-13,2017-10-13
392592,23803343,"3302 W Pershing Ave, Phoenix, AZ 85029 ",85029,0.6087293148040771,189900,https://www.zillow.com/homedetails/3302-W-Pershing-Ave-Phoenix-AZ-85029/7745089_zpid/,33.6058,-112.12899999999999,2017-10-22,2017-10-22
8991541,23802357,"17661 N 35th Pl, Phoenix, AZ 85032 ",85032,0.6086283564567566,235000,https://www.zillow.com/homedetails/17661-N-35th-Pl-Phoenix-AZ-85032/7998301_zpid/,33.6474,-112.00299999999999,2017-10-24,2017-10-24
232628,23797269,"18009 N 35th Ave, Phoenix, AZ 85053 ",85053,0.6086139142513275,190000,https://www.zillow.com/homedetails/18009-N-35th-Ave-Phoenix-AZ-85053/7941365_zpid/,33.6494,-112.134,2017-10-24,2017-10-24
435667,22734446,"7942 W Verde Ln, Phoenix, AZ 85033 ",85033,0.608597195148468,175000,https://www.zillow.com/homedetails/7942-W-Verde-Ln-Phoenix-AZ-85033/7479526_zpid/,33.4815,-112.23100000000001,2017-10-02,2017-10-02
9021366,23757591,"9106 W Long Hills Dr, Sun City, AZ 85351 ",85351,0.6085397779941559,159500,https://www.zillow.com/homedetails/9106-W-Long-Hills-Dr-Sun-City-AZ-85351/7904820_zpid/,33.6259,-112.256,2017-10-17,2017-10-17
1883226,23813629,"7717 W Wethersfield Rd, Peoria, AZ 85381 ",85381,0.6084480166435242,215000,https://www.zillow.com/homedetails/7717-W-Wethersfield-Rd-Peoria-AZ-85381/7913409_zpid/,33.5963,-112.225,2017-10-28,2017-10-28
