property_id,transaction_id,address,zipcode,any_sell,good_sell,bayesian,list,url,lat,long,date_listed,transaction_date
1115749,23864072,"1721 W Nopal Dr, Chandler, AZ 85224 ",85224,0.552081972360611,0.9153722524642944,0.5053605185846628,249900,https://www.zillow.com/homedetails/1721-W-Nopal-Dr-Chandler-AZ-85224/8198402_zpid/,33.3418,-111.874,6581,2018-01-07
976127,23846057,"734 N Tangerine Dr, Chandler, AZ 85226 ",85226,0.5495926439762115,0.8833408653736115,0.48547764173291785,204900,https://www.zillow.com/homedetails/734-N-Tangerine-Dr-Chandler-AZ-85226/8156625_zpid/,33.3162,-111.928,6544,2017-12-01
456854,23862646,"4925 W Flower St, Phoenix, AZ 85031 ",85031,0.5385452806949615,0.8944988250732422,0.4817281208303825,206000,https://www.zillow.com/homedetails/4925-W-Flower-St-Phoenix-AZ-85031/7509860_zpid/,33.4855,-112.165,6578,2018-01-04
1091154,23858452,"668 W Shawnee Dr, Chandler, AZ 85225 ",85225,0.5495748221874237,0.8749099671840668,0.4808284896451882,239900,https://www.zillow.com/homedetails/668-W-Shawnee-Dr-Chandler-AZ-85225/8200509_zpid/,33.3448,-111.852,6535,2017-11-22
9021795,23854390,"747 W Rosal Pl, Chandler, AZ 85225 ",85225,0.5333632230758667,0.8874082267284393,0.4733109119919199,244800,https://www.zillow.com/homedetails/747-W-Rosal-Pl-Chandler-AZ-85225/8177685_zpid/,33.3412,-111.855,6551,2017-12-08
463250,23884456,"2736 W Rose Ln, Phoenix, AZ 85017 ",85017,0.5241242349147797,0.88686203956604,0.4648258879625118,184900,https://www.zillow.com/homedetails/2736-W-Rose-Ln-Phoenix-AZ-85017/7759733_zpid/,33.5278,-112.118,6581,2018-01-07
467212,23884496,"3119 W Citrus Way, Phoenix, AZ 85017 ",85017,0.5223660469055176,0.8883701264858246,0.46405439116135483,220000,https://www.zillow.com/homedetails/3119-W-Citrus-Way-Phoenix-AZ-85017/7760912_zpid/,33.5296,-112.12700000000001,6583,2018-01-09
451186,23869054,"3607 N 51ST Ave, Phoenix, AZ 85031 ",85031,0.5142027735710144,0.9022267758846283,0.4639275105499099,174900,https://www.zillow.com/homedetails/3607-N-51st-Ave-Phoenix-AZ-85031/7508531_zpid/,33.4904,-112.169,6585,2018-01-11
424918,23883758,"9803 N 50TH Ave, Glendale, AZ 85302 ",85302,0.5251747071743011,0.8810633420944214,0.46271218268644887,224500,https://www.zillow.com/homedetails/9803-N-50TH-Ave-Glendale-AZ-85302/7728972_zpid/,33.575,-112.167,6571,2017-12-28
9030739,23909196,"7307 N 41st Dr, Phoenix, AZ 85051 ",85051,0.5128187537193298,0.8990271389484406,0.46103797695539406,222000,https://www.zillow.com/homedetails/7307-N-41st-Dr-Phoenix-AZ-85051/7756457_zpid/,33.5444,-112.148,6563,2017-12-20
392047,23856667,"3214 W Voltaire Ave, Phoenix, AZ 85029 ",85029,0.530593067407608,0.8649614453315735,0.45894254646779764,229000,https://www.zillow.com/homedetails/3214-W-Voltaire-Ave-Phoenix-AZ-85029/7747954_zpid/,33.6091,-112.12799999999999,6560,2017-12-17
9019112,23856813,"4426 W Vogel Ave, Glendale, AZ 85302 ",85302,0.5163507014513016,0.8874637484550476,0.4582425290273653,219900,https://www.zillow.com/homedetails/4426-W-Vogel-Ave-Glendale-AZ-85302/7729451_zpid/,33.5722,-112.155,6561,2017-12-18
432541,22734473,"7113 W Sheila Ln, Phoenix, AZ 85033 ",85033,0.527488112449646,0.8654952049255371,0.4565384319803911,189000,https://www.zillow.com/homedetails/7113-W-Sheila-Ln-Phoenix-AZ-85033/55257199_zpid/,33.4878,-112.213,6485,2017-10-03
1349332,23855797,"5601 N 61st Ln, Glendale, AZ 85301 ",85301,0.5256972014904022,0.8643570840358734,0.45439010016606307,164000,https://www.zillow.com/homedetails/5601-N-61st-Ln-Glendale-AZ-85301/7714491_zpid/,33.5189,-112.193,6551,2017-12-08
1990166,23862524,"3227 W Corrine Dr, Phoenix, AZ 85029 ",85029,0.5174586474895477,0.8761658370494843,0.4533795890161736,180000,https://www.zillow.com/homedetails/3227-W-Corrine-Dr-Phoenix-AZ-85029/7747533_zpid/,33.6005,-112.12799999999999,6578,2018-01-04
472964,23884783,"5737 N 35th Ave, Phoenix, AZ 85017 ",85017,0.5213520228862762,0.8657928705215454,0.45138286444692355,169500,https://www.zillow.com/homedetails/5737-N-35th-Ave-Phoenix-AZ-85017/7762448_zpid/,33.5218,-112.134,6555,2017-12-12
559333,23871337,"1223 W 6TH Ave, Mesa, AZ 85202 ",85202,0.5158732384443283,0.8732875287532806,0.45050566555099936,199900,https://www.zillow.com/homedetails/1223-W-6th-Ave-Mesa-AZ-85202/7604271_zpid/,33.4035,-111.85799999999999,6576,2018-01-02
436099,23864351,"8017 W Pinchot Ave, Phoenix, AZ 85033 ",85033,0.49892914295196533,0.902450293302536,0.45025875139418403,149400,https://www.zillow.com/homedetails/8017-W-Pinchot-Ave-Phoenix-AZ-85033/7479545_zpid/,33.4824,-112.23200000000001,6581,2018-01-07
627067,23856639,"1610 W 7th Ave, Mesa, AZ 85202 ",85202,0.5386750400066376,0.8344241976737976,0.4494834880644394,218900,https://www.zillow.com/homedetails/1610-W-7th-Ave-Mesa-AZ-85202/7604416_zpid/,33.4024,-111.866,6560,2017-12-17
625494,23866146,"1522 W Plana Ave, Mesa, AZ 85202 ",85202,0.4834948778152466,0.9291332066059113,0.4492311462020133,242500,https://www.zillow.com/homedetails/1522-W-Plana-Ave-Mesa-AZ-85202/8172015_zpid/,33.3588,-111.866,6585,2018-01-11
433435,23843217,"7318 W Glenrosa Ave, Phoenix, AZ 85033 ",85033,0.5317024886608124,0.8441640138626099,0.4488441070086502,154999,https://www.zillow.com/homedetails/7318-W-Glenrosa-Ave-Phoenix-AZ-85033/7711188_zpid/,33.4994,-112.21700000000001,6541,2017-11-28
1092802,23820224,"731 W Palomino Dr, Chandler, AZ 85225 ",85225,0.5333632230758667,0.841383695602417,0.44876311972998906,245900,https://www.zillow.com/homedetails/731-W-Palomino-Dr-Chandler-AZ-85225/8177603_zpid/,33.3404,-111.855,6516,2017-11-03
203922,23870255,"1233 N Oakleaf Dr, Phoenix, AZ 85008 ",85008,0.5175821781158447,0.8668557405471802,0.4486690823046331,225000,https://www.zillow.com/homedetails/1233-N-Oakleaf-Dr-Phoenix-AZ-85008/7544011_zpid/,33.4632,-112.01100000000001,6584,2018-01-10
329110,23884405,"2334 W Rose Ln, Phoenix, AZ 85015 ",85015,0.5568816065788269,0.8045932054519653,0.4480631568944986,199900,https://www.zillow.com/homedetails/2334-W-Rose-Ln-Phoenix-AZ-85015/7772689_zpid/,33.5279,-112.11,6547,2017-12-04
629569,23853723,"1645 W Peralta Ave, Mesa, AZ 85202 ",85202,0.5048523098230362,0.8868845999240875,0.44774573881815494,222900,https://www.zillow.com/homedetails/1645-W-Peralta-Ave-Mesa-AZ-85202/8191627_zpid/,33.3572,-111.87,6553,2017-12-10
377735,23862131,"10720 N 36TH Ave, Phoenix, AZ 85029 ",85029,0.510636955499649,0.8758421540260315,0.4472373710301074,225000,https://www.zillow.com/homedetails/10720-N-36th-Ave-Phoenix-AZ-85029/7743347_zpid/,33.5838,-112.137,6576,2018-01-02
1093584,23859955,"781 W Del Rio St, Chandler, AZ 85225 ",85225,0.5012931823730469,0.8920926153659821,0.4471999461283076,248900,https://www.zillow.com/homedetails/781-W-Del-Rio-St-Chandler-AZ-85225/8186554_zpid/,33.3158,-111.854,6565,2017-12-22
385542,23862282,"1634 W Andorra Dr, Phoenix, AZ 85029 ",85029,0.5034635215997696,0.8869136273860931,0.4465286581986283,235000,https://www.zillow.com/homedetails/1634-W-Andorra-Dr-Phoenix-AZ-85029/7784245_zpid/,33.6066,-112.095,6577,2018-01-03
333266,23854946,"5719 N 23rd Ave, Phoenix, AZ 85015 ",85015,0.5408124029636383,0.8241744041442871,0.4457237399663967,175000,https://www.zillow.com/homedetails/5719-N-23rd-Ave-Phoenix-AZ-85015/7763242_zpid/,33.5217,-112.10799999999999,6557,2017-12-14
468466,23862527,"3238 W Montecito Ave, Phoenix, AZ 85017 ",85017,0.5353489816188812,0.8320869207382202,0.44545688563559693,151000,https://www.zillow.com/homedetails/3238-W-Montecito-Ave-Phoenix-AZ-85017/7768109_zpid/,33.4995,-112.12899999999999,6577,2018-01-03
1409526,23883258,"7001 N 77th Ave, Glendale, AZ 85303 ",85303,0.497470498085022,0.893012285232544,0.44424726633067735,164900,https://www.zillow.com/homedetails/7001-N-77th-Ave-Glendale-AZ-85303/7684833_zpid/,33.5382,-112.22399999999999,6577,2018-01-03
387374,23860581,"3735 W Cochise Dr, Phoenix, AZ 85051 ",85051,0.510636955499649,0.8699827194213867,0.4442453271826423,244900,https://www.zillow.com/homedetails/3735-W-Cochise-Dr-Phoenix-AZ-85051/7745459_zpid/,33.5803,-112.14,6572,2017-12-29
503053,23856891,"2823 W Marshall Ave, Phoenix, AZ 85017 ",85017,0.5158882141113281,0.8582331836223602,0.44275238439001896,175000,https://www.zillow.com/homedetails/2823-W-Marshall-Ave-Phoenix-AZ-85017/7763994_zpid/,33.5174,-112.12,6561,2017-12-18
2044933,22443059,"1446 W Bentley St, Mesa, AZ 85201 ",85201,0.5776366293430328,0.7657685875892639,0.4423359857918374,220000,https://www.zillow.com/homedetails/1446-W-Bentley-St-Mesa-AZ-85201/7610672_zpid/,33.4202,-111.86200000000001,6338,2017-05-09
9022735,23864019,"13216 N 31ST Way, Phoenix, AZ 85032 ",85032,0.5052505433559418,0.8747302889823914,0.4419579537982532,241000,https://www.zillow.com/homedetails/13216-N-31st-Way-Phoenix-AZ-85032/50188555_zpid/,33.6068,-112.014,6581,2018-01-07
381077,23870349,"12217 N 30TH Ave, Phoenix, AZ 85029 ",85029,0.5128110498189926,0.8589627742767334,0.44048560203228604,239000,https://www.zillow.com/homedetails/12217-N-30th-Ave-Phoenix-AZ-85029/7747117_zpid/,33.5971,-112.12299999999999,6577,2018-01-03
220490,23862951,"8815 N 6th St, Phoenix, AZ 85020 ",85020,0.5566656291484833,0.7909241318702698,0.4402802794762817,200000,https://www.zillow.com/homedetails/8815-N-6th-St-Phoenix-AZ-85020/7793860_zpid/,33.5647,-112.06700000000001,6551,2017-12-08
381604,23884452,"3036 W Northview Ave, Phoenix, AZ 85051 ",85051,0.5075092315673828,0.8612999022006989,0.43711765151493864,245000,https://www.zillow.com/homedetails/3036-W-Northview-Ave-Phoenix-AZ-85051/7756072_zpid/,33.5432,-112.125,6579,2018-01-05
332059,23858248,"115 E Hartford Ave, Phoenix, AZ 85022 ",85022,0.5038940757513046,0.8667189180850983,0.4367345281646613,215000,https://www.zillow.com/homedetails/115-E-Hartford-Ave-Phoenix-AZ-85022/79527909_zpid/,33.6426,-112.073,6562,2017-12-19
389915,23884704,"3942 W Northview Ave, Phoenix, AZ 85051 ",85051,0.4892759472131729,0.8914189040660858,0.43614982865066265,209500,https://www.zillow.com/homedetails/3942-W-Northview-Ave-Phoenix-AZ-85051/7757824_zpid/,33.5444,-112.145,6573,2017-12-30
467648,23865040,"3143 W Marlette Ave, Phoenix, AZ 85017 ",85017,0.4908612072467804,0.8865147531032562,0.4351557019503458,204000,https://www.zillow.com/homedetails/3143-W-Marlette-Ave-Phoenix-AZ-85017/7760936_zpid/,33.5289,-112.12799999999999,6585,2018-01-11
352916,23863486,"213 E Campo Bello Dr, Phoenix, AZ 85022 ",85022,0.5072244256734848,0.8571236431598663,0.43475404763292813,225000,https://www.zillow.com/homedetails/213-E-Campo-Bello-Dr-Phoenix-AZ-85022/7959267_zpid/,33.6435,-112.071,6579,2018-01-05
834399,23856892,"3514 W Mariposa St, Phoenix, AZ 85019 ",85019,0.5061949342489243,0.8565298318862915,0.4335710619339235,195000,https://www.zillow.com/homedetails/3514-W-Mariposa-St-Phoenix-AZ-85019/7506769_zpid/,33.5079,-112.135,6560,2017-12-17
7381600,22218425,"4317 N 72nd Dr, Phoenix, AZ 85033 ",85033,0.5388378500938416,0.8013230562210083,0.43178319284475464,190000,https://www.zillow.com/homedetails/4317-N-72nd-Dr-Phoenix-AZ-85033/7711467_zpid/,33.4989,-112.214,6377,2017-06-17
431375,23855856,"6744 W Pierson St, Phoenix, AZ 85033 ",85033,0.4983094781637192,0.8663797676563263,0.4317252499124282,141900,https://www.zillow.com/homedetails/6744-W-Pierson-St-Phoenix-AZ-85033/7716621_zpid/,33.508,-112.205,6555,2017-12-12
1090754,23921398,"649 W Ivanhoe St, Chandler, AZ 85225 ",85225,0.502581462264061,0.8585104942321777,0.43147145956024957,190000,https://www.zillow.com/homedetails/649-W-Ivanhoe-St-Chandler-AZ-85225/8189345_zpid/,33.3174,-111.851,6536,2017-11-23
9026770,23893524,"1518 W Marlboro Dr, Chandler, AZ 85224 ",85224,0.4751336872577667,0.9080882668495178,0.4314633265837262,237500,https://www.zillow.com/homedetails/1518-W-Marlboro-Dr-Chandler-AZ-85224/8176555_zpid/,33.3476,-111.87,6591,2018-01-17
9017511,23846619,"7346 W Coolidge St, Phoenix, AZ 85033 ",85033,0.4955230951309204,0.8690162003040314,0.4306175972935655,199900,https://www.zillow.com/homedetails/7346-W-Coolidge-St-Phoenix-AZ-85033/7710836_zpid/,33.5042,-112.21799999999999,6544,2017-12-01
447418,23856851,"8311 W Coolidge St, Phoenix, AZ 85037 ",85037,0.47603946924209595,0.9035980403423309,0.4301483315327612,189900,https://www.zillow.com/homedetails/8311-W-Coolidge-St-Phoenix-AZ-85037/7480994_zpid/,33.5048,-112.238,6560,2017-12-17
9024757,23848700,"3126 N 43RD Ave, Phoenix, AZ 85031 ",85031,0.5010644793510437,0.858383446931839,0.43010545492045615,175000,https://www.zillow.com/homedetails/3126-N-43rd-Ave-Phoenix-AZ-85031/7509773_zpid/,33.4851,-112.152,6547,2017-12-04
696160,23875653,"2809 W Fillmore St, Phoenix, AZ 85009 ",85009,0.53780397772789,0.7993205189704895,0.4298777545818506,128000,https://www.zillow.com/homedetails/2809-W-Fillmore-St-Phoenix-AZ-85009/7514143_zpid/,33.4545,-112.12,6584,2018-01-10
402356,23882339,"11811 N 51ST Dr, Glendale, AZ 85304 ",85304,0.48286858201026917,0.8893625736236572,0.429445244818659,189500,https://www.zillow.com/homedetails/11811-N-51ST-Dr-Glendale-AZ-85304/60978616_zpid/,33.5933,-112.169,6583,2018-01-09
828507,23855608,"3542 W Rovey Ave, Phoenix, AZ 85019 ",85019,0.5213520228862762,0.8226097226142883,0.4288692429308778,235000,https://www.zillow.com/homedetails/3542-W-Rovey-Ave-Phoenix-AZ-85019/7759119_zpid/,33.5255,-112.13600000000001,6547,2017-12-04
343494,23875666,"2518 S 66th Dr, Phoenix, AZ 85043 ",85043,0.46152539551258087,0.9288738667964935,0.42869887875455204,194900,https://www.zillow.com/homedetails/2518-S-66th-Dr-Phoenix-AZ-85043/67773235_zpid/,33.425,-112.20200000000001,6581,2018-01-07
391845,23866465,"4128 W Frier Dr, Phoenix, AZ 85051 ",85051,0.4942306876182556,0.8665913343429565,0.42829603105634106,229900,https://www.zillow.com/homedetails/4128-W-Frier-Dr-Phoenix-AZ-85051/7755554_zpid/,33.5496,-112.148,6579,2018-01-05
502071,22116293,"3625 N 48th Ave, Phoenix, AZ 85031 ",85031,0.5385452806949615,0.7948866188526154,0.42808243727065065,158000,https://www.zillow.com/homedetails/3625-N-48th-Ave-Phoenix-AZ-85031/7508647_zpid/,33.4911,-112.163,6338,2017-05-09
9019728,23843826,"17413 N 8TH Ave, Phoenix, AZ 85023 ",85023,0.511510893702507,0.8366632759571075,0.42796238001288733,184500,https://www.zillow.com/homedetails/17413-N-8th-Ave-Phoenix-AZ-85023/7963487_zpid/,33.6445,-112.085,6542,2017-11-29
397286,23862957,"8437 N 36th Ave, Phoenix, AZ 85051 ",85051,0.510636955499649,0.8372301459312439,0.42752065277085727,187000,https://www.zillow.com/homedetails/8437-N-36th-Ave-Phoenix-AZ-85051/7754435_zpid/,33.5599,-112.137,6550,2017-12-07
830701,23830958,"3833 W Ocotillo Rd, Phoenix, AZ 85019 ",85019,0.5222921669483185,0.8176188468933105,0.4270359192816926,199900,https://www.zillow.com/homedetails/3833-W-Ocotillo-Rd-Phoenix-AZ-85019/7758511_zpid/,33.5346,-112.14200000000001,6525,2017-11-12
415471,23882330,"10237 N 66th Ave, Glendale, AZ 85302 ",85302,0.48415008187294006,0.8798867464065552,0.42599724031164854,150000,https://www.zillow.com/homedetails/10237-N-66th-Ave-Glendale-AZ-85302/7706350_zpid/,33.5795,-112.2,6583,2018-01-09
7425243,23864205,"3629 E Yale St, Phoenix, AZ 85008 ",85008,0.5223660469055176,0.8152099549770355,0.425838001579379,225500,https://www.zillow.com/homedetails/3629-E-Yale-St-Phoenix-AZ-85008/67082142_zpid/,33.4758,-112.00299999999999,6582,2018-01-08
8850973,23814108,"2525 E Michigan Ave, Phoenix, AZ 85032 ",85032,0.5285188555717468,0.8051311671733856,0.42552700305962254,225000,https://www.zillow.com/homedetails/2525-E-Michigan-Ave-Phoenix-AZ-85032/7999906_zpid/,33.6507,-112.027,6511,2017-10-29
337615,23862924,"2310 W Echo Ln, Phoenix, AZ 85021 ",85021,0.5051610320806503,0.8422871530056,0.4254906475205815,190000,https://www.zillow.com/homedetails/2310-W-Echo-Ln-Phoenix-AZ-85021/7782737_zpid/,33.5598,-112.109,6558,2017-12-15
9025717,23858269,"3333 W Grovers Ave, Phoenix, AZ 85053 ",85053,0.4665256291627884,0.9103947579860687,0.4247224872559552,162000,https://www.zillow.com/homedetails/3333-W-Grovers-Ave-Phoenix-AZ-85053/2091717911_zpid/,33.6474,-112.131,6564,2017-12-21
1346544,23849829,"4852 W Frier Dr, Glendale, AZ 85301 ",85301,0.5051304250955582,0.8401930332183838,0.4244070640319286,229900,https://www.zillow.com/homedetails/4852-W-Frier-Dr-Glendale-AZ-85301/7724567_zpid/,33.5494,-112.164,6550,2017-12-07
453411,23853062,"4450 N 50TH Ave, Phoenix, AZ 85031 ",85031,0.5192629098892212,0.8170766830444336,0.42427761604028547,149800,https://www.zillow.com/homedetails/4450-N-50th-Ave-Phoenix-AZ-85031/7720779_zpid/,33.501999999999995,-112.167,6533,2017-11-20
452056,23863849,"8831 W Mariposa St, Phoenix, AZ 85037 ",85037,0.47448253631591797,0.8929806649684906,0.4237037307953244,209900,https://www.zillow.com/homedetails/8831-W-Mariposa-St-Phoenix-AZ-85037/7483281_zpid/,33.5074,-112.25,6581,2018-01-07
387030,23862016,"2114 W Sunnyside Dr, Phoenix, AZ 85029 ",85029,0.4862443208694458,0.8713026642799377,0.42366597226453706,174400,https://www.zillow.com/homedetails/2114-W-Sunnyside-Dr-Phoenix-AZ-85029/7748813_zpid/,33.5934,-112.104,6575,2018-01-01
386285,23856269,"3631 W Caron St, Phoenix, AZ 85051 ",85051,0.5283062160015106,0.8013915717601776,0.4233801488121225,239900,https://www.zillow.com/homedetails/3631-W-Caron-St-Phoenix-AZ-85051/7746596_zpid/,33.5684,-112.13799999999999,6558,2017-12-15
9023645,23828731,"7328 W Heatherbrae Dr, Phoenix, AZ 85033 ",85033,0.5043207854032516,0.839123010635376,0.4231871757735739,174900,https://www.zillow.com/homedetails/7328-W-Heatherbrae-Dr-Phoenix-AZ-85033/7711026_zpid/,33.4977,-112.21700000000001,6519,2017-11-06
831473,23884701,"4018 W Solano Dr N, Phoenix, AZ 85019 ",85019,0.46996431052684784,0.8998786211013794,0.4229108357237603,199900,https://www.zillow.com/homedetails/4018-W-Solano-Dr-N-Phoenix-AZ-85019/7718599_zpid/,33.5218,-112.145,6583,2018-01-09
9025493,23853409,"5955 W Mitchell Dr, Phoenix, AZ 85033 ",85033,0.4886605590581894,0.8642757833003998,0.4223374874480279,165000,https://www.zillow.com/homedetails/5955-W-Mitchell-Dr-Phoenix-AZ-85033/7489271_zpid/,33.4883,-112.189,6550,2017-12-07
389263,23864217,"3907 W Davidson Ln, Phoenix, AZ 85051 ",85051,0.4825570583343506,0.8749977648258209,0.42223634744348004,238995,https://www.zillow.com/homedetails/3907-W-Davidson-Ln-Phoenix-AZ-85051/7746545_zpid/,33.5698,-112.14299999999999,6582,2018-01-08
384323,23864506,"1344 W Joan De Arc Ave, Phoenix, AZ 85029 ",85029,0.47697749733924866,0.8845732510089874,0.42192153547950983,210000,https://www.zillow.com/homedetails/1344-W-Joan-De-Arc-Ave-Phoenix-AZ-85029/7784468_zpid/,33.6078,-112.089,6584,2018-01-10
435667,22734446,"7942 W Verde Ln, Phoenix, AZ 85033 ",85033,0.49251343309879303,0.8565487861633301,0.42186178328990565,175000,https://www.zillow.com/homedetails/7942-W-Verde-Ln-Phoenix-AZ-85033/7479526_zpid/,33.4815,-112.23100000000001,6484,2017-10-02
334027,23820917,"6217 N 25th Ave, Phoenix, AZ 85015 ",85015,0.5585494041442871,0.7550857663154602,0.4217527048533327,186500,https://www.zillow.com/homedetails/6217-N-25th-Ave-Phoenix-AZ-85015/7772678_zpid/,33.5283,-112.11200000000001,6516,2017-11-03
8962279,23869441,"3802 N 63rd Dr, Phoenix, AZ 85033 ",85033,0.47182488441467285,0.8936865031719208,0.4216635310620447,160000,https://www.zillow.com/homedetails/3802-N-63rd-Dr-Phoenix-AZ-85033/2142041157_zpid/,33.491,-112.196,6584,2018-01-10
1412767,23846610,"7238 W Ocotillo Rd, Glendale, AZ 85303 ",85303,0.487529993057251,0.8647949695587158,0.4216134855049063,245000,https://www.zillow.com/homedetails/7238-W-Ocotillo-Rd-Glendale-AZ-85303/67800379_zpid/,33.5344,-112.215,6543,2017-11-30
411064,23882421,"5118 W Columbine Dr, Glendale, AZ 85304 ",85304,0.48286858201026917,0.8725817203521729,0.42134229799453493,239000,https://www.zillow.com/homedetails/5118-W-Columbine-Dr-Glendale-AZ-85304/7911366_zpid/,33.5987,-112.17,6579,2018-01-05
235380,23862487,"2831 W Grovers Ave, Phoenix, AZ 85053 ",85053,0.47366586327552795,0.8884453773498535,0.42082624663557056,200000,https://www.zillow.com/homedetails/2831-W-Grovers-Ave-Phoenix-AZ-85053/7942333_zpid/,33.6472,-112.12200000000001,6578,2018-01-04
470656,22708029,"3446 W Montebello Ave, Phoenix, AZ 85017 ",85017,0.5242987871170044,0.8024699985980988,0.4207340469627674,169800,https://www.zillow.com/homedetails/3446-W-Montebello-Ave-Phoenix-AZ-85017/7762454_zpid/,33.5205,-112.134,6472,2017-09-20
359220,23854837,"1816 S 84TH Dr, Tolleson, AZ 85353 ",85353,0.47931578755378723,0.8761070370674133,0.4199319344533823,225000,https://www.zillow.com/homedetails/1816-S-84TH-Dr-Tolleson-AZ-85353/59249294_zpid/,33.4304,-112.241,6557,2017-12-14
417610,23855747,"4832 W Beryl Ave, Glendale, AZ 85302 ",85302,0.498740091919899,0.8415692746639252,0.41972433740284876,217500,https://www.zillow.com/homedetails/4832-W-Beryl-Ave-Glendale-AZ-85302/7728604_zpid/,33.5797,-112.163,6557,2017-12-14
255987,23850390,"506 W Beverly Ln, Phoenix, AZ 85023 ",85023,0.485007181763649,0.8652079403400421,0.4196320647838552,229900,https://www.zillow.com/homedetails/506-W-Beverly-Ln-Phoenix-AZ-85023/7965481_zpid/,33.6337,-112.081,6552,2017-12-09
332879,23849200,"5333 N 22nd Dr, Phoenix, AZ 85015 ",85015,0.5312994420528412,0.7897962331771851,0.4196182980224741,240000,https://www.zillow.com/homedetails/5333-N-22nd-Dr-Phoenix-AZ-85015/7764971_zpid/,33.5163,-112.10700000000001,6549,2017-12-06
834633,23845436,"3526 W Ocotillo Rd, Phoenix, AZ 85019 ",85019,0.5213520228862762,0.8040501475334167,0.4191931709185557,220000,https://www.zillow.com/homedetails/3526-W-Ocotillo-Rd-Phoenix-AZ-85019/7761449_zpid/,33.535,-112.13600000000001,6537,2017-11-24
350999,23875711,"6522 W Preston Ln, Phoenix, AZ 85043 ",85043,0.46152539551258087,0.9076817333698273,0.4189181709930545,230000,https://www.zillow.com/homedetails/6522-W-Preston-Ln-Phoenix-AZ-85043/62727413_zpid/,33.4236,-112.20100000000001,6561,2017-12-18
329291,23884491,"2402 W Stella Ln, Phoenix, AZ 85015 ",85015,0.48502905666828156,0.8632873892784119,0.41871946805533167,174900,https://www.zillow.com/homedetails/2402-W-Stella-Ln-Phoenix-AZ-85015/7772787_zpid/,33.5308,-112.11,6589,2018-01-15
386006,23854095,"1749 W Surrey Ave, Phoenix, AZ 85029 ",85029,0.49382661283016205,0.8474503457546234,0.4184935337857554,220000,https://www.zillow.com/homedetails/1749-W-Surrey-Ave-Phoenix-AZ-85029/7784365_zpid/,33.6053,-112.098,6555,2017-12-12
481948,23862444,"2520 N 51st Ln, Phoenix, AZ 85035 ",85035,0.48106957972049713,0.8694673478603363,0.41827429161586727,152000,https://www.zillow.com/homedetails/2520-N-51st-Ln-Phoenix-AZ-85035/7493069_zpid/,33.4755,-112.171,6578,2018-01-04
243287,22690475,"3218 W Angela Dr, Phoenix, AZ 85053 ",85053,0.48746852576732635,0.8576023876667023,0.41805417161042646,209000,https://www.zillow.com/homedetails/3218-W-Angela-Dr-Phoenix-AZ-85053/7942085_zpid/,33.6461,-112.12899999999999,6470,2017-09-18
8998472,23817219,"6708 W Highland Ave, Phoenix, AZ 85033 ",85033,0.4983094781637192,0.8388881683349609,0.4180259254007126,168500,https://www.zillow.com/homedetails/6708-W-Highland-Ave-Phoenix-AZ-85033/7716706_zpid/,33.5065,-112.204,6514,2017-11-01
392024,23860589,"4134 W Linger Ln, Phoenix, AZ 85051 ",85051,0.47409434616565704,0.8815890252590179,0.417956372516993,224900,https://www.zillow.com/homedetails/4134-W-Linger-Ln-Phoenix-AZ-85051/7755387_zpid/,33.5528,-112.148,6572,2017-12-29
349688,23875696,"6325 W Whyman Ave, Phoenix, AZ 85043 ",85043,0.46152539551258087,0.9054434895515442,0.4178851646295678,225000,https://www.zillow.com/homedetails/6325-W-Whyman-Ave-Phoenix-AZ-85043/53206198_zpid/,33.4269,-112.197,6579,2018-01-05
393911,23884959,"7111 N 27th Ln, Phoenix, AZ 85051 ",85051,0.4974331259727478,0.8394038677215576,0.4175472898743493,225000,https://www.zillow.com/homedetails/7111-N-27th-Ln-Phoenix-AZ-85051/81986825_zpid/,33.5411,-112.118,6561,2017-12-18
222394,23848564,"1010 W Campo Bello Dr, Phoenix, AZ 85023 ",85023,0.49848437309265137,0.8370465934276581,0.41725464637412557,199900,https://www.zillow.com/homedetails/1010-W-Campo-Bello-Dr-Phoenix-AZ-85023/7963596_zpid/,33.644,-112.087,6549,2017-12-06
1422266,23883525,"8164 W Sierra Vista Dr, Glendale, AZ 85303 ",85303,0.46216481924057007,0.8985559642314911,0.4152809547865832,239900,https://www.zillow.com/homedetails/8164-W-Sierra-Vista-Dr-Glendale-AZ-85303/7462584_zpid/,33.5315,-112.236,6579,2018-01-05
419794,23856376,"5539 W Hatcher Rd, Glendale, AZ 85302 ",85302,0.4753441661596298,0.8732382357120514,0.41508870101325135,204999,https://www.zillow.com/homedetails/5539-W-Hatcher-Rd-Glendale-AZ-85302/7734771_zpid/,33.5705,-112.179,6559,2017-12-16
410719,23854939,"4923 W Larkspur Dr, Glendale, AZ 85304 ",85304,0.48286858201026917,0.858348160982132,0.4144693593645643,236000,https://www.zillow.com/homedetails/4923-W-Larkspur-Dr-Glendale-AZ-85304/7954371_zpid/,33.5993,-112.165,6557,2017-12-14
416064,23818791,"4416 W Turquoise Ave, Glendale, AZ 85302 ",85302,0.5163507014513016,0.8010570406913757,0.4136263648634957,249900,https://www.zillow.com/homedetails/4416-W-Turquoise-Ave-Glendale-AZ-85302/7729268_zpid/,33.5757,-112.154,6515,2017-11-02
8972668,23857766,"3022 W Polk St, Phoenix, AZ 85009 ",85009,0.5353489816188812,0.7722187340259552,0.4134065128478168,239000,https://www.zillow.com/homedetails/3022-W-Polk-St-Phoenix-AZ-85009/71629217_zpid/,33.4533,-112.125,6564,2017-12-21
476829,23864061,"1614 N 53rd Dr, Phoenix, AZ 85035 ",85035,0.4728756695985794,0.8726704716682434,0.4126646336290287,159000,https://www.zillow.com/homedetails/1614-N-53rd-Dr-Phoenix-AZ-85035/7493815_zpid/,33.4668,-112.175,6582,2018-01-08
9011928,23753384,"7411 W Wolf St, Phoenix, AZ 85033 ",85033,0.4955230951309204,0.8327848315238953,0.4126641172948027,229900,https://www.zillow.com/homedetails/7411-W-Wolf-St-Phoenix-AZ-85033/95184996_zpid/,33.5059,-112.219,6494,2017-10-12
495328,23862682,"6239 W Encanto Blvd, Phoenix, AZ 85035 ",85035,0.4697228670120239,0.877760499715805,0.41230417847641476,153900,https://www.zillow.com/homedetails/6239-W-Encanto-Blvd-Phoenix-AZ-85035/7491160_zpid/,33.473,-112.195,6576,2018-01-02
434653,23866644,"7715 W Elm St, Phoenix, AZ 85033 ",85033,0.45984606444835663,0.8960327208042145,0.41203712027877115,175000,https://www.zillow.com/homedetails/7715-W-Elm-St-Phoenix-AZ-85033/7468202_zpid/,33.506,-112.226,6582,2018-01-08
225687,23849553,"1306 W Charleston Ave, Phoenix, AZ 85023 ",85023,0.49554669857025146,0.8314554989337921,0.4120250275047219,245000,https://www.zillow.com/homedetails/1306-W-Charleston-Ave-Phoenix-AZ-85023/7956977_zpid/,33.6491,-112.09,6550,2017-12-07
832662,23884685,"4236 W Palo Verde Dr, Phoenix, AZ 85019 ",85019,0.4620090126991272,0.8911373317241669,0.41171347880921694,219900,https://www.zillow.com/homedetails/4236-W-Palo-Verde-Dr-Phoenix-AZ-85019/7718989_zpid/,33.5232,-112.15100000000001,6576,2018-01-02
398944,22432872,"9409 N 36th Dr, Phoenix, AZ 85051 ",85051,0.5283062160015106,0.7783688008785248,0.4112170758457667,215000,https://www.zillow.com/homedetails/9409-N-36th-Dr-Phoenix-AZ-85051/7746677_zpid/,33.5717,-112.137,6330,2017-05-01
391768,23866394,"3152 W Shangri La Rd, Phoenix, AZ 85029 ",85029,0.47455573081970215,0.8641414046287537,0.41008325580516214,229999,https://www.zillow.com/homedetails/3152-W-Shangri-La-Rd-Phoenix-AZ-85029/7740605_zpid/,33.5881,-112.12799999999999,6577,2018-01-03
460325,23853200,"5810 W Avalon Dr, Phoenix, AZ 85031 ",85031,0.47550876438617706,0.8619906008243561,0.40988408551048794,150000,https://www.zillow.com/homedetails/5810-W-Avalon-Dr-Phoenix-AZ-85031/7490070_zpid/,33.484,-112.185,6551,2017-12-08
827683,22544155,"3017 N 40th Dr, Phoenix, AZ 85019 ",85019,0.49583928287029266,0.8265089094638824,0.4098155849544791,140000,https://www.zillow.com/homedetails/3017-N-40th-Dr-Phoenix-AZ-85019/7509168_zpid/,33.483000000000004,-112.146,6437,2017-08-16
379293,23843863,"2626 W Northview Ave, Phoenix, AZ 85051 ",85051,0.5095622837543488,0.8036591708660126,0.40951440246661175,134900,https://www.zillow.com/homedetails/2626-W-Northview-Ave-Phoenix-AZ-85051/7779482_zpid/,33.5439,-112.116,6542,2017-11-29
330587,22131299,"4508 N 17th Ave, Phoenix, AZ 85015 ",85015,0.5402560234069824,0.7578757703304291,0.4094469499152211,185000,https://www.zillow.com/homedetails/4508-N-17th-Ave-Phoenix-AZ-85015/7772361_zpid/,33.5027,-112.096,6321,2017-04-22
242590,22686911,"3202 W Angela Dr, Phoenix, AZ 85053 ",85053,0.4794613718986511,0.8535831272602081,0.4092601372257203,234900,https://www.zillow.com/homedetails/3202-W-Angela-Dr-Phoenix-AZ-85053/7942083_zpid/,33.6461,-112.12799999999999,6464,2017-09-12
347157,23863475,"17828 N 1ST St, Phoenix, AZ 85022 ",85022,0.48011237382888794,0.8520658910274506,0.40908737759981584,104990,https://www.zillow.com/homedetails/17828-N-1st-St-Phoenix-AZ-85022/7956061_zpid/,33.6483,-112.074,6567,2017-12-24
388525,23864545,"2330 W Columbine Dr, Phoenix, AZ 85029 ",85029,0.4622539132833481,0.8842525780200958,0.40874921452067836,199900,https://www.zillow.com/homedetails/2330-W-Columbine-Dr-Phoenix-AZ-85029/7738746_zpid/,33.5996,-112.109,6584,2018-01-10
395130,23830853,"3719 W Joan De Arc Ave, Phoenix, AZ 85029 ",85029,0.5012918412685394,0.8150531053543091,0.40857947191470245,205900,https://www.zillow.com/homedetails/3719-W-Joan-De-Arc-Ave-Phoenix-AZ-85029/7741718_zpid/,33.607,-112.139,6526,2017-11-13
1410517,23856547,"7108 N 73rd Dr, Glendale, AZ 85303 ",85303,0.4777331054210663,0.8544909656047821,0.4082186225526181,222000,https://www.zillow.com/homedetails/7108-N-73rd-Dr-Glendale-AZ-85303/82823489_zpid/,33.5387,-112.21700000000001,6532,2017-11-19
330099,22738563,"3820 N 23rd Ave, Phoenix, AZ 85015 ",85015,0.498754546046257,0.817224383354187,0.40759437633774986,245000,https://www.zillow.com/homedetails/3820-N-23rd-Ave-Phoenix-AZ-85015/7516043_zpid/,33.4921,-112.10799999999999,6487,2017-10-05
434601,23841755,"1838 N 83rd Ln, Phoenix, AZ 85037 ",85037,0.4711840748786926,0.8648412823677063,0.4074994395493299,195000,https://www.zillow.com/homedetails/1838-N-83rd-Ln-Phoenix-AZ-85037/7487940_zpid/,33.4683,-112.24,6536,2017-11-23
469895,23526992,"3401 W Tuckey Ln, Phoenix, AZ 85017 ",85017,0.5213520228862762,0.7813507318496704,0.40735878463349806,169000,https://www.zillow.com/homedetails/3401-W-Tuckey-Ln-Phoenix-AZ-85017/7760733_zpid/,33.5332,-112.132,6493,2017-10-11
392666,23759961,"4208 W El Camino Dr, Phoenix, AZ 85051 ",85051,0.509572833776474,0.79936683177948,0.4073356216967916,215000,https://www.zillow.com/homedetails/4208-W-El-Camino-Dr-Phoenix-AZ-85051/7752812_zpid/,33.5573,-112.15,6503,2017-10-21
9019399,23864514,"15032 N 26th St, Phoenix, AZ 85032 ",85032,0.47870929539203644,0.8508314490318298,0.4073009234634126,238000,https://www.zillow.com/homedetails/15032-N-26th-St-Phoenix-AZ-85032/8013907_zpid/,33.6237,-112.027,6584,2018-01-10
392265,23884716,"4144 W Northview Ave, Phoenix, AZ 85051 ",85051,0.4489256739616394,0.9071588814258575,0.40724691223439,200000,https://www.zillow.com/homedetails/4144-W-Northview-Ave-Phoenix-AZ-85051/7756481_zpid/,33.5444,-112.149,6586,2018-01-12
390477,23864565,"3018 W Lupine Ave, Phoenix, AZ 85029 ",85029,0.48118428885936737,0.8443245887756348,0.4062757268164816,230000,https://www.zillow.com/homedetails/3018-W-Lupine-Ave-Phoenix-AZ-85029/7739937_zpid/,33.5913,-112.124,6584,2018-01-10
1372616,23883622,"8549 W Tuckey Ln, Glendale, AZ 85305 ",85305,0.46216481924057007,0.8789193630218506,0.40620560853803056,206000,https://www.zillow.com/homedetails/8549-W-Tuckey-Ln-Glendale-AZ-85305/7461499_zpid/,33.533,-112.245,6532,2017-11-19
225614,23844378,"1303 W Michelle Dr, Phoenix, AZ 85023 ",85023,0.49554669857025146,0.8187121152877808,0.40571008581032686,249900,https://www.zillow.com/homedetails/1303-W-Michelle-Dr-Phoenix-AZ-85023/7956957_zpid/,33.6494,-112.09,6543,2017-11-30
465370,23866376,"2933 W Bethany Home Rd, Phoenix, AZ 85017 ",85017,0.48443804681301117,0.8370442390441895,0.40549607625865036,170000,https://www.zillow.com/homedetails/2933-W-Bethany-Home-Rd-Phoenix-AZ-85017/7762760_zpid/,33.5238,-112.12299999999999,6585,2018-01-11
9029837,23905016,"8053 W Caron Dr, Peoria, AZ 85345 ",85345,0.4529614895582199,0.8946427702903748,0.4052387218532205,169000,https://www.zillow.com/homedetails/8053-W-Caron-Dr-Peoria-AZ-85345/50187192_zpid/,33.5672,-112.23200000000001,6583,2018-01-09
258179,23864232,"417 W Renee Dr, Phoenix, AZ 85027 ",85027,0.4464840143918991,0.9073262214660645,0.40510665372320176,205000,https://www.zillow.com/homedetails/417-W-Renee-Dr-Phoenix-AZ-85027/7972590_zpid/,33.6551,-112.08,6583,2018-01-09
522482,23866699,"9013 W Virginia Ave, Phoenix, AZ 85037 ",85037,0.44477640092372894,0.9095722138881683,0.4045562556734077,174900,https://www.zillow.com/homedetails/9013-W-Virginia-Ave-Phoenix-AZ-85037/7473884_zpid/,33.4743,-112.25399999999999,6583,2018-01-09
337572,23850351,"2307 W Alice Ave, Phoenix, AZ 85021 ",85021,0.4920351803302765,0.8212335705757141,0.40407580799149834,211900,https://www.zillow.com/homedetails/2307-W-Alice-Ave-Phoenix-AZ-85021/7782260_zpid/,33.5637,-112.109,6551,2017-12-08
481915,23852927,"2518 N 67TH Dr, Phoenix, AZ 85035 ",85035,0.4697228670120239,0.8595870137214661,0.403767676531551,145000,https://www.zillow.com/homedetails/2518-N-67th-Dr-Phoenix-AZ-85035/7475839_zpid/,33.4762,-112.204,6551,2017-12-08
9020422,23864586,"4227 N 11th Pl, Phoenix, AZ 85014 ",85014,0.500010222196579,0.8074071705341339,0.40371183874188343,232900,https://www.zillow.com/homedetails/4227-N-11th-Pl-Phoenix-AZ-85014/7769603_zpid/,33.4974,-112.057,6584,2018-01-10
390056,23864177,"2917 W Aster Dr, Phoenix, AZ 85029 ",85029,0.4726203382015228,0.8541706800460815,0.4036984356852038,199700,https://www.zillow.com/homedetails/2917-W-Aster-Dr-Phoenix-AZ-85029/7741102_zpid/,33.6021,-112.12200000000001,6582,2018-01-08
459700,22721620,"5715 W Roma Ave, Phoenix, AZ 85031 ",85031,0.4818222373723984,0.8377171754837036,0.40363076377684415,139900,https://www.zillow.com/homedetails/5715-W-Roma-Ave-Phoenix-AZ-85031/7712868_zpid/,33.4993,-112.18299999999999,6478,2017-09-26
9022649,23862722,"7133 W Mountain View Rd, Peoria, AZ 85345 ",85345,0.4513009488582611,0.8942607939243317,0.4035807448247928,205000,https://www.zillow.com/homedetails/7133-W-Mountain-View-Rd-Peoria-AZ-85345/7702397_zpid/,33.5743,-112.213,6576,2018-01-02
394581,23831766,"3626 W Rue De Lamour Ave, Phoenix, AZ 85029 ",85029,0.5095724761486053,0.7902761697769165,0.402702984674459,199900,https://www.zillow.com/homedetails/3626-W-Rue-De-Lamour-Ave-Phoenix-AZ-85029/7741437_zpid/,33.6102,-112.137,6522,2017-11-09
425566,23374604,"3339 N 80th Dr, Phoenix, AZ 85033 ",85033,0.5006204545497894,0.8041132390499115,0.4025555352426702,179500,http://www.zillow.com/homedetails/3339-N-80th-Dr-Phoenix-AZ-85033/7479414_zpid,33.4867,-112.23200000000001,6369,2017-06-09
491289,23853212,"5551 W Wilshire Dr, Phoenix, AZ 85035 ",85035,0.4793769419193268,0.8397090435028076,0.40253715337637885,187900,https://www.zillow.com/homedetails/5551-W-Wilshire-Dr-Phoenix-AZ-85035/7491935_zpid/,33.4756,-112.18,6538,2017-11-25
242869,23862343,"18216 N 24TH Dr, Phoenix, AZ 85023 ",85023,0.47366586327552795,0.849626213312149,0.40243893379001694,197899,https://www.zillow.com/homedetails/18216-N-24th-Dr-Phoenix-AZ-85023/7957934_zpid/,33.6523,-112.111,6576,2018-01-02
336868,23820918,"2122 W Glendale Ave, Phoenix, AZ 85021 ",85021,0.4900289624929428,0.821249932050705,0.40243625215020673,208400,https://www.zillow.com/homedetails/2122-W-Glendale-Ave-Phoenix-AZ-85021/7778952_zpid/,33.5389,-112.105,6516,2017-11-03
556883,23809047,"2529 N 40th Ave, Phoenix, AZ 85009 ",85009,0.48936374485492706,0.8223612904548645,0.4024338007207229,149899,https://www.zillow.com/homedetails/2529-N-40th-Ave-Phoenix-AZ-85009/88889007_zpid/,33.4758,-112.146,6508,2017-10-26
233636,23869963,"19201 N 21ST Ave, Phoenix, AZ 85027 ",85027,0.45919741690158844,0.8762678802013397,0.40237994710228575,220000,https://www.zillow.com/homedetails/19201-N-21st-Ave-Phoenix-AZ-85027/7970134_zpid/,33.6596,-112.105,6585,2018-01-11
8989019,22747254,"2049 N 77th Gln, Phoenix, AZ 85035 ",85035,0.4711840748786926,0.8536792099475861,0.40224004878232655,168250,https://www.zillow.com/homedetails/2049-N-77th-Gln-Phoenix-AZ-85035/95149994_zpid/,33.4706,-112.226,6487,2017-10-05
9017497,23847149,"3044 E Roosevelt St, Phoenix, AZ 85008 ",85008,0.5175821781158447,0.7768203020095825,0.40206834391872803,239900,https://www.zillow.com/homedetails/3044-E-Roosevelt-St-Phoenix-AZ-85008/2098123425_zpid/,33.4588,-112.015,6546,2017-12-03
329473,23888921,"2430 W Luke Ave, Phoenix, AZ 85015 ",85015,0.5337837636470795,0.7530497610569,0.401965735670486,140000,https://www.zillow.com/homedetails/2430-W-Luke-Ave-Phoenix-AZ-85015/7763699_zpid/,33.5189,-112.11200000000001,6563,2017-12-20
8946285,22054871,"1612 W Andorra Dr, Phoenix, AZ 85029 ",85029,0.5034635215997696,0.79691281914711,0.4012165343358043,219900,https://www.zillow.com/homedetails/1612-W-Andorra-Dr-Phoenix-AZ-85029/7784242_zpid/,33.6066,-112.094,6380,2017-06-20
484854,23817893,"2833 N 73RD Dr, Phoenix, AZ 85035 ",85035,0.4761485159397125,0.8426183760166168,0.40121148924384276,190000,https://www.zillow.com/homedetails/2833-N-73rd-Dr-Phoenix-AZ-85035/92692586_zpid/,33.4796,-112.21600000000001,6514,2017-11-01
412003,23883799,"5331 W Voltaire Dr, Glendale, AZ 85304 ",85304,0.4499114751815796,0.8915055692195892,0.4010985857801792,206000,https://www.zillow.com/homedetails/5331-W-Voltaire-Dr-Glendale-AZ-85304/7911791_zpid/,33.6084,-112.17399999999999,6572,2017-12-29
8952180,23860567,"3408 N 67TH Ln, Phoenix, AZ 85033 ",85033,0.44478167593479156,0.9016934633255005,0.4010567297973626,195000,https://www.zillow.com/homedetails/3408-N-67th-Ln-Phoenix-AZ-85033/7485759_zpid/,33.4878,-112.205,6570,2017-12-27
350131,22705127,"6405 W Preston Ln, Phoenix, AZ 85043 ",85043,0.46152539551258087,0.8689202964305878,0.40102878347903603,187000,https://www.zillow.com/homedetails/6405-W-Preston-Ln-Phoenix-AZ-85043/55257428_zpid/,33.4235,-112.198,6474,2017-09-22
233458,23864530,"18230 N 33RD Ave, Phoenix, AZ 85053 ",85053,0.44017618894577026,0.9110093712806702,0.40100463314420765,179900,https://www.zillow.com/homedetails/18230-N-33rd-Ave-Phoenix-AZ-85053/7941211_zpid/,33.652,-112.13,6584,2018-01-10
9024486,23843769,"6743 W Roma Ave, Phoenix, AZ 85033 ",85033,0.4818222373723984,0.8317922353744507,0.40077599587710644,135000,https://www.zillow.com/homedetails/6743-W-Roma-Ave-Phoenix-AZ-85033/7717104_zpid/,33.5015,-112.205,6542,2017-11-29
419470,23882476,"5428 W Puget Ave, Glendale, AZ 85302 ",85302,0.46062467992305756,0.8694928288459778,0.4005098559825724,180000,https://www.zillow.com/homedetails/5428-W-Puget-Ave-Glendale-AZ-85302/7733603_zpid/,33.567,-112.177,6559,2017-12-16
8990554,23839230,"3845 N 59th Ave, Phoenix, AZ 85033 ",85033,0.4983094781637192,0.8033949732780457,0.40033932989353804,176000,https://www.zillow.com/homedetails/3845-N-59th-Ave-Phoenix-AZ-85033/7496809_zpid/,33.493,-112.186,6531,2017-11-18
9026261,23865254,"2153 W Joan De Arc Ave, Phoenix, AZ 85029 ",85029,0.45750942826271057,0.8749194443225861,0.4002838947479548,195000,https://www.zillow.com/homedetails/2153-W-Joan-De-Arc-Ave-Phoenix-AZ-85029/7749859_zpid/,33.6072,-112.10600000000001,6585,2018-01-11
416186,23888950,"4431 W Mission Ln, Glendale, AZ 85302 ",85302,0.45186586678028107,0.8854629099369049,0.4001104653004295,182500,https://www.zillow.com/homedetails/4431-W-Mission-Ln-Glendale-AZ-85302/7729651_zpid/,33.5689,-112.156,6588,2018-01-14
9021439,23856224,"17630 N 33RD Ln, Phoenix, AZ 85053 ",85053,0.4665256291627884,0.8571678698062897,0.3998907797595064,215000,https://www.zillow.com/homedetails/17630-N-33rd-Ln-Phoenix-AZ-85053/7942069_zpid/,33.6462,-112.131,6558,2017-12-15
246567,22745687,"3407 W Port Au Prince Ln, Phoenix, AZ 85053 ",85053,0.4859522730112076,0.8226552307605743,0.3997711792926606,175000,https://www.zillow.com/homedetails/3407-W-Port-Au-Prince-Ln-Phoenix-AZ-85053/7943671_zpid/,33.6229,-112.132,6491,2017-10-09
454952,23752844,"4630 W Indianola Ave, Phoenix, AZ 85031 ",85031,0.4893023520708084,0.8169615566730499,0.3997412112315524,159000,https://www.zillow.com/homedetails/4630-W-Indianola-Ave-Phoenix-AZ-85031/7508079_zpid/,33.4927,-112.15899999999999,6497,2017-10-15
1346962,23823701,"4935 W Lamar Rd, Glendale, AZ 85301 ",85301,0.4979715645313263,0.8024364709854126,0.39959054489360213,149900,https://www.zillow.com/homedetails/4935-W-Lamar-Rd-Glendale-AZ-85301/7722382_zpid/,33.5365,-112.166,6520,2017-11-07
152639,23860420,"1133 N Granite Reef Rd, Scottsdale, AZ 85257 ",85257,0.4985152781009674,0.8010869026184082,0.39935406004185836,139500,https://www.zillow.com/homedetails/1133-N-Granite-Reef-Rd-Scottsdale-AZ-85257/7577718_zpid/,33.4606,-111.9,6546,2017-12-03
316133,23865426,"435 N 17TH Ave, Phoenix, AZ 85007 ",85007,0.5006826967000961,0.7971331775188446,0.39911078894925156,169000,https://www.zillow.com/homedetails/435-N-17th-Ave-Phoenix-AZ-85007/7521605_zpid/,33.4546,-112.095,6585,2018-01-11
9022111,23817234,"7629 N 44th Dr, Glendale, AZ 85301 ",85301,0.49171577394008636,0.8116438984870911,0.3990981077083289,195000,https://www.zillow.com/homedetails/7629-N-44th-Dr-Glendale-AZ-85301/7725279_zpid/,33.5492,-112.155,6514,2017-11-01
9011933,22678376,"7934 W Mitchell Dr, Phoenix, AZ 85033 ",85033,0.4872068464756012,0.8185426890850067,0.39879960225476463,155000,https://www.zillow.com/homedetails/7934-W-Mitchell-Dr-Phoenix-AZ-85033/7478637_zpid/,33.4893,-112.23,6464,2017-09-12
495290,23854344,"6237 W Monte Vista Rd, Phoenix, AZ 85035 ",85035,0.4626029133796692,0.8619792461395264,0.39875411053695586,178900,https://www.zillow.com/homedetails/6237-W-Monte-Vista-Rd-Phoenix-AZ-85035/7491037_zpid/,33.4705,-112.194,6554,2017-12-11
329444,22745740,"2423 W San Miguel Ave, Phoenix, AZ 85015 ",85015,0.5337837636470795,0.7466111779212952,0.3985289245318082,178800,https://www.zillow.com/homedetails/2423-W-San-Miguel-Ave-Phoenix-AZ-85015/7763696_zpid/,33.5193,-112.11200000000001,6488,2017-10-06
388700,23829780,"2353 W Cortez St, Phoenix, AZ 85029 ",85029,0.5040194392204285,0.79024738073349,0.39830004168270605,173500,https://www.zillow.com/homedetails/2353-W-Cortez-St-Phoenix-AZ-85029/7749270_zpid/,33.5905,-112.11,6523,2017-11-10
413890,23882883,"6209 W Bloomfield Rd, Glendale, AZ 85304 ",85304,0.4499114751815796,0.8849011957645416,0.39812720237636867,225000,https://www.zillow.com/homedetails/6209-W-Bloomfield-Rd-Glendale-AZ-85304/7912238_zpid/,33.5984,-112.19200000000001,6561,2017-12-18
9021200,23846457,"3819 N 63RD Ave, Phoenix, AZ 85033 ",85033,0.47182488441467285,0.8435540497303009,0.3980097920115284,164900,https://www.zillow.com/homedetails/3819-N-63rd-Ave-Phoenix-AZ-85033/7496525_zpid/,33.4925,-112.195,6543,2017-11-30
9023846,23854245,"3711 W Catalina Dr, Phoenix, AZ 85019 ",85019,0.47374221682548523,0.840048611164093,0.3979664912940475,168900,https://www.zillow.com/homedetails/3711-W-Catalina-Dr-Phoenix-AZ-85019/7507461_zpid/,33.4821,-112.139,6556,2017-12-13
314137,23854820,"1718 W Cocopah St, Phoenix, AZ 85007 ",85007,0.4910084903240204,0.8101204633712769,0.3977760257005265,154900,https://www.zillow.com/homedetails/1718-W-Cocopah-St-Phoenix-AZ-85007/7501240_zpid/,33.4318,-112.096,6557,2017-12-14
834955,22429468,"3614 W Sierra Vista Dr, Phoenix, AZ 85019",85019,0.5213520228862762,0.7606574296951294,0.39657028969503116,175000,"https://mcassessor.maricopa.gov/mcs.php?q=3614 W Sierra Vista Dr, Phoenix, AZ 85019",33.5322,-112.137,6327,2017-04-28
460480,23866544,"5823 W Pierson St, Phoenix, AZ 85031 ",85031,0.4501003175973892,0.8808819651603699,0.3964852522844948,204900,https://www.zillow.com/homedetails/5823-W-Pierson-St-Phoenix-AZ-85031/7713410_zpid/,33.5086,-112.185,6585,2018-01-11
483971,22688771,"2734 N 73rd Gln, Phoenix, AZ 85035 ",85035,0.4776596128940582,0.8296509385108948,0.3962907461263061,209900,https://www.zillow.com/homedetails/2734-N-73rd-Gln-Phoenix-AZ-85035/95167972_zpid/,33.4783,-112.21799999999999,6470,2017-09-18
402883,23865219,"12215 N 47TH Ln, Glendale, AZ 85304 ",85304,0.46507999300956726,0.8515327274799347,0.39603083494378577,249900,https://www.zillow.com/homedetails/12215-N-47th-Ln-Glendale-AZ-85304/7954296_zpid/,33.597,-112.161,6582,2018-01-08
484005,23821708,"2696 N 73RD Gln, Phoenix, AZ 85035 ",85035,0.4776596128940582,0.8289418518543243,0.39595204406842033,210000,https://www.zillow.com/homedetails/2696-N-73rd-Gln-Phoenix-AZ-85035/95155175_zpid/,33.4779,-112.21799999999999,6513,2017-10-31
8959309,23803780,"4201 W Mission Ln, Phoenix, AZ 85051 ",85051,0.5003805011510849,0.7913010716438293,0.39595162679052986,219000,https://www.zillow.com/homedetails/4201-W-Mission-Ln-Phoenix-AZ-85051/7746195_zpid/,33.5703,-112.149,6501,2017-10-19
350177,22541766,"6408 W Cordes Rd, Phoenix, AZ 85043 ",85043,0.46152539551258087,0.8574080467224121,0.39571558787923067,169900,https://www.zillow.com/homedetails/6408-W-Cordes-Rd-Phoenix-AZ-85043/49641248_zpid/,33.4216,-112.197,6442,2017-08-21
410898,23823665,"5031 W Windrose Dr, Glendale, AZ 85304 ",85304,0.48286858201026917,0.8189986348152161,0.39546870946156965,229000,https://www.zillow.com/homedetails/5031-W-Windrose-Dr-Glendale-AZ-85304/7954728_zpid/,33.6006,-112.167,6521,2017-11-08
561112,23847992,"1043 W Frito Ave, Mesa, AZ 85210 ",85210,0.5014340728521347,0.7876000702381134,0.39492951099812457,195000,https://www.zillow.com/homedetails/1043-W-Frito-Ave-Mesa-AZ-85210/7598695_zpid/,33.3951,-111.854,6543,2017-11-30
422815,23883544,"8324 N 56th Ln, Glendale, AZ 85302 ",85302,0.4423145055770874,0.89098060131073,0.39409364414753156,242900,https://www.zillow.com/homedetails/8324-N-56th-Ln-Glendale-AZ-85302/7732897_zpid/,33.5576,-112.181,6568,2017-12-25
384614,23864029,"13636 N 18TH Dr, Phoenix, AZ 85029 ",85029,0.45443716645240784,0.8660464882850647,0.3935637121523232,189500,https://www.zillow.com/homedetails/13636-N-18th-Dr-Phoenix-AZ-85029/7784603_zpid/,33.6108,-112.09899999999999,6583,2018-01-09
17178,23846249,"14813 N 35TH St, Phoenix, AZ 85032 ",85032,0.49712754786014557,0.7905315160751343,0.39299499409259475,199900,https://www.zillow.com/homedetails/14813-N-35th-St-Phoenix-AZ-85032/8014278_zpid/,33.6214,-112.006,6543,2017-11-30
493050,23849853,"5901 W Cypress St, Phoenix, AZ 85035 ",85035,0.4626029133796692,0.8490579128265381,0.3927766641016177,184500,https://www.zillow.com/homedetails/5901-W-Cypress-St-Phoenix-AZ-85035/7491471_zpid/,33.4723,-112.18700000000001,6550,2017-12-07
395883,23835126,"3830 W Sharon Ave, Phoenix, AZ 85029 ",85029,0.48286858201026917,0.8133152425289154,0.39272437788727554,179900,https://www.zillow.com/homedetails/3830-W-Sharon-Ave-Phoenix-AZ-85029/7741516_zpid/,33.6095,-112.14200000000001,6530,2017-11-17
1410681,23883266,"7115 N 77TH Ave, Glendale, AZ 85303 ",85303,0.44043782353401184,0.8914677798748016,0.3926361287187552,165000,https://www.zillow.com/homedetails/7115-N-77TH-Ave-Glendale-AZ-85303/7684823_zpid/,33.54,-112.22399999999999,6586,2018-01-12
9019232,23843081,"3428 E Sheridan St, Phoenix, AZ 85008 ",85008,0.5223660469055176,0.7500936388969421,0.39182344895957044,240000,https://www.zillow.com/homedetails/3428-E-Sheridan-St-Phoenix-AZ-85008/7541233_zpid/,33.4752,-112.007,6540,2017-11-27
9026628,23892890,"9702 W Campana Dr, Sun City, AZ 85351 ",85351,0.43220609426498413,0.9052600860595703,0.3912589260897903,185950,https://www.zillow.com/homedetails/9702-W-Campana-Dr-Sun-City-AZ-85351/7904989_zpid/,33.6372,-112.26899999999999,6578,2018-01-04
9015572,23864377,"9416 W Madison St, Tolleson, AZ 85353 ",85353,0.4352767914533615,0.8981448411941528,0.39094160473537976,149000,https://www.zillow.com/homedetails/9416-W-Madison-St-Tolleson-AZ-85353/7460136_zpid/,33.4454,-112.264,6582,2018-01-08
1094985,23886129,"825 W Temple St, Chandler, AZ 85225 ",85225,0.4375436156988144,0.8934223055839539,0.3909112259311742,230000,https://www.zillow.com/homedetails/825-W-Temple-St-Chandler-AZ-85225/8183622_zpid/,33.3326,-111.85700000000001,6591,2018-01-17
8976262,22541368,"2918 E Nisbet Ct, Phoenix, AZ 85032 ",85032,0.49041590094566345,0.7967893481254578,0.39075816602485425,219500,https://www.zillow.com/homedetails/2918-E-Nisbet-Ct-Phoenix-AZ-85032/8011642_zpid/,33.6234,-112.01899999999999,6440,2017-08-19
1091759,23886133,"701 W Dublin St, Chandler, AZ 85225 ",85225,0.43354469537734985,0.9009829759597778,0.39061638985266,225000,https://www.zillow.com/homedetails/701-W-Dublin-St-Chandler-AZ-85225/8189377_zpid/,33.3186,-111.853,6588,2018-01-14
9013787,22693106,"5647 W Villa Theresa Dr, Glendale, AZ 85308 ",85308,0.4664223790168762,0.8348709642887115,0.38940250133565435,210000,https://www.zillow.com/homedetails/5647-W-Villa-Theresa-Dr-Glendale-AZ-85308/7901269_zpid/,33.6537,-112.182,6471,2017-09-19
417420,23882392,"4809 W Laurie Ln, Glendale, AZ 85302 ",85302,0.4622413069009781,0.8412599563598633,0.388865101671243,243000,https://www.zillow.com/homedetails/4809-W-Laurie-Ln-Glendale-AZ-85302/7731926_zpid/,33.5587,-112.163,6556,2017-12-13
415049,23846150,"10006 N 66TH Ave, Glendale, AZ 85302 ",85302,0.4577764868736267,0.849129855632782,0.38871168221108476,199000,https://www.zillow.com/homedetails/10006-N-66th-Ave-Glendale-AZ-85302/7706542_zpid/,33.5765,-112.20100000000001,6544,2017-12-01
9025829,23859165,"4109 E Winchcomb Dr, Phoenix, AZ 85032 ",85032,0.5010919719934464,0.775049239397049,0.38837095176148795,185000,https://www.zillow.com/homedetails/4109-E-Winchcomb-Dr-Phoenix-AZ-85032/8030117_zpid/,33.617,-111.993,6558,2017-12-15
422985,23883576,"8419 N 58th Dr, Glendale, AZ 85302 ",85302,0.4423145055770874,0.8779760003089905,0.38834152048521986,225000,https://www.zillow.com/homedetails/8419-N-58th-Dr-Glendale-AZ-85302/7733078_zpid/,33.559,-112.185,6583,2018-01-09
534315,23853548,"1914 W Granada Rd, Phoenix, AZ 85009 ",85009,0.4726891666650772,0.820375919342041,0.38778280966588596,189000,https://www.zillow.com/homedetails/1914-W-Granada-Rd-Phoenix-AZ-85009/7519853_zpid/,33.4686,-112.101,6549,2017-12-06
383781,22501929,"3339 W Malapai Dr, Phoenix, AZ 85051 ",85051,0.4954686611890793,0.7818569540977478,0.3873856182881825,244900,https://www.zillow.com/homedetails/3339-W-Malapai-Dr-Phoenix-AZ-85051/7739353_zpid/,33.5756,-112.131,6433,2017-08-12
9025718,23861001,"2944 W Villa Theresa Dr, Phoenix, AZ 85053 ",85053,0.4448131173849106,0.8708586990833282,0.387369372741023,210000,https://www.zillow.com/homedetails/2944-W-Villa-Theresa-Dr-Phoenix-AZ-85053/7940561_zpid/,33.6541,-112.12299999999999,6573,2017-12-30
469201,23884532,"3319 W Marshall Ave, Phoenix, AZ 85017 ",85017,0.44783639907836914,0.8643894195556641,0.38710504505525023,139900,https://www.zillow.com/homedetails/3319-W-Marshall-Ave-Phoenix-AZ-85017/7764420_zpid/,33.5173,-112.131,6591,2018-01-17
423007,23883750,"8427 N 47th Dr, Glendale, AZ 85302 ",85302,0.45655201375484467,0.847796767950058,0.3870633216624477,246999,https://www.zillow.com/homedetails/8427-N-47th-Dr-Glendale-AZ-85302/7731867_zpid/,33.5593,-112.161,6578,2018-01-04
9004345,23865832,"6818 W Highland Ave, Phoenix, AZ 85033 ",85033,0.4271772652864456,0.9057362973690033,0.3869099545807617,179500,https://www.zillow.com/homedetails/6818-W-Highland-Ave-Phoenix-AZ-85033/7716694_zpid/,33.5063,-112.206,6586,2018-01-12
331776,22565895,"10418 N 18TH Ave, Phoenix, AZ 85021 ",85021,0.5131500512361526,0.7538845539093018,0.3868558974647023,199000,https://www.zillow.com/homedetails/10418-N-18th-Ave-Phoenix-AZ-85021/7781375_zpid/,33.5813,-112.098,6444,2017-08-23
149903,23800141,"8309 E Indian School Rd, Scottsdale, AZ 85251 ",85251,0.49935536086559296,0.774623453617096,0.38681237421591685,239850,https://www.zillow.com/homedetails/8309-E-Indian-School-Rd-Scottsdale-AZ-85251/7577019_zpid/,33.4948,-111.902,6497,2017-10-15
696959,23846396,"2938 W Almeria Rd, Phoenix, AZ 85009 ",85009,0.5072833001613617,0.7621845901012421,0.3866435141986928,129900,https://www.zillow.com/homedetails/2938-W-Almeria-Rd-Phoenix-AZ-85009/7512219_zpid/,33.4672,-112.12299999999999,6543,2017-11-30
411351,23831053,"5194 W Paradise Dr, Glendale, AZ 85304 ",85304,0.48286858201026917,0.8000647127628326,0.3863261133682423,214900,https://www.zillow.com/homedetails/5194-W-Paradise-Dr-Glendale-AZ-85304/60978690_zpid/,33.5953,-112.171,6526,2017-11-13
1350982,23882685,"5854 W Morten Ave, Glendale, AZ 85301 ",85301,0.4658108800649643,0.8287168741226196,0.3860253364597437,179000,https://www.zillow.com/homedetails/5854-W-Morten-Ave-Glendale-AZ-85301/7726731_zpid/,33.5479,-112.186,6544,2017-12-01
441326,23862512,"3042 N 87TH Ave, Phoenix, AZ 85037 ",85037,0.43360309302806854,0.8900973498821259,0.3859489640049767,199999,https://www.zillow.com/homedetails/3042-N-87th-Ave-Phoenix-AZ-85037/7479842_zpid/,33.483000000000004,-112.24700000000001,6578,2018-01-04
381842,23829311,"12409 N 36th Dr, Phoenix, AZ 85029 ",85029,0.4713207930326462,0.8187148869037628,0.3858773497631147,174900,https://www.zillow.com/homedetails/12409-N-36th-Dr-Phoenix-AZ-85029/7743051_zpid/,33.5986,-112.13600000000001,6424,2017-08-03
405758,23864265,"4841 W Paradise Ln, Glendale, AZ 85306 ",85306,0.432524174451828,0.8918937742710114,0.3857656184152942,249999,https://www.zillow.com/homedetails/4841-W-Paradise-Ln-Glendale-AZ-85306/7951435_zpid/,33.6321,-112.163,6579,2018-01-05
312249,23814876,"1433 S 14th Ave, Phoenix, AZ 85007 ",85007,0.5079432725906372,0.7594211101531982,0.3857428439656303,174900,https://www.zillow.com/homedetails/1433-S-14th-Ave-Phoenix-AZ-85007/7500688_zpid/,33.4338,-112.09,6511,2017-10-29
230832,23863481,"19209 N 6th St, Phoenix, AZ 85024 ",85024,0.4464840143918991,0.8635823726654053,0.3855757245057312,235000,https://www.zillow.com/homedetails/19209-N-6th-St-Phoenix-AZ-85024/7972480_zpid/,33.6606,-112.066,6581,2018-01-07
440994,23821180,"8228 W Fairmount Ave, Phoenix, AZ 85033 ",85033,0.4711080491542816,0.8183175325393677,0.3855159763433669,167000,https://www.zillow.com/homedetails/8228-W-Fairmount-Ave-Phoenix-AZ-85033/7478785_zpid/,33.4907,-112.23700000000001,6517,2017-11-04
407925,23791005,"6023 W Redfield Rd, Glendale, AZ 85306 ",85306,0.4761311411857605,0.8093990981578827,0.38538011628063806,179900,https://www.zillow.com/homedetails/6023-W-Redfield-Rd-Glendale-AZ-85306/7910719_zpid/,33.6135,-112.18799999999999,6309,2017-04-10
1356715,23883331,"7327 N 47th Ave, Glendale, AZ 85301 ",85301,0.46901650726795197,0.8211293518543243,0.3851232206219124,189500,https://www.zillow.com/homedetails/7327-N-47th-Ave-Glendale-AZ-85301/7725576_zpid/,33.545,-112.16,6523,2017-11-10
556266,23783983,"2325 N 28th Pl, Phoenix, AZ 85008 ",85008,0.5158882141113281,0.7463632225990295,0.385039989984989,144000,https://www.zillow.com/homedetails/2325-N-28th-Pl-Phoenix-AZ-85008/7542977_zpid/,33.4742,-112.02,6305,2017-04-06
8964694,23800320,"9084 N 80th Ln, Peoria, AZ 85345 ",85345,0.4529614895582199,0.8490608036518097,0.384591846347623,170000,https://www.zillow.com/homedetails/9084-N-80th-Ln-Peoria-AZ-85345/50187199_zpid/,33.5677,-112.23299999999999,6422,2017-08-01
403812,23864058,"16025 N 47TH Dr, Glendale, AZ 85306 ",85306,0.44244928658008575,0.869011402130127,0.3844934749024347,240000,https://www.zillow.com/homedetails/16025-N-47TH-Dr-Glendale-AZ-85306/7951382_zpid/,33.6308,-112.161,6581,2018-01-07
486164,22539632,"4802 W Encanto Blvd, Phoenix, AZ 85035 ",85035,0.48936374485492706,0.7856108546257019,0.3844494698183132,148000,https://www.zillow.com/homedetails/4802-W-Encanto-Blvd-Phoenix-AZ-85035/7499173_zpid/,33.4734,-112.163,6437,2017-08-16
394310,23786762,"3560 W Wood Dr, Phoenix, AZ 85029 ",85029,0.5037564188241959,0.7628406882286072,0.38428589323542806,230000,https://www.zillow.com/homedetails/3560-W-Wood-Dr-Phoenix-AZ-85029/7741612_zpid/,33.6044,-112.137,6308,2017-04-09
436097,23866308,"2311 N 91st Gln, Phoenix, AZ 85037 ",85037,0.44477640092372894,0.8638721406459808,0.38422994157479673,239900,https://www.zillow.com/homedetails/2311-N-91st-Gln-Phoenix-AZ-85037/60974969_zpid/,33.4747,-112.257,6579,2018-01-05
1356244,23823740,"6825 N 60th Ave, Glendale, AZ 85301 ",85301,0.4697228670120239,0.817243903875351,0.38387814957642874,182000,https://www.zillow.com/homedetails/6825-N-60th-Ave-Glendale-AZ-85301/7707716_zpid/,33.5378,-112.189,6521,2017-11-08
419756,23870015,"5532 W Loma Ln, Glendale, AZ 85302 ",85302,0.434786856174469,0.8823074996471405,0.38361570395073663,185000,https://www.zillow.com/homedetails/5532-W-Loma-Ln-Glendale-AZ-85302/7737959_zpid/,33.5541,-112.179,6583,2018-01-09
225855,23847348,"1461 E Renee Dr, Phoenix, AZ 85024 ",85024,0.46256284415721893,0.8292824029922485,0.3835952269376275,249000,https://www.zillow.com/homedetails/1461-E-Renee-Dr-Phoenix-AZ-85024/7996071_zpid/,33.6554,-112.05,6545,2017-12-02
243942,23854107,"18463 N 5TH Ave, Phoenix, AZ 85023 ",85023,0.449413537979126,0.8527491092681885,0.38323699420476487,249000,https://www.zillow.com/homedetails/18463-N-5th-Ave-Phoenix-AZ-85023/7956457_zpid/,33.6543,-112.08,6552,2017-12-09
225987,23864034,"1415 W Renee Dr, Phoenix, AZ 85027 ",85027,0.4464840143918991,0.8582682311534882,0.3832030452704438,239999,https://www.zillow.com/homedetails/1415-W-Renee-Dr-Phoenix-AZ-85027/7969101_zpid/,33.6549,-112.09,6582,2018-01-08
234034,23855362,"18447 N 31ST Ave, Phoenix, AZ 85053 ",85053,0.4448131173849106,0.8608521223068237,0.3829183161307146,209000,https://www.zillow.com/homedetails/18447-N-31st-Ave-Phoenix-AZ-85053/7940519_zpid/,33.6544,-112.126,6551,2017-12-08
389970,22302502,"2910 W Altadena Ave, Phoenix, AZ 85029 ",85029,0.5014672428369522,0.763573169708252,0.3829069321178693,220000,https://www.zillow.com/homedetails/2910-W-Altadena-Ave-Phoenix-AZ-85029/7739875_zpid/,33.5927,-112.12200000000001,6401,2017-07-11
409785,23870370,"4531 W Wethersfield Rd, Glendale, AZ 85304 ",85304,0.4387764036655426,0.8721892237663269,0.3826960509200301,235000,https://www.zillow.com/homedetails/4531-W-Wethersfield-Rd-Glendale-AZ-85304/7955091_zpid/,33.5969,-112.15700000000001,6577,2018-01-03
424042,23883745,"9015 N 57th Ave, Glendale, AZ 85302 ",85302,0.46850593388080597,0.816798597574234,0.3826749897490491,205000,https://www.zillow.com/homedetails/9015-N-57th-Ave-Glendale-AZ-85302/7734719_zpid/,33.5681,-112.182,6529,2017-11-16
337793,22745680,"2343 W Diana Ave, Phoenix, AZ 85021 ",85021,0.5051610320806503,0.756989449262619,0.3824015714636677,225000,https://www.zillow.com/homedetails/2343-W-Diana-Ave-Phoenix-AZ-85021/7782287_zpid/,33.563,-112.11,6491,2017-10-09
9026282,23865594,"9621 N 82nd Ln, Peoria, AZ 85345 ",85345,0.42176346480846405,0.906610369682312,0.3823751307484944,205000,https://www.zillow.com/homedetails/9621-N-82nd-Ln-Peoria-AZ-85345/67710601_zpid/,33.5723,-112.236,6585,2018-01-11
2042666,23866719,"9694 N 82nd Gln, Peoria, AZ 85345 ",85345,0.4368630349636078,0.8749246299266815,0.3822222291941815,219000,https://www.zillow.com/homedetails/9694-N-82nd-Gln-Peoria-AZ-85345/60978309_zpid/,33.5735,-112.23700000000001,6578,2018-01-04
9012224,23885680,"9301 W Glen Oaks Cir N, Sun City, AZ 85351 ",85351,0.433899849653244,0.8807955086231232,0.38217703876682574,244900,https://www.zillow.com/homedetails/9301-W-Glen-Oaks-Cir-N-Sun-City-AZ-85351/7923234_zpid/,33.6338,-112.26,6583,2018-01-09
499623,23853309,"7113 W Holly St, Phoenix, AZ 85035 ",85035,0.44477640092372894,0.8580012321472168,0.38161870002256393,135000,https://www.zillow.com/homedetails/7113-W-Holly-St-Phoenix-AZ-85035/7475387_zpid/,33.4699,-112.213,6548,2017-12-05
355855,23833551,"702 E Rose Marie Ln, Phoenix, AZ 85022 ",85022,0.4690421223640442,0.8135670125484467,0.3815971982510984,247000,https://www.zillow.com/homedetails/702-E-Rose-Marie-Ln-Phoenix-AZ-85022/49942677_zpid/,33.6527,-112.065,6527,2017-11-14
1421999,23820040,"8134 W Mclellan Rd, Glendale, AZ 85303 ",85303,0.46216481924057007,0.825589507818222,0.3815584256477198,222500,https://www.zillow.com/homedetails/8134-W-Mclellan-Rd-Glendale-AZ-85303/7462575_zpid/,33.5326,-112.235,6516,2017-11-03
1090009,23867209,"615 W Dublin St, Chandler, AZ 85225 ",85225,0.4312640130519867,0.884636402130127,0.3815118448745096,247000,https://www.zillow.com/homedetails/615-W-Dublin-St-Chandler-AZ-85225/8189370_zpid/,33.3189,-111.851,6586,2018-01-12
1357376,23883408,"7648 N 46th Ave, Glendale, AZ 85301 ",85301,0.45163336396217346,0.8440431654453278,0.3811980541393547,240000,https://www.zillow.com/homedetails/7648-N-46th-Ave-Glendale-AZ-85301/7725091_zpid/,33.5494,-112.15799999999999,6571,2017-12-28
503203,23857062,"4214 N 31ST Ave, Phoenix, AZ 85017 ",85017,0.5175821781158447,0.7361494302749634,0.3810178255404537,135000,https://www.zillow.com/homedetails/4214-N-31st-Ave-Phoenix-AZ-85017/7768398_zpid/,33.497,-112.126,6537,2017-11-24
1665351,23862007,"17415 N Country Club Dr, Sun City, AZ 85373 ",85373,0.443014457821846,0.8599072992801666,0.3809513659676509,219500,https://www.zillow.com/homedetails/17415-N-Country-Club-Dr-Sun-City-AZ-85373/7897399_zpid/,33.6428,-112.26,6574,2017-12-31
232170,23847359,"17834 N 33RD Dr, Phoenix, AZ 85053 ",85053,0.45009931921958923,0.8461328446865082,0.38084381736273176,249999,https://www.zillow.com/homedetails/17834-N-33RD-Dr-Phoenix-AZ-85053/7941287_zpid/,33.6484,-112.131,6543,2017-11-30
215717,23864958,"1509 E Mountain View Rd, Phoenix, AZ 85020 ",85020,0.5127764940261841,0.7422967553138733,0.3806323277168602,197000,https://www.zillow.com/homedetails/1509-E-Mountain-View-Rd-Phoenix-AZ-85020/7786813_zpid/,33.5746,-112.05,6584,2018-01-10
8977566,23865226,"2018 W Bloomfield Rd, Phoenix, AZ 85029 ",85029,0.43713225424289703,0.8697641491889954,0.38020196319464095,206000,https://www.zillow.com/homedetails/2018-W-Bloomfield-Rd-Phoenix-AZ-85029/7739154_zpid/,33.5987,-112.102,6585,2018-01-11
1667493,23859750,"18423 N 94TH Dr, Sun City, AZ 85373 ",85373,0.443014457821846,0.8576821386814117,0.37996558765142696,249900,https://www.zillow.com/homedetails/18423-N-94th-Dr-Sun-City-AZ-85373/7897476_zpid/,33.6522,-112.26299999999999,6571,2017-12-28
9026050,23861695,"19901 N 98th Ave, Peoria, AZ 85382 ",85382,0.41532720625400543,0.9142256379127502,0.3797027800800885,239000,https://www.zillow.com/homedetails/19901-N-98th-Ave-Peoria-AZ-85382/7896097_zpid/,33.6647,-112.271,6571,2017-12-28
237433,23843870,"2957 W Michelle Dr, Phoenix, AZ 85053 ",85053,0.45822206139564514,0.828593373298645,0.37967976357167643,225000,https://www.zillow.com/homedetails/2957-W-Michelle-Dr-Phoenix-AZ-85053/7940747_zpid/,33.6492,-112.124,6542,2017-11-29
8996051,23841761,"3410 N 67TH Dr, Phoenix, AZ 85033 ",85033,0.44478167593479156,0.8531938791275024,0.3794850034556365,220000,https://www.zillow.com/homedetails/3410-N-67th-Dr-Phoenix-AZ-85033/7485764_zpid/,33.4878,-112.204,6537,2017-11-24
9029877,23905155,"9507 W Sunnyslope Ln, Peoria, AZ 85345 ",85345,0.4230012893676758,0.8966914415359497,0.3793016359346666,199980,https://www.zillow.com/homedetails/9507-W-Sunnyslope-Ln-Peoria-AZ-85345/7697884_zpid/,33.5693,-112.264,6584,2018-01-10
9206,23840092,"1220 W Ironwood Dr, Phoenix, AZ 85021 ",85021,0.5035350918769836,0.7532355785369873,0.37928054624363483,169000,https://www.zillow.com/homedetails/1220-W-Ironwood-Dr-Phoenix-AZ-85021/7781692_zpid/,33.576,-112.089,6534,2017-11-21
331783,22651353,"10428 N 13TH Ave, Phoenix, AZ 85021 ",85021,0.5214270651340485,0.7273601293563843,0.3792652575458213,195000,https://www.zillow.com/homedetails/10428-N-13th-Ave-Phoenix-AZ-85021/7781474_zpid/,33.5811,-112.089,6463,2017-09-11
501018,22711998,"7420 W Alvarado Rd, Phoenix, AZ 85035 ",85035,0.4548180252313614,0.8323527574539185,0.3785690374410695,119900,https://www.zillow.com/homedetails/7420-W-Alvarado-Rd-Phoenix-AZ-85035/7474905_zpid/,33.4717,-112.22,6475,2017-09-23
481368,23814944,"2346 N 47TH Ln, Phoenix, AZ 85035 ",85035,0.47622445225715637,0.7947202920913696,0.3784652357988598,174900,https://www.zillow.com/homedetails/2346-N-47th-Ln-Phoenix-AZ-85035/7499146_zpid/,33.4749,-112.162,6511,2017-10-29
470861,22224283,"4135 N 29th Dr, Phoenix, AZ 85017 ",85017,0.509367972612381,0.7427213788032532,0.3783184829368853,125000,https://www.zillow.com/homedetails/4135-N-29th-Dr-Phoenix-AZ-85017/64623257_zpid/,33.4965,-112.12200000000001,6321,2017-04-22
9029936,23905379,"8408 W Bloomfield Rd, Peoria, AZ 85381 ",85381,0.42543476819992065,0.8889994323253632,0.3782112674212019,224900,https://www.zillow.com/homedetails/8408-W-Bloomfield-Rd-Peoria-AZ-85381/7914533_zpid/,33.5976,-112.24,6578,2018-01-04
450270,23853373,"8713 W Wilshire Dr, Phoenix, AZ 85037 ",85037,0.44477640092372894,0.8486309349536896,0.3774510129612412,200000,https://www.zillow.com/homedetails/8713-W-Wilshire-Dr-Phoenix-AZ-85037/7473941_zpid/,33.4756,-112.24700000000001,6526,2017-11-13
9023845,23833062,"1333 N 32nd Ave, Phoenix, AZ 85009 ",85009,0.5040374100208282,0.7480982542037964,0.3770695064899847,125000,https://www.zillow.com/homedetails/1333-N-32nd-Ave-Phoenix-AZ-85009/7513099_zpid/,33.464,-112.12700000000001,6528,2017-11-15
5187848,21947200,"16030 N Lakeforest Dr, Sun City, AZ 85351 ",85351,0.43220609426498413,0.870951920747757,0.37643072795897403,239900,https://www.zillow.com/homedetails/16030-N-Lakeforest-Dr-Sun-City-AZ-85351/7923097_zpid/,33.6324,-112.272,6375,2017-06-15
21473,23861264,"2802 W Durango St, Phoenix, AZ 85009 ",85009,0.4910084903240204,0.7643057107925415,0.37528059320227314,249888,https://www.zillow.com/homedetails/2802-W-Durango-St-Phoenix-AZ-85009/81995871_zpid/,33.4303,-112.12,6573,2017-12-30
402127,23814880,"14638 N 62nd Ave, Glendale, AZ 85306 ",85306,0.4600009024143219,0.8152168393135071,0.3750004817475645,230000,https://www.zillow.com/homedetails/14638-N-62nd-Ave-Glendale-AZ-85306/8098778_zpid/,33.6177,-112.191,6512,2017-10-30
458973,22036993,"5608 W Heatherbrae Dr, Phoenix, AZ 85031 ",85031,0.4983094781637192,0.7523808181285858,0.3749184928620477,165000,https://www.zillow.com/homedetails/5608-W-Heatherbrae-Dr-Phoenix-AZ-85031/7713127_zpid/,33.4974,-112.181,6348,2017-05-19
397462,23865059,"4040 W Desert Cove Ave, Phoenix, AZ 85029 ",85029,0.4252396821975708,0.8799920082092285,0.37420752190729445,224900,https://www.zillow.com/homedetails/4040-W-Desert-Cove-Ave-Phoenix-AZ-85029/7744743_zpid/,33.5857,-112.146,6585,2018-01-11
451525,21618159,"4229 N 51st Ave, Phoenix, AZ 85031 ",85031,0.5051304250955582,0.740644782781601,0.37412221397127743,165000,https://www.zillow.com/homedetails/4229-N-51st-Ave-Phoenix-AZ-85031/7721281_zpid/,33.4982,-112.169,6355,2017-05-26
231237,23886980,"18621 N 5th Dr, Phoenix, AZ 85027 ",85027,0.41554367542266846,0.9001461863517761,0.3740500546943153,225000,https://www.zillow.com/homedetails/18621-N-5th-Dr-Phoenix-AZ-85027/50183691_zpid/,33.6555,-112.081,6585,2018-01-11
9025461,23852787,"2114 W Monroe St, Phoenix, AZ 85009 ",85009,0.4976394772529602,0.7513305246829987,0.37389172954743977,229900,https://www.zillow.com/homedetails/2114-W-Monroe-St-Phoenix-AZ-85009/7514471_zpid/,33.4505,-112.105,6550,2017-12-07
25052,23866221,"1840 E Culver St, Phoenix, AZ 85006 ",85006,0.5250748991966248,0.711730033159256,0.37371157541630673,249999,https://www.zillow.com/homedetails/1840-E-Culver-St-Phoenix-AZ-85006/7528796_zpid/,33.463,-112.042,6584,2018-01-10
9023068,23823620,"15224 N 30TH St, Phoenix, AZ 85032 ",85032,0.516610711812973,0.7232393622398376,0.37363320173788317,229000,https://www.zillow.com/homedetails/15224-N-30th-St-Phoenix-AZ-85032/8011594_zpid/,33.6253,-112.01799999999999,6520,2017-11-07
501068,23853288,"7426 W Monte Vista Rd, Phoenix, AZ 85035 ",85035,0.44477640092372894,0.8388175666332245,0.37308625831872577,155000,https://www.zillow.com/homedetails/7426-W-Monte-Vista-Rd-Phoenix-AZ-85035/7474922_zpid/,33.471,-112.22,6528,2017-11-15
325706,23869796,"1718 W Indian School Rd, Phoenix, AZ 85015 ",85015,0.4366196393966675,0.8541548550128937,0.37294078478464243,239000,https://www.zillow.com/homedetails/1718-W-Indian-School-Rd-Phoenix-AZ-85015/7772146_zpid/,33.4953,-112.09700000000001,6589,2018-01-15
9030023,23905783,"8112 W Laurel Ln, Peoria, AZ 85345 ",85345,0.40961484611034393,0.9099452793598175,0.37272709557380557,243000,https://www.zillow.com/homedetails/8112-W-Laurel-Ln-Peoria-AZ-85345/7680881_zpid/,33.5932,-112.234,6580,2018-01-06
7449241,23819586,"11935 N 68th Ave, Peoria, AZ 85345 ",85345,0.44048455357551575,0.8456213176250458,0.3724831285880077,245000,https://www.zillow.com/homedetails/11935-N-68th-Ave-Peoria-AZ-85345/7700139_zpid/,33.594,-112.204,6516,2017-11-03
22933,22734467,"8739 W Fairmount Ave, Phoenix, AZ 85037 ",85037,0.4360325038433075,0.8540352284908295,0.3723871190492476,170000,https://www.zillow.com/homedetails/8739-W-Fairmount-Ave-Phoenix-AZ-85037/7471067_zpid/,33.492,-112.24799999999999,6485,2017-10-03
1405541,23883136,"6702 N 82ND Dr, Glendale, AZ 85303 ",85303,0.41477659344673157,0.897465318441391,0.3722476075197063,229900,https://www.zillow.com/homedetails/6702-N-82ND-Dr-Glendale-AZ-85303/7462533_zpid/,33.5329,-112.23700000000001,6585,2018-01-11
381684,22380395,"3111 W Laurie Ln, Phoenix, AZ 85051 ",85051,0.47909267246723175,0.776719331741333,0.3721205404009176,229900,https://www.zillow.com/homedetails/3111-W-Laurie-Ln-Phoenix-AZ-85051/7754882_zpid/,33.5587,-112.126,6403,2017-07-13
475131,23865464,"6801 N 30th Ave, Phoenix, AZ 85017 ",85017,0.4310794770717621,0.8628445565700531,0.37195458024043493,199900,https://www.zillow.com/homedetails/6801-N-30th-Ave-Phoenix-AZ-85017/7758750_zpid/,33.5364,-112.124,6586,2018-01-12
354621,23808089,"2310 E Winchcomb Dr, Phoenix, AZ 85022 ",85022,0.4798583388328552,0.7735832631587982,0.3712103796082804,224900,https://www.zillow.com/homedetails/2310-E-Winchcomb-Dr-Phoenix-AZ-85022/8010116_zpid/,33.6168,-112.03399999999999,6507,2017-10-25
9026278,23865568,"8630 W El Caminito Dr, Peoria, AZ 85345 ",85345,0.41172972321510315,0.9009545147418976,0.37094975298407906,199999,https://www.zillow.com/homedetails/8630-W-El-Caminito-Dr-Peoria-AZ-85345/50187525_zpid/,33.5576,-112.24600000000001,6585,2018-01-11
247778,23865817,"2831 W GROVERS Ave Phoenix, AZ 85053",85053,0.42138876020908356,0.8797453045845032,0.3707147831986264,219900,https://www.redfin.com/AZ/Phoenix/2831-W-Grovers-Ave-85053/home/26864793,33.6178,-112.133,6587,2018-01-13
455626,23813601,"4732 N 54th Dr, Phoenix, AZ 85031 ",85031,0.47210976481437683,0.7850432991981506,0.37062660735354136,169000,https://www.zillow.com/homedetails/4732-N-54th-Dr-Phoenix-AZ-85031/7713824_zpid/,33.5068,-112.177,6509,2017-10-27
8981328,22485420,"1411 E Whitton Ave, Phoenix, AZ 85014 ",85014,0.5004223436117172,0.7404323220252991,0.37052887787376587,160000,https://www.zillow.com/homedetails/1411-E-Whitton-Ave-Phoenix-AZ-85014/7534776_zpid/,33.4887,-112.051,6421,2017-07-31
9019709,23816778,"2325 W Adams St, Phoenix, AZ 85009 ",85009,0.5384726226329803,0.6869902312755585,0.3699254315581877,150000,https://www.zillow.com/homedetails/2325-W-Adams-St-Phoenix-AZ-85009/7515215_zpid/,33.4489,-112.11,6514,2017-11-01
241374,23867942,"3135 W Acapulco Ln, Phoenix, AZ 85053 ",85053,0.41690853238105774,0.8862002789974213,0.3694644577124988,154500,https://www.zillow.com/homedetails/3135-W-Acapulco-Ln-Phoenix-AZ-85053/7953111_zpid/,33.6236,-112.12700000000001,6591,2018-01-17
9023482,23827286,"15606 N 99th Dr, Sun City, AZ 85351 ",85351,0.433899849653244,0.8514803349971771,0.369457189337969,192500,https://www.zillow.com/homedetails/15606-N-99th-Dr-Sun-City-AZ-85351/2092083796_zpid/,33.6257,-112.271,6526,2017-11-13
411581,22708161,"5226 W Eugie Ave, Glendale, AZ 85304 ",85304,0.4499114751815796,0.8211493790149689,0.36944452845706266,220000,https://www.zillow.com/homedetails/5226-W-Eugie-Ave-Glendale-AZ-85304/7911821_zpid/,33.608000000000004,-112.17200000000001,6473,2017-09-21
9012841,23819608,"8121 W Hatcher Rd, Peoria, AZ 85345 ",85345,0.4529614895582199,0.8148269057273865,0.3690852089503922,239000,https://www.zillow.com/homedetails/8121-W-Hatcher-Rd-Peoria-AZ-85345/7682649_zpid/,33.57,-112.234,6515,2017-11-02
342822,22678663,"1925 W Holly St, Phoenix, AZ 85009 ",85009,0.4726891666650772,0.7802592813968658,0.3688201095061765,160000,https://www.zillow.com/homedetails/1925-W-Holly-St-Phoenix-AZ-85009/7519786_zpid/,33.4699,-112.102,6467,2017-09-15
422357,23883112,"6612 W Brown St, Glendale, AZ 85302 ",85302,0.48415008187294006,0.7586640119552612,0.3673072435021929,199000,https://www.zillow.com/homedetails/6612-W-Brown-St-Glendale-AZ-85302/7706362_zpid/,33.5783,-112.20100000000001,6496,2017-10-14
426687,23866512,"4834 N 81st Dr, Phoenix, AZ 85033 ",85033,0.40500906109809875,0.9065035283565521,0.3671421429018009,174900,https://www.zillow.com/homedetails/4834-N-81st-Dr-Phoenix-AZ-85033/7482505_zpid/,33.5079,-112.235,6586,2018-01-12
695985,23844261,"28 S 29TH Ave, Phoenix, AZ 85009 ",85009,0.5205295085906982,0.7051988542079926,0.3670768130396098,119900,https://www.zillow.com/homedetails/28-S-29th-Ave-Phoenix-AZ-85009/7514868_zpid/,33.4477,-112.12200000000001,6542,2017-11-29
496469,22536294,"6526 W Holly St, Phoenix, AZ 85035 ",85035,0.4626029133796692,0.7932432889938354,0.36695665650741915,169499,https://www.zillow.com/homedetails/6526-W-Holly-St-Phoenix-AZ-85035/7490333_zpid/,33.471,-112.20100000000001,6408,2017-07-18
406363,23789864,"5213 W Evans Dr, Glendale, AZ 85306 ",85306,0.4658622741699219,0.7874771058559418,0.36685587539079734,209900,https://www.zillow.com/homedetails/5213-W-Evans-Dr-Glendale-AZ-85306/8097361_zpid/,33.6172,-112.17200000000001,6303,2017-04-04
9025615,23856149,"17636 N 35th St, Phoenix, AZ 85032 ",85032,0.4455110728740692,0.8231538534164429,0.36672415637598377,235000,https://www.zillow.com/homedetails/17636-N-35th-St-Phoenix-AZ-85032/7998341_zpid/,33.6469,-112.005,6557,2017-12-14
220949,23862962,"9206 N 14th St, Phoenix, AZ 85020 ",85020,0.5045089423656464,0.7257642447948456,0.3661545515482496,214700,https://www.zillow.com/homedetails/9206-N-14th-St-Phoenix-AZ-85020/7787080_zpid/,33.5698,-112.053,6550,2017-12-07
830006,22432017,"3735 W Catalina Dr, Phoenix, AZ 85019 ",85019,0.47706127166748047,0.7658348977565765,0.3653501702110873,144000,https://www.zillow.com/homedetails/3735-W-Catalina-Dr-Phoenix-AZ-85019/7507455_zpid/,33.4817,-112.14,6334,2017-05-05
459441,22441396,"5651 W Sells Dr, Phoenix, AZ 85031 ",85031,0.48516882956027985,0.7526938021183014,0.3651835709910132,191000,https://www.zillow.com/homedetails/5651-W-Sells-Dr-Phoenix-AZ-85031/7712751_zpid/,33.4999,-112.182,6333,2017-05-04
400185,22494552,"10610 N 46th Ave, Glendale, AZ 85304 ",85304,0.45917411148548126,0.7948574423789978,0.36497795986199844,234900,https://www.zillow.com/homedetails/10610-N-46th-Ave-Glendale-AZ-85304/7727627_zpid/,33.5824,-112.15700000000001,6428,2017-08-07
379528,23846192,"11438 N 30TH Ave, Phoenix, AZ 85029 ",85029,0.4778224974870682,0.7636937499046326,0.36491005489469597,235000,https://www.zillow.com/homedetails/11438-N-30th-Ave-Phoenix-AZ-85029/7739912_zpid/,33.5907,-112.124,6544,2017-12-01
257719,23869968,"919 W Anderson Dr, Phoenix, AZ 85023 ",85023,0.4165300130844116,0.8748629689216614,0.3644066838920068,155000,https://www.zillow.com/homedetails/919-W-Anderson-Dr-Phoenix-AZ-85023/7963528_zpid/,33.6429,-112.086,6591,2018-01-17
9006564,23814082,"16612 N 28th Way, Phoenix, AZ 85032 ",85032,0.43455252051353455,0.8385734856128693,0.36440422180889254,194900,https://www.zillow.com/homedetails/16612-N-28th-Way-Phoenix-AZ-85032/8005824_zpid/,33.6376,-112.021,6511,2017-10-29
440456,23867239,"8111 W College Dr, Phoenix, AZ 85033 ",85033,0.40500906109809875,0.8994960188865662,0.36430403807072587,145000,https://www.zillow.com/homedetails/8111-W-College-Dr-Phoenix-AZ-85033/7482592_zpid/,33.5078,-112.234,6586,2018-01-12
8991893,23837557,"9352 W Jefferson St, Tolleson, AZ 85353 ",85353,0.4352767914533615,0.8368788659572601,0.364273947609004,229900,https://www.zillow.com/homedetails/9352-W-Jefferson-St-Tolleson-AZ-85353/7460100_zpid/,33.4464,-112.26100000000001,6533,2017-11-20
1864574,23822334,"9873 W Escuda Dr, Peoria, AZ 85382 ",85382,0.41532720625400543,0.875288188457489,0.3635309979791783,245000,https://www.zillow.com/homedetails/9873-W-Escuda-Dr-Peoria-AZ-85382/7896125_zpid/,33.6652,-112.271,6519,2017-11-06
408219,23882796,"6118 W Tierra Buena Ln, Glendale, AZ 85306 ",85306,0.46000993251800537,0.7902250289916992,0.3635113622605104,199000,https://www.zillow.com/homedetails/6118-W-Tierra-Buena-Ln-Glendale-AZ-85306/8096943_zpid/,33.6295,-112.18700000000001,6529,2017-11-16
232395,23858251,"19615 N 6th Pl, Phoenix, AZ 85024 ",85024,0.4464840143918991,0.8140566051006317,0.363463260987571,179990,https://www.zillow.com/homedetails/19615-N-6th-Pl-Phoenix-AZ-85024/7967758_zpid/,33.6645,-112.066,6553,2017-12-10
7380359,22747336,"3611 W Maricopa St, Phoenix, AZ 85009 ",85009,0.4964822679758072,0.7307183146476746,0.36278868610773696,146600,https://www.zillow.com/homedetails/3611-W-Maricopa-St-Phoenix-AZ-85009/7506371_zpid/,33.4383,-112.137,6492,2017-10-10
250623,23869041,"510 E Topeka Dr, Phoenix, AZ 85024 ",85024,0.41554367542266846,0.8727556467056274,0.36266808917794435,209900,https://www.zillow.com/homedetails/510-E-Topeka-Dr-Phoenix-AZ-85024/7972420_zpid/,33.6601,-112.06700000000001,6585,2018-01-11
8995212,23864024,"13428 N Hawthorn Dr, Sun City, AZ 85351 ",85351,0.4029231369495392,0.8995959460735321,0.36246802057903604,139800,https://www.zillow.com/homedetails/13428-N-Hawthorn-Dr-Sun-City-AZ-85351/7914831_zpid/,33.6063,-112.274,6580,2018-01-06
22930,21627869,"5725 W Highland Ave, Phoenix, AZ 85031 ",85031,0.4983094781637192,0.7268326878547668,0.36218761739724226,175000,https://www.zillow.com/homedetails/5725-W-Highland-Ave-Phoenix-AZ-85031/7713313_zpid/,33.5057,-112.18299999999999,6328,2017-04-29
328960,22284604,"2322 W Cheery Lynn Rd, Phoenix, AZ 85015 ",85015,0.4726891666650772,0.7662020325660706,0.36217540027074424,249900,https://www.zillow.com/homedetails/2322-W-Cheery-Lynn-Rd-Phoenix-AZ-85015/7517610_zpid/,33.4857,-112.109,6398,2017-07-08
243119,22391945,"18226 N 10th Dr, Phoenix, AZ 85023 ",85023,0.4707130193710327,0.7680151462554932,0.3615147284166085,225000,https://www.zillow.com/homedetails/18226-N-10th-Dr-Phoenix-AZ-85023/7956715_zpid/,33.652,-112.086,6401,2017-07-11
410256,23810938,"4730 W Shaw Butte Dr, Glendale, AZ 85304 ",85304,0.4680267423391342,0.7711949944496155,0.3609398809605002,240000,https://www.zillow.com/homedetails/4730-W-Shaw-Butte-Dr-Glendale-AZ-85304/7727507_zpid/,33.5952,-112.161,6509,2017-10-27
400713,23840251,"10843 N 45TH Ln, Glendale, AZ 85304 ",85304,0.4387764036655426,0.8220283687114716,0.36068665133427213,220000,https://www.zillow.com/homedetails/10843-N-45th-Ln-Glendale-AZ-85304/7727914_zpid/,33.5861,-112.156,6534,2017-11-21
415297,23835189,"10114 N 66TH Ln, Glendale, AZ 85302 ",85302,0.4577764868736267,0.7870444655418396,0.3602904504490745,197500,https://www.zillow.com/homedetails/10114-N-66TH-Ln-Glendale-AZ-85302/67083300_zpid/,33.5779,-112.20299999999999,6528,2017-11-15
8947845,23865596,"8909 W Echo Ln, Peoria, AZ 85345 ",85345,0.41172972321510315,0.8737627863883972,0.3597541101953521,220000,https://www.zillow.com/homedetails/8909-W-Echo-Ln-Peoria-AZ-85345/7683180_zpid/,33.5583,-112.251,6585,2018-01-11
9023033,23823351,"437 E Wescott Dr, Phoenix, AZ 85024 ",85024,0.4464840143918991,0.8053092062473297,0.3595576872320616,225000,https://www.zillow.com/homedetails/437-E-Wescott-Dr-Phoenix-AZ-85024/2092120604_zpid/,33.6585,-112.068,6521,2017-11-08
524930,22304530,"9134 W Vernon Ave, Phoenix, AZ 85037 ",85037,0.44477640092372894,0.8046970069408417,0.3579102385812445,249000,https://www.zillow.com/homedetails/9134-W-Vernon-Ave-Phoenix-AZ-85037/67764424_zpid/,33.473,-112.257,6401,2017-07-11
316565,23865348,"1845 E Almeria Rd, Phoenix, AZ 85006 ",85006,0.442966029047966,0.8071749806404114,0.35755109592115186,224900,https://www.zillow.com/homedetails/1845-E-Almeria-Rd-Phoenix-AZ-85006/7531838_zpid/,33.4664,-112.041,6586,2018-01-12
9023655,23829023,"14631 N 36th St, Phoenix, AZ 85032 ",85032,0.4839834123849869,0.738351583480835,0.357349918912913,214000,https://www.zillow.com/homedetails/14631-N-36th-St-Phoenix-AZ-85032/8013016_zpid/,33.6203,-112.00399999999999,6525,2017-11-12
7515382,22616806,"3843 W Grant St, Phoenix, AZ 85009 ",85009,0.4779397249221802,0.7472341358661652,0.357132877348338,114900,https://www.zillow.com/homedetails/3843-W-Grant-St-Phoenix-AZ-85009/7506219_zpid/,33.4411,-112.14299999999999,6403,2017-07-13
227559,23843808,"15221 N 28TH Dr, Phoenix, AZ 85053 ",85053,0.4352043569087982,0.8186011016368866,0.356258766002715,209900,https://www.zillow.com/homedetails/15221-N-28th-Dr-Phoenix-AZ-85053/7942595_zpid/,33.6243,-112.119,6542,2017-11-29
345521,23753202,"2846 W Melvin St, Phoenix, AZ 85009 ",85009,0.5353489816188812,0.6645221412181854,0.35575125156435394,80000,https://www.zillow.com/homedetails/2846-W-Melvin-St-Phoenix-AZ-85009/7514191_zpid/,33.4524,-112.12200000000001,6497,2017-10-15
8970849,23830064,"3715 E Delcoa Dr, Phoenix, AZ 85032 ",85032,0.4572869539260864,0.7777507603168488,0.3556552760989895,220000,https://www.zillow.com/homedetails/3715-E-Delcoa-Dr-Phoenix-AZ-85032/7813615_zpid/,33.6109,-112.00200000000001,6507,2017-10-25
1126602,23890192,"2807 N Central Dr, Chandler, AZ 85224 ",85224,0.381507009267807,0.9315725564956665,0.3554014599446269,180000,https://www.zillow.com/homedetails/2807-N-Central-Dr-Chandler-AZ-85224/8199127_zpid/,33.3475,-111.866,6625,2018-02-20
9022258,23835030,"3023 W Krall St, Phoenix, AZ 85017 ",85017,0.5158882141113281,0.6886942684650421,0.35528925622713814,249900,https://www.zillow.com/homedetails/3023-W-Krall-St-Phoenix-AZ-85017/7759497_zpid/,33.534,-112.125,6530,2017-11-17
8977430,22376634,"1505 W Hadley St, Phoenix, AZ 85007 ",85007,0.49142777919769287,0.7218908965587616,0.35475724011890364,180000,https://www.zillow.com/homedetails/1505-W-Hadley-St-Phoenix-AZ-85007/2112748542_zpid/,33.4392,-112.09200000000001,6414,2017-07-24
9016481,23867228,"7401 W Jenan Dr, Peoria, AZ 85345 ",85345,0.39770859479904175,0.8918152749538422,0.3546825998222136,240000,https://www.zillow.com/homedetails/7401-W-Jenan-Dr-Peoria-AZ-85345/7700306_zpid/,33.5916,-112.21799999999999,6589,2018-01-15
258476,23717515,"614 W Rosemonte Dr, Phoenix, AZ 85027 ",85027,0.4464840143918991,0.7930483222007751,0.35408339850296233,234900,https://www.zillow.com/homedetails/614-W-Rosemonte-Dr-Phoenix-AZ-85027/7968459_zpid/,33.657,-112.08200000000001,6494,2017-10-12
7977745,23866230,"19033 N 45TH Dr, Glendale, AZ 85308 ",85308,0.40255023539066315,0.8795479834079742,0.3540622477582631,159000,https://www.zillow.com/homedetails/19033-N-45th-Dr-Glendale-AZ-85308/7939041_zpid/,33.6593,-112.15799999999999,6583,2018-01-09
326266,22680508,"1747 W Colter St, Phoenix, AZ 85015 ",85015,0.5163442641496658,0.6856257617473602,0.3540189294314948,249900,https://www.zillow.com/homedetails/1747-W-Colter-St-Phoenix-AZ-85015/7775943_zpid/,33.5127,-112.098,6466,2017-09-14
9020725,23815067,"9537 W Sunnyslope Ln, Peoria, AZ 85345 ",85345,0.4197545051574707,0.8421970009803772,0.3535159853916241,224000,https://www.zillow.com/homedetails/9537-W-Sunnyslope-Ln-Peoria-AZ-85345/7697879_zpid/,33.5693,-112.265,6512,2017-10-30
393008,23866403,"3333 W Columbine Dr, Phoenix, AZ 85029 ",85029,0.39908020198345184,0.8848038017749786,0.35310767992808456,169900,https://www.zillow.com/homedetails/3333-W-Columbine-Dr-Phoenix-AZ-85029/7747780_zpid/,33.5991,-112.131,6588,2018-01-14
407695,23882690,"5912 W Evans Dr, Glendale, AZ 85306 ",85306,0.393274649977684,0.8971151411533356,0.35281264312675864,217000,https://www.zillow.com/homedetails/5912-W-Evans-Dr-Glendale-AZ-85306/8098897_zpid/,33.6173,-112.18700000000001,6586,2018-01-12
1112872,23885785,"1482 W Orchid Ln, Chandler, AZ 85224 ",85224,0.37515896558761597,0.9402823448181152,0.35275535184226214,249900,https://www.zillow.com/homedetails/1482-W-Orchid-Ln-Chandler-AZ-85224/8203452_zpid/,33.3237,-111.867,6614,2018-02-09
379541,23831369,"11439 N 33rd Ave, Phoenix, AZ 85029 ",85029,0.44645148515701294,0.7892989814281464,0.3523837024915135,214900,https://www.zillow.com/homedetails/11439-N-33rd-Ave-Phoenix-AZ-85029/7749169_zpid/,33.5913,-112.13,6523,2017-11-10
329963,23867145,"3418 N 23RD Ave, Phoenix, AZ 85015 ",85015,0.40380920469760895,0.8725645244121552,0.35234958665021976,245000,https://www.zillow.com/homedetails/3418-N-23RD-Ave-Phoenix-AZ-85015/7517398_zpid/,33.4885,-112.109,6588,2018-01-14
450552,22126108,"8733 W Indianola Ave, Phoenix, AZ 85037 ",85037,0.4360325038433075,0.8075278401374817,0.3521083860583243,169900,https://www.zillow.com/homedetails/8733-W-Indianola-Ave-Phoenix-AZ-85037/7470962_zpid/,33.4911,-112.24799999999999,6325,2017-04-26
9018879,23808777,"4021 W Roosevelt St, Phoenix, AZ 85009 ",85009,0.4357109069824219,0.8046363294124603,0.35058882487930987,179990,https://www.zillow.com/homedetails/4021-W-Roosevelt-St-Phoenix-AZ-85009/2092569655_zpid/,33.4585,-112.147,6508,2017-10-26
9026621,23892869,"9601 W Oakstone Dr, Sun City, AZ 85351 ",85351,0.392733171582222,0.8919858336448669,0.35031242545376085,184900,https://www.zillow.com/homedetails/9601-W-Oakstone-Dr-Sun-City-AZ-85351/7922239_zpid/,33.6156,-112.265,6577,2018-01-03
9019605,22737585,"9213 W Fillmore St, Tolleson, AZ 85353 ",85353,0.43849602341651917,0.7988181710243225,0.35027859142702233,195000,https://www.zillow.com/homedetails/9213-W-Fillmore-St-Tolleson-AZ-85353/7476932_zpid/,33.4532,-112.258,6486,2017-10-04
349445,23786888,"3622 W Berkeley Rd, Phoenix, AZ 85009 ",85009,0.4901904761791229,0.7133577466011047,0.34968117349246164,144900,https://www.zillow.com/homedetails/3622-W-Berkeley-Rd-Phoenix-AZ-85009/7512043_zpid/,33.4684,-112.137,6316,2017-04-17
318987,23813756,"2220 E Palm Ln, Phoenix, AZ 85006 ",85006,0.5072833001613617,0.6891230344772339,0.34958060714682304,239900,https://www.zillow.com/homedetails/2220-E-Palm-Ln-Phoenix-AZ-85006/7531376_zpid/,33.4695,-112.03399999999999,6510,2017-10-28
407754,23882612,"5927 W Redfield Rd, Glendale, AZ 85306 ",85306,0.38972659409046173,0.8969030678272247,0.3495469778535907,165000,https://www.zillow.com/homedetails/5927-W-Redfield-Rd-Glendale-AZ-85306/7910715_zpid/,33.6135,-112.18700000000001,6591,2018-01-17
428369,23828377,"6211 W Clarendon Ave, Phoenix, AZ 85033 ",85033,0.48516882956027985,0.7203920185565948,0.3495117524676705,219000,https://www.zillow.com/homedetails/6211-W-Clarendon-Ave-Phoenix-AZ-85033/7496532_zpid/,33.4914,-112.193,6513,2017-10-31
8977160,23825434,"16231 N 91st Dr, Peoria, AZ 85382 ",85382,0.403165340423584,0.8667629063129425,0.3494487621901925,233000,https://www.zillow.com/homedetails/16231-N-91st-Dr-Peoria-AZ-85382/2123153916_zpid/,33.6316,-112.25200000000001,6526,2017-11-13
9013905,22694429,"2418 E Dahlia Dr, Phoenix, AZ 85032 ",85032,0.4721759855747223,0.7386511266231537,0.3487733237091666,225000,https://www.zillow.com/homedetails/2418-E-Dahlia-Dr-Phoenix-AZ-85032/7820474_zpid/,33.6034,-112.03,6470,2017-09-18
9024203,23844470,"3326 W Roanoke Ave, Phoenix, AZ 85009 ",85009,0.46385064721107483,0.7508238255977631,0.34827011744501757,172500,https://www.zillow.com/homedetails/3326-W-Roanoke-Ave-Phoenix-AZ-85009/7510426_zpid/,33.4791,-112.131,6543,2017-11-30
8996162,23865480,"8420 W Butler Dr, Peoria, AZ 85345 ",85345,0.3913867473602295,0.8885690867900848,0.34777416468362077,219900,https://www.zillow.com/homedetails/8420-W-Butler-Dr-Peoria-AZ-85345/7683722_zpid/,33.5593,-112.241,6586,2018-01-12
836574,23884762,"4723 N 40th Dr, Phoenix, AZ 85019 ",85019,0.38841886818408966,0.8951929807662964,0.3477098443955864,170000,https://www.zillow.com/homedetails/4723-N-40th-Dr-Phoenix-AZ-85019/7506747_zpid/,33.507,-112.145,6588,2018-01-14
7546896,22096492,"6102 W Mulberry Dr, Phoenix, AZ 85033 ",85033,0.46714209020137787,0.7442564070224762,0.347673493622247,165000,https://www.zillow.com/homedetails/6102-W-Mulberry-Dr-Phoenix-AZ-85033/7498385_zpid/,33.4872,-112.19200000000001,6321,2017-04-22
450692,23753402,"8742 W Edgemont Ave, Phoenix, AZ 85037 ",85037,0.4365012049674988,0.7962237894535065,0.3475526435202436,190000,https://www.zillow.com/homedetails/8742-W-Edgemont-Ave-Phoenix-AZ-85037/7473770_zpid/,33.4794,-112.249,6494,2017-10-12
7652,23868185,"18611 N 22ND St LOT 44, Phoenix, AZ 85024 ",85024,0.3905022293329239,0.8898693323135376,0.3474959580834369,219000,https://www.zillow.com/homedetails/18611-N-22nd-St-LOT-44-Phoenix-AZ-85024/11884597_zpid/,33.6568,-112.03299999999999,6589,2018-01-15
420581,23882618,"5810 W Alice Ave, Glendale, AZ 85302 ",85302,0.386361300945282,0.8984833657741547,0.34713920207819804,234500,https://www.zillow.com/homedetails/5810-W-Alice-Ave-Glendale-AZ-85302/7733216_zpid/,33.5645,-112.185,6590,2018-01-16
409622,23825573,"4447 W Mercer Ln, Glendale, AZ 85304 ",85304,0.4387764036655426,0.7909680604934692,0.3470581209976338,227000,https://www.zillow.com/homedetails/4447-W-Mercer-Ln-Glendale-AZ-85304/7727953_zpid/,33.5852,-112.156,6526,2017-11-13
382603,23869310,"12646 N 38TH Ave, Phoenix, AZ 85029 ",85029,0.40129348635673523,0.8634732663631439,0.3465061974347039,125000,https://www.zillow.com/homedetails/12646-N-38th-Ave-Phoenix-AZ-85029/7742797_zpid/,33.601,-112.14,6591,2018-01-17
9026158,23863640,"3832 W Villa Theresa Dr, Glendale, AZ 85308 ",85308,0.392133504152298,0.8835867643356323,0.3464839741215222,218000,https://www.zillow.com/homedetails/3832-W-Villa-Theresa-Dr-Glendale-AZ-85308/7948394_zpid/,33.6543,-112.14200000000001,6580,2018-01-06
9021586,23838024,"8142 W Sweetwater Ave, Peoria, AZ 85381 ",85381,0.42543476819992065,0.8144007921218872,0.34647441221820685,240000,https://www.zillow.com/homedetails/8142-W-Sweetwater-Ave-Peoria-AZ-85381/7913307_zpid/,33.6028,-112.235,6529,2017-11-16
9021585,23824122,"12612 N 79TH Ave, Peoria, AZ 85381 ",85381,0.4143253117799759,0.8359289169311523,0.34634650913339726,225000,https://www.zillow.com/homedetails/12612-N-79th-Ave-Peoria-AZ-85381/8101178_zpid/,33.5997,-112.229,6522,2017-11-09
337751,23867585,"14407 N 23RD St, Phoenix, AZ 85022 ",85022,0.39717425405979156,0.868847668170929,0.345083924497378,219000,https://www.zillow.com/homedetails/14407-N-23rd-St-Phoenix-AZ-85022/8010507_zpid/,33.618,-112.03399999999999,6590,2018-01-16
1108948,23885722,"1169 W Nopal Pl, Chandler, AZ 85224 ",85224,0.3748893141746521,0.9203224182128906,0.3450190401833879,244900,https://www.zillow.com/homedetails/1169-W-Nopal-Pl-Chandler-AZ-85224/8175911_zpid/,33.341,-111.86200000000001,6602,2018-01-28
1355576,23883134,"6629 N 54TH Dr, Glendale, AZ 85301 ",85301,0.4814073145389557,0.7160051465034485,0.3446901147742967,115500,https://www.zillow.com/homedetails/6629-N-54TH-Dr-Glendale-AZ-85301/7722242_zpid/,33.5342,-112.176,6585,2018-01-11
477931,23837214,"1802 N 66TH Ave, Phoenix, AZ 85035 ",85035,0.4342495948076248,0.7923201620578766,0.34406470933154454,150000,https://www.zillow.com/homedetails/1802-N-66th-Ave-Phoenix-AZ-85035/7490498_zpid/,33.4678,-112.20200000000001,6531,2017-11-18
9021086,23815044,"8137 W Aster Dr, Peoria, AZ 85381 ",85381,0.41761426627635956,0.8234872817993164,0.34390003697653526,239000,https://www.zillow.com/homedetails/8137-W-Aster-Dr-Peoria-AZ-85381/8100990_zpid/,33.6013,-112.235,6512,2017-10-30
836722,23830966,"5221 N 41st Dr, Phoenix, AZ 85019 ",85019,0.4357109069824219,0.7890473306179047,0.34379652807558614,179000,https://www.zillow.com/homedetails/5221-N-41st-Dr-Phoenix-AZ-85019/67083438_zpid/,33.5124,-112.148,6526,2017-11-13
9025490,23867634,"4202 N 63rd Dr, Phoenix, AZ 85033 ",85033,0.39041973650455475,0.8799833655357361,0.34356287370085337,189900,https://www.zillow.com/homedetails/4202-N-63rd-Dr-Phoenix-AZ-85033/7717363_zpid/,33.4975,-112.196,6590,2018-01-16
9007274,23854421,"8426 W Bluefield Ave, Peoria, AZ 85382 ",85382,0.4008786678314209,0.8569060862064362,0.34351537029507284,229000,https://www.zillow.com/homedetails/8426-W-Bluefield-Ave-Peoria-AZ-85382/8129054_zpid/,33.6509,-112.241,6552,2017-12-09
1851930,23885755,"1315 W Manor St, Chandler, AZ 85224 ",85224,0.37018419802188873,0.9273480772972107,0.3432896042814084,247500,https://www.zillow.com/homedetails/1315-W-Manor-St-Chandler-AZ-85224/8194266_zpid/,33.328,-111.86399999999999,6605,2018-01-31
311927,23867850,"1329 W Taylor St, Phoenix, AZ 85007 ",85007,0.4446816146373749,0.7703707814216614,0.3425697229520406,206000,https://www.zillow.com/homedetails/1329-W-Taylor-St-Phoenix-AZ-85007/7521763_zpid/,33.454,-112.09,6591,2018-01-17
8989113,22740158,"19153 N 75TH Dr, Glendale, AZ 85308 ",85308,0.41037799417972565,0.834683895111084,0.34253590264980716,235000,https://www.zillow.com/homedetails/19153-N-75th-Dr-Glendale-AZ-85308/7892099_zpid/,33.6583,-112.221,6487,2017-10-05
553645,23781775,"1901 N 44th St, Phoenix, AZ 85008 ",85008,0.549840897321701,0.6216832995414734,0.3418269032697996,189000,https://www.zillow.com/homedetails/1901-N-44th-St-Phoenix-AZ-85008/7561032_zpid/,33.4681,-111.98700000000001,6317,2017-04-18
9026458,23868219,"3016 E Dahlia Dr, Phoenix, AZ 85032 ",85032,0.4008036106824875,0.8517159819602966,0.34137084084566727,239900,https://www.zillow.com/homedetails/3016-E-Dahlia-Dr-Phoenix-AZ-85032/7815219_zpid/,33.6034,-112.01700000000001,6591,2018-01-17
9029886,23905213,"11202 N 69th Ave, Peoria, AZ 85345 ",85345,0.38067232072353363,0.8954489231109619,0.3408726196500389,192500,https://www.zillow.com/homedetails/11202-N-69th-Ave-Peoria-AZ-85345/7699599_zpid/,33.586999999999996,-112.20700000000001,6591,2018-01-17
8950822,21960213,"7406 W Eva St, Peoria, AZ 85345 ",85345,0.42682141065597534,0.7968033254146576,0.3400927193688563,185000,https://www.zillow.com/homedetails/7406-W-Eva-St-Peoria-AZ-85345/7702481_zpid/,33.5683,-112.21799999999999,6346,2017-05-17
8992552,23882752,"6029 W Mary Jane Ln, Glendale, AZ 85306 ",85306,0.46000993251800537,0.7389523088932037,0.3399254017479869,239000,https://www.zillow.com/homedetails/6029-W-Mary-Jane-Ln-Glendale-AZ-85306/8097193_zpid/,33.6273,-112.189,6493,2017-10-11
9023243,23866706,"9140 W Gelding Dr, Peoria, AZ 85381 ",85381,0.37797266244888306,0.8992195427417755,0.3398804046961761,247000,https://www.zillow.com/homedetails/9140-W-Gelding-Dr-Peoria-AZ-85381/7908642_zpid/,33.6153,-112.255,6579,2018-01-05
327950,23884388,"2118 W Montebello Ave, Phoenix, AZ 85015 ",85015,0.41472387313842773,0.8182618021965027,0.33935270384816363,239000,https://www.zillow.com/homedetails/2118-W-Montebello-Ave-Phoenix-AZ-85015/7763188_zpid/,33.5211,-112.105,6591,2018-01-17
291865,23876911,"1656 E Indianola Ave, Phoenix, AZ 85016 ",85016,0.41973938047885895,0.8076104819774628,0.3389859233734529,149000,https://www.zillow.com/homedetails/1656-E-Indianola-Ave-Phoenix-AZ-85016/72639419_zpid/,33.4926,-112.045,6590,2018-01-16
342222,23780659,"1648 N 38th Dr, Phoenix, AZ 85009 ",85009,0.47166532278060913,0.7181913256645203,0.3387459434377895,129900,https://www.zillow.com/homedetails/1648-N-38th-Dr-Phoenix-AZ-85009/7511922_zpid/,33.4675,-112.14200000000001,6321,2017-04-22
364303,22743539,"9353 W Taylor St, Tolleson, AZ 85353 ",85353,0.45600681006908417,0.7418698668479919,0.338297711467729,99000,https://www.zillow.com/homedetails/9353-W-Taylor-St-Tolleson-AZ-85353/7477007_zpid/,33.4524,-112.26100000000001,6489,2017-10-07
354030,23866666,"8023 W Brill St, Phoenix, AZ 85043 ",85043,0.38353000581264496,0.8819682896137238,0.33826130324212,210000,https://www.zillow.com/homedetails/8023-W-Brill-St-Phoenix-AZ-85043/81990661_zpid/,33.4639,-112.23200000000001,6587,2018-01-13
261662,23863593,"4827 W Topeka Dr, Glendale, AZ 85308 ",85308,0.38629554212093353,0.8746616840362549,0.33787790940719375,230000,https://www.zillow.com/homedetails/4827-W-Topeka-Dr-Glendale-AZ-85308/7939843_zpid/,33.6597,-112.166,6569,2017-12-26
259461,23881240,"19660 N 48TH Ln, Glendale, AZ 85308 ",85308,0.38629554212093353,0.8737277984619141,0.33751715357297485,215000,https://www.zillow.com/homedetails/19660-N-48TH-Ln-Glendale-AZ-85308/7937777_zpid/,33.6639,-112.165,6584,2018-01-10
341677,23877656,"1340 N 38th Dr, Phoenix, AZ 85009 ",85009,0.3900931477546692,0.8634039163589478,0.33680795151617104,145000,https://www.zillow.com/homedetails/1340-N-38th-Dr-Phoenix-AZ-85009/7505251_zpid/,33.4636,-112.14200000000001,6590,2018-01-16
1354714,21989085,"6518 N 60th Ave, Glendale, AZ 85301 ",85301,0.47223301231861115,0.7131475210189819,0.3367718020783439,115000,https://www.zillow.com/homedetails/6518-N-60th-Ave-Glendale-AZ-85301/7707850_zpid/,33.532,-112.19,6359,2017-05-30
421990,23791113,"6451 W Sunnyslope Ln, Glendale, AZ 85302 ",85302,0.4427689015865326,0.7598600089550018,0.336442381524539,219900,https://www.zillow.com/homedetails/6451-W-Sunnyslope-Ln-Glendale-AZ-85302/7703523_zpid/,33.5702,-112.199,6305,2017-04-06
9026795,23893587,"9807 W Royal Oak Rd, Sun City, AZ 85351 ",85351,0.38688553869724274,0.8688959777355194,0.33616328841807386,164900,https://www.zillow.com/homedetails/9807-W-Royal-Oak-Rd-Sun-City-AZ-85351/8096145_zpid/,33.5995,-112.266,6565,2017-12-22
9029937,23905387,"9053 N 84th Ln, Peoria, AZ 85345 ",85345,0.382842555642128,0.8779202997684479,0.3361052512134557,212000,https://www.zillow.com/homedetails/9053-N-84th-Ln-Peoria-AZ-85345/7696834_zpid/,33.5673,-112.242,6586,2018-01-12
9018704,22731861,"13229 N 99th Dr, Sun City, AZ 85351 ",85351,0.4029231369495392,0.83099564909935,0.3348273737265286,152500,https://www.zillow.com/homedetails/13229-N-99th-Dr-Sun-City-AZ-85351/7914996_zpid/,33.6055,-112.27,6481,2017-09-29
9024048,23836145,"9411 W Glen Oaks Cir, Sun City, AZ 85351 ",85351,0.40809305012226105,0.8154874444007874,0.3327947585219251,140000,https://www.zillow.com/homedetails/9411-W-Glen-Oaks-Cir-Sun-City-AZ-85351/7922837_zpid/,33.6297,-112.26299999999999,6530,2017-11-17
17711,23887053,"5008 W Wikieup Ln, Glendale, AZ 85308 ",85308,0.37370140850543976,0.8891213536262512,0.33226590218239327,229000,https://www.zillow.com/homedetails/5008-W-Wikieup-Ln-Glendale-AZ-85308/7938109_zpid/,33.6638,-112.16799999999999,6585,2018-01-11
8945105,23869528,"6931 W North Ln, Peoria, AZ 85345 ",85345,0.37577761709690094,0.8828865587711334,0.3317690072218995,199500,https://www.zillow.com/homedetails/6931-W-North-Ln-Peoria-AZ-85345/7701981_zpid/,33.5808,-112.209,6590,2018-01-16
9023486,23827318,"9908 W Crosby Cir N, Sun City, AZ 85351 ",85351,0.4031122475862503,0.8219239413738251,0.33132760735215205,140000,https://www.zillow.com/homedetails/9908-W-Crosby-Cir-N-Sun-City-AZ-85351/7694583_zpid/,33.5838,-112.273,6526,2017-11-13
413085,21986995,"5754 W Shangri La Rd, Glendale, AZ 85304 ",85304,0.4505936801433563,0.7345459759235382,0.3309817745258803,227500,https://www.zillow.com/homedetails/5754-W-Shangri-La-Rd-Glendale-AZ-85304/7736186_zpid/,33.586999999999996,-112.18299999999999,6311,2017-04-12
1126522,23920569,"2802 N Pennington Dr, Chandler, AZ 85224 ",85224,0.3567345142364502,0.9251498281955719,0.3300328745572827,249000,https://www.zillow.com/homedetails/2802-N-Pennington-Dr-Chandler-AZ-85224/8176474_zpid/,33.3465,-111.87100000000001,6634,2018-03-01
9030467,23907928,"1105 S 6th Ave, Phoenix, AZ 85003 ",85003,0.3317548334598541,0.9944194555282593,0.3299034608580165,50000,https://www.zillow.com/homedetails/1105-S-6th-Ave-Phoenix-AZ-85003/2091048360_zpid/,33.437,-112.08200000000001,6619,2018-02-14
8991642,23869584,"9253 W Gold Dust Ave, Peoria, AZ 85345 ",85345,0.3673541396856308,0.8948435187339783,0.32872447097778323,215000,https://www.zillow.com/homedetails/9253-W-Gold-Dust-Ave-Peoria-AZ-85345/7697589_zpid/,33.5765,-112.26,6589,2018-01-15
350252,22116796,"3827 W Taylor St, Phoenix, AZ 85009 ",85009,0.4552069753408432,0.7221121191978455,0.32871047363701766,112500,https://www.zillow.com/homedetails/3827-W-Taylor-St-Phoenix-AZ-85009/7505668_zpid/,33.454,-112.14299999999999,6364,2017-06-04
400178,23868266,"10609 N 45TH Dr, Glendale, AZ 85304 ",85304,0.37072131037712097,0.8858446180820465,0.32840147760589655,184000,https://www.zillow.com/homedetails/10609-N-45th-Dr-Glendale-AZ-85304/7727734_zpid/,33.5826,-112.156,6591,2018-01-17
316554,23837195,"1843 E Harvard St, Phoenix, AZ 85006 ",85006,0.48745106160640717,0.6733797788619995,0.32823968807056936,119900,https://www.zillow.com/homedetails/1843-E-Harvard-St-Phoenix-AZ-85006/7531029_zpid/,33.4737,-112.041,6529,2017-11-16
1094758,23892220,"818 W Nopal Pl, Chandler, AZ 85225 ",85225,0.35023631155490875,0.9334336519241333,0.326922359331137,249990,https://www.zillow.com/homedetails/818-W-Nopal-Pl-Chandler-AZ-85225/8177792_zpid/,33.3423,-111.85799999999999,6627,2018-02-22
233478,23794869,"19046 N 15TH Ave, Phoenix, AZ 85027 ",85027,0.4464840143918991,0.7319359183311462,0.3267976870941114,229900,https://www.zillow.com/homedetails/19046-N-15th-Ave-Phoenix-AZ-85027/7969522_zpid/,33.6598,-112.09200000000001,6504,2017-10-22
9021371,23837196,"1845 E Harvard St, Phoenix, AZ 85006 ",85006,0.48745106160640717,0.6676433980464935,0.32544348315227234,89900,https://www.zillow.com/homedetails/1845-E-Harvard-St-Phoenix-AZ-85006/2092345277_zpid/,33.4737,-112.041,6529,2017-11-16
