property_id,transaction_id,address,zipcode,any_sell,good_sell,bayesian,list,url,lat,long,date_listed,transaction_date
240418,17871990,"17441 N 9th Ave, Phoenix, AZ 85023 ",85023,0.6796206533908844,0.9885619282722473,0.6718471036097373,219900,https://www.zillow.com/homedetails/17441-N-9th-Ave-Phoenix-AZ-85023/7963646_zpid/,33.6458,-112.085,6284,2017-03-16
237883,17872058,"3009 W Charleston Ave, Phoenix, AZ 85053 ",85053,0.6573697328567505,0.9885514974594116,0.6498438338000341,220000,https://www.zillow.com/homedetails/3009-W-Charleston-Ave-Phoenix-AZ-85053/7940776_zpid/,33.6487,-112.124,6284,2017-03-16
1935131,16185935,"4950 N Miller Rd, Scottsdale, AZ 85251 ",85251,0.6238240003585815,0.9885508418083191,0.6166817406947089,171000,https://www.zillow.com/homedetails/4950-N-Miller-Rd-Scottsdale-AZ-85251/2116188615_zpid/,33.5086,-111.919,6250,2017-02-10
9023830,23833574,"4019 W Woodridge Dr, Glendale, AZ 85308 ",85308,0.6967310905456543,0.8740628361701965,0.6089867530502886,217500,https://www.zillow.com/homedetails/4019-W-Woodridge-Dr-Glendale-AZ-85308/7946693_zpid/,33.64,-112.146,6524,2017-11-11
9006564,23814082,"16612 N 28th Way, Phoenix, AZ 85032 ",85032,0.713798463344574,0.8521121144294739,0.6082363178770542,194900,https://www.zillow.com/homedetails/16612-N-28th-Way-Phoenix-AZ-85032/8005824_zpid/,33.6376,-112.021,6511,2017-10-29
7413432,13306387,"7110 E Continental Dr, Scottsdale, AZ 85257 ",85257,0.6142116487026215,0.988547682762146,0.6071775020504937,150000,https://www.zillow.com/homedetails/7110-E-Continental-Dr-Scottsdale-AZ-85257/2111146291_zpid/,33.4595,-111.928,6248,2017-02-08
8988163,23818314,"2650 E Hartford Ave, Phoenix, AZ 85032 ",85032,0.6895168423652649,0.8711902797222137,0.6007003707733727,249500,https://www.zillow.com/homedetails/2650-E-Hartford-Ave-Phoenix-AZ-85032/59266670_zpid/,33.6425,-112.025,6515,2017-11-02
559942,16039077,"1331 W Baseline Rd, Mesa, AZ 85202 ",85202,0.6052822470664978,0.9885513186454773,0.598352563490284,135000,http://www.zillow.com/homedetails/1331-W-Baseline-Rd-Mesa-AZ-85202/2103729629_zpid/,33.3778,-111.86200000000001,6242,2017-02-02
321332,17869476,"2862 N Greenfield Rd, Phoenix, AZ 85006 ",85006,0.6046587228775024,0.9885603189468384,0.5977416199417718,219900,https://www.zillow.com/homedetails/2862-N-Greenfield-Rd-Phoenix-AZ-85006/7530738_zpid/,33.4792,-112.03399999999999,6267,2017-02-27
8977160,23825434,"16231 N 91st Dr, Peoria, AZ 85382 ",85382,0.6503214240074158,0.9168386161327362,0.5962397944284294,233000,https://www.zillow.com/homedetails/16231-N-91st-Dr-Peoria-AZ-85382/2123153916_zpid/,33.6316,-112.25200000000001,6526,2017-11-13
9019224,23831968,"8005 W Shaw Butte Dr, Peoria, AZ 85345 ",85345,0.6601506173610687,0.9020827412605286,0.5955104785539032,225500,https://www.zillow.com/homedetails/8005-W-Shaw-Butte-Dr-Peoria-AZ-85345/7680677_zpid/,33.5951,-112.23100000000001,6527,2017-11-14
7405341,13303918,"3626 N 37th St, Phoenix, AZ 85018 ",85018,0.6014278829097748,0.9885517954826355,0.5945426135037781,119000,https://www.zillow.com/homedetails/3626-N-37th-St-Phoenix-AZ-85018/2104158165_zpid/,33.4905,-112.00200000000001,6240,2017-01-31
354621,23808089,"2310 E Winchcomb Dr, Phoenix, AZ 85022 ",85022,0.6880276799201965,0.86240154504776,0.5933561341988032,224900,https://www.zillow.com/homedetails/2310-E-Winchcomb-Dr-Phoenix-AZ-85022/8010116_zpid/,33.6168,-112.03399999999999,6507,2017-10-25
264257,23752112,"7723 W Oraibi Dr, Glendale, AZ 85308 ",85308,0.6534284055233002,0.9020781517028809,0.5894434883246191,244995,https://www.zillow.com/homedetails/7723-W-Oraibi-Dr-Glendale-AZ-85308/7891683_zpid/,33.6615,-112.22399999999999,6495,2017-10-13
402515,23808878,"15205 N 51st Dr, Glendale, AZ 85306 ",85306,0.6689433753490448,0.8700694441795349,0.5820271907775254,189900,https://www.zillow.com/homedetails/15205-N-51st-Dr-Glendale-AZ-85306/7910980_zpid/,33.6226,-112.169,6508,2017-10-26
422412,23760087,"6622 W Golden Ln, Glendale, AZ 85302 ",85302,0.6525313556194305,0.8890838623046875,0.5801550979290369,190000,https://www.zillow.com/homedetails/6622-W-Golden-Ln-Glendale-AZ-85302/50187805_zpid/,33.5652,-112.20200000000001,6502,2017-10-20
9019482,23822508,"8505 W Oraibi Dr, Peoria, AZ 85382 ",85382,0.6507766842842102,0.8906535506248474,0.5796165645215972,240000,https://www.zillow.com/homedetails/8505-W-Oraibi-Dr-Peoria-AZ-85382/8105887_zpid/,33.6616,-112.242,6518,2017-11-05
1469883,23825764,"8507 W Oraibi Dr, Peoria, AZ 85382 ",85382,0.6528743207454681,0.8859416842460632,0.5784085753222445,237500,https://www.zillow.com/homedetails/8507-W-Oraibi-Dr-Peoria-AZ-85382/8105886_zpid/,33.6613,-112.242,6524,2017-11-11
9021871,23807926,"12120 N 89th Dr, Peoria, AZ 85345 ",85345,0.6418830752372742,0.9005279839038849,0.5780336716454482,249900,https://www.zillow.com/homedetails/12120-N-89th-Dr-Peoria-AZ-85345/7685583_zpid/,33.5947,-112.25200000000001,6507,2017-10-25
9019398,23819886,"2116 E Vista Dr, Phoenix, AZ 85022 ",85022,0.6638415157794952,0.8694524765014648,0.5771786498989684,249900,https://www.zillow.com/homedetails/2116-E-Vista-Dr-Phoenix-AZ-85022/8010925_zpid/,33.6222,-112.037,6516,2017-11-03
243287,22690475,"3218 W Angela Dr, Phoenix, AZ 85053 ",85053,0.6868442893028259,0.8333859443664551,0.5724063766733423,209000,https://www.zillow.com/homedetails/3218-W-Angela-Dr-Phoenix-AZ-85053/7942085_zpid/,33.6461,-112.12899999999999,6470,2017-09-18
8989113,22740158,"19153 N 75th Dr, Glendale, AZ 85308 ",85308,0.6558080613613129,0.8727331459522247,0.5723454325326882,235000,https://www.zillow.com/homedetails/19153-N-75th-Dr-Glendale-AZ-85308/7892099_zpid/,33.6583,-112.221,6487,2017-10-05
646296,17862449,"2248 W Del Oro Cir, Mesa, AZ 85202 ",85202,0.5783747136592865,0.9885550737380981,0.5717552577097074,230000,https://www.zillow.com/homedetails/2248-W-Del-Oro-Cir-Mesa-AZ-85202/7602090_zpid/,33.4019,-111.88,6291,2017-03-23
8958977,23756263,"2545 E Piute Ave, Phoenix, AZ 85050 ",85050,0.6696474254131317,0.8533955514431,0.5714741338828917,159000,https://www.zillow.com/homedetails/2545-E-Piute-Ave-Phoenix-AZ-85050/7994601_zpid/,33.6629,-112.027,6495,2017-10-13
354125,22802972,"2231 E Everett Dr, Phoenix, AZ 85022 ",85022,0.7043991088867188,0.8105976283550262,0.5709842470789681,206900,https://www.zillow.com/homedetails/2231-E-Everett-Dr-Phoenix-AZ-85022/8014080_zpid/,33.6195,-112.03399999999999,6492,2017-10-10
392547,17866420,"3301 W Paradise Dr, Phoenix, AZ 85029 ",85029,0.5765355825424194,0.9885606169700623,0.5699403711833284,217500,https://www.zillow.com/homedetails/3301-W-Paradise-Dr-Phoenix-AZ-85029/7748604_zpid/,33.5947,-112.13,6275,2017-03-07
9023081,23823763,"7727 W Julie Dr, Glendale, AZ 85308 ",85308,0.6388159692287445,0.8861410617828369,0.5660810612561917,185000,https://www.zillow.com/homedetails/7727-W-Julie-Dr-Glendale-AZ-85308/7891914_zpid/,33.6539,-112.226,6519,2017-11-06
9021086,23815044,"8137 W Aster Dr, Peoria, AZ 85381 ",85381,0.6361594498157501,0.8870081901550293,0.5642786422310877,239000,https://www.zillow.com/homedetails/8137-W-Aster-Dr-Peoria-AZ-85381/8100990_zpid/,33.6013,-112.235,6512,2017-10-30
1864574,23822334,"9873 W Escuda Dr, Peoria, AZ 85382 ",85382,0.635654091835022,0.8868290781974792,0.5637165323145084,245000,https://www.zillow.com/homedetails/9873-W-Escuda-Dr-Peoria-AZ-85382/7896125_zpid/,33.6652,-112.271,6519,2017-11-06
8850973,23814108,"2525 E Michigan Ave, Phoenix, AZ 85032 ",85032,0.6773775517940521,0.8289277255535126,0.5614970333496503,225000,https://www.zillow.com/homedetails/2525-E-Michigan-Ave-Phoenix-AZ-85032/7999906_zpid/,33.6507,-112.027,6511,2017-10-29
261479,23789366,"4757 W Topeka Dr, Glendale, AZ 85308 ",85308,0.6790406107902527,0.8266270458698273,0.5613133341231897,225000,https://www.zillow.com/homedetails/4757-W-Topeka-Dr-Glendale-AZ-85308/7939742_zpid/,33.6603,-112.164,6302,2017-04-03
9023660,23829074,"3140 E Michigan Ave, Phoenix, AZ 85032 ",85032,0.6421872079372406,0.8732741475105286,0.5608054865535603,205000,https://www.zillow.com/homedetails/3140-E-Michigan-Ave-Phoenix-AZ-85032/7999282_zpid/,33.652,-112.014,6523,2017-11-10
7450963,23779216,"13854 N 91st Dr, Peoria, AZ 85381 ",85381,0.6819240152835846,0.8215046525001526,0.5602037512070499,225000,https://www.zillow.com/homedetails/13854-N-91st-Dr-Peoria-AZ-85381/7908457_zpid/,33.6103,-112.256,6284,2017-03-16
9013787,22693106,"5647 W Villa Theresa Dr, Glendale, AZ 85308 ",85308,0.6916750967502594,0.8098012804985046,0.5601193790372871,210000,https://www.zillow.com/homedetails/5647-W-Villa-Theresa-Dr-Glendale-AZ-85308/7901269_zpid/,33.6537,-112.182,6471,2017-09-19
8970849,23830064,"3715 E Delcoa Dr, Phoenix, AZ 85032 ",85032,0.6450616717338562,0.8678308427333832,0.5598044141957974,220000,https://www.zillow.com/homedetails/3715-E-Delcoa-Dr-Phoenix-AZ-85032/7813615_zpid/,33.6109,-112.00200000000001,6507,2017-10-25
9023260,23825739,"6913 W Beryl Ave, Peoria, AZ 85345 ",85345,0.6389224231243134,0.8759406805038452,0.5596581421006768,197000,https://www.zillow.com/homedetails/6913-W-Beryl-Ave-Peoria-AZ-85345/7701889_zpid/,33.5787,-112.208,6524,2017-11-11
409111,23815119,"6540 W Phelps Rd, Glendale, AZ 85306 ",85306,0.6522762179374695,0.8579117059707642,0.5595954028948924,209900,https://www.zillow.com/homedetails/6540-W-Phelps-Rd-Glendale-AZ-85306/7901955_zpid/,33.6361,-112.20100000000001,6512,2017-10-30
9021585,23824122,"12612 N 79th Ave, Peoria, AZ 85381 ",85381,0.6292068362236023,0.8859899044036865,0.5574709046758954,225000,https://www.zillow.com/homedetails/12612-N-79th-Ave-Peoria-AZ-85381/8101178_zpid/,33.5997,-112.229,6522,2017-11-09
7445518,23781525,"18009 N 89th Dr, Peoria, AZ 85382 ",85382,0.6530744731426239,0.8523234128952026,0.5566306638236576,240000,https://www.zillow.com/homedetails/18009-N-89th-Dr-Peoria-AZ-85382/8105128_zpid/,33.6473,-112.251,6280,2017-03-12
1349271,23815006,"5556 W Gardenia Ave, Glendale, AZ 85301 ",85301,0.6407846808433533,0.8671137988567352,0.5556332388552807,174900,https://www.zillow.com/homedetails/5556-W-Gardenia-Ave-Glendale-AZ-85301/2136646466_zpid/,33.5451,-112.18,6512,2017-10-30
7449241,23819586,"11935 N 68th Ave, Peoria, AZ 85345 ",85345,0.6223735213279724,0.8904015421867371,0.5541623432066167,245000,https://www.zillow.com/homedetails/11935-N-68th-Ave-Peoria-AZ-85345/7700139_zpid/,33.594,-112.204,6516,2017-11-03
9022078,23810726,"1132 E Villa Maria Dr, Phoenix, AZ 85022 ",85022,0.641472578048706,0.8638393580913544,0.5541292600548005,215000,https://www.zillow.com/homedetails/1132-E-Villa-Maria-Dr-Phoenix-AZ-85022/8002438_zpid/,33.6518,-112.057,6509,2017-10-27
1356244,23823740,"6825 N 60th Ave, Glendale, AZ 85301 ",85301,0.6339148283004761,0.8739099204540253,0.5539844571746961,182000,https://www.zillow.com/homedetails/6825-N-60th-Ave-Glendale-AZ-85301/7707716_zpid/,33.5378,-112.189,6521,2017-11-08
412062,23570538,"5339 W Cholla St, Glendale, AZ 85304 ",85304,0.6303862929344177,0.8784313797950745,0.5537511011062826,209000,https://www.zillow.com/homedetails/5339-W-Cholla-St-Glendale-AZ-85304/7736846_zpid/,33.5891,-112.175,6494,2017-10-12
9020195,23820290,"8638 W Laurel Ln, Peoria, AZ 85345 ",85345,0.6388054490089417,0.8666686415672302,0.553632650718324,247700,https://www.zillow.com/homedetails/8638-W-Laurel-Ln-Peoria-AZ-85345/7685468_zpid/,33.5934,-112.245,6516,2017-11-03
1090459,23810641,"631 W Caroline Ln, Chandler, AZ 85225 ",85225,0.5988093614578247,0.9223251044750214,0.552296906867209,230000,https://www.zillow.com/homedetails/631-W-Caroline-Ln-Chandler-AZ-85225/8183658_zpid/,33.3304,-111.851,6509,2017-10-27
1864035,23827306,"9916 W Pinehurst Dr, Sun City, AZ 85351 ",85351,0.6288419663906097,0.8765149414539337,0.5511893793546419,179000,https://www.zillow.com/homedetails/9916-W-Pinehurst-Dr-Sun-City-AZ-85351/7694613_zpid/,33.5818,-112.274,6526,2017-11-13
402730,23831013,"15243 N 66th Dr, Glendale, AZ 85306 ",85306,0.635421633720398,0.8667972087860107,0.5507816985110878,239900,https://www.zillow.com/homedetails/15243-N-66th-Dr-Glendale-AZ-85306/8100497_zpid/,33.6248,-112.20100000000001,6524,2017-11-11
9021586,23838024,"8142 W Sweetwater Ave, Peoria, AZ 85381 ",85381,0.6139960289001465,0.8965180814266205,0.5504585418331231,240000,https://www.zillow.com/homedetails/8142-W-Sweetwater-Ave-Peoria-AZ-85381/7913307_zpid/,33.6028,-112.235,6529,2017-11-16
355855,23833551,"702 E Rose Marie Ln, Phoenix, AZ 85022 ",85022,0.6241913437843323,0.881468266248703,0.5502048616130235,247000,https://www.zillow.com/homedetails/702-E-Rose-Marie-Ln-Phoenix-AZ-85022/49942677_zpid/,33.6527,-112.065,6527,2017-11-14
9018003,23819878,"1842 W Alamo Dr, Chandler, AZ 85224 ",85224,0.6051730215549469,0.9067419469356537,0.5487357637976649,244500,https://www.zillow.com/homedetails/1842-W-Alamo-Dr-Chandler-AZ-85224/8199834_zpid/,33.3482,-111.875,6516,2017-11-03
258476,23717515,"614 W Rosemonte Dr, Phoenix, AZ 85027 ",85027,0.6280367076396942,0.8735806941986084,0.5486407430420925,234900,https://www.zillow.com/homedetails/614-W-Rosemonte-Dr-Phoenix-AZ-85027/7968459_zpid/,33.657,-112.08200000000001,6494,2017-10-12
420568,22722083,"5807 W Puget Ave, Glendale, AZ 85302 ",85302,0.6306047439575195,0.8694164752960205,0.5482581537964961,200000,https://www.zillow.com/homedetails/5807-W-Puget-Ave-Glendale-AZ-85302/7733279_zpid/,33.5668,-112.185,6477,2017-09-25
9023486,23827318,"9908 W Crosby Cir N, Sun City, AZ 85351 ",85351,0.6297566592693329,0.8687271773815155,0.5470867250442604,140000,https://www.zillow.com/homedetails/9908-W-Crosby-Cir-N-Sun-City-AZ-85351/7694583_zpid/,33.5838,-112.273,6526,2017-11-13
422210,23835261,"6538 W Vogel Ave, Glendale, AZ 85302 ",85302,0.6057157218456268,0.9029210805892944,0.5469134940987779,209000,https://www.zillow.com/homedetails/6538-W-Vogel-Ave-Glendale-AZ-85302/7703283_zpid/,33.5724,-112.20100000000001,6529,2017-11-16
9021916,23821887,"5114 W Vogel Ave, Glendale, AZ 85302 ",85302,0.6257531344890594,0.8726078569889069,0.5460371016905894,152000,https://www.zillow.com/homedetails/5114-W-Vogel-Ave-Glendale-AZ-85302/92348849_zpid/,33.5721,-112.17,6518,2017-11-05
9023033,23823351,"437 E Wescott Dr, Phoenix, AZ 85024 ",85024,0.6276455223560333,0.8672875463962555,0.5443491450907603,225000,https://www.zillow.com/homedetails/437-E-Wescott-Dr-Phoenix-AZ-85024/2092120604_zpid/,33.6585,-112.068,6521,2017-11-08
9026004,23861172,"7312 W Eugie Ave, Peoria, AZ 85381 ",85381,0.6153315901756287,0.8844413161277771,0.544224681469931,195000,https://www.zillow.com/homedetails/7312-W-Eugie-Ave-Peoria-AZ-85381/7925183_zpid/,33.6082,-112.21600000000001,6531,2017-11-18
7564801,23760240,"9711 W Alabama Ave, Sun City, AZ 85351 ",85351,0.6517839133739471,0.8329570591449738,0.5429080116819653,199900,https://www.zillow.com/homedetails/9711-W-Alabama-Ave-Sun-City-AZ-85351/7685981_zpid/,33.5933,-112.266,6502,2017-10-20
8992552,23527037,"6029 W Mary Jane Ln, Glendale, AZ 85306 ",85306,0.6541702747344971,0.8296948671340942,0.5427617191789125,239000,https://www.zillow.com/homedetails/6029-W-Mary-Jane-Ln-Glendale-AZ-85306/8097193_zpid/,33.6273,-112.189,6493,2017-10-11
9012841,23819608,"8121 W Hatcher Rd, Peoria, AZ 85345 ",85345,0.6159946620464325,0.8802445530891418,0.5422259459983589,239000,https://www.zillow.com/homedetails/8121-W-Hatcher-Rd-Peoria-AZ-85345/7682649_zpid/,33.57,-112.234,6515,2017-11-02
402127,23814880,"14638 N 62nd Ave, Glendale, AZ 85306 ",85306,0.6277200877666473,0.8623441457748413,0.5413107428708379,230000,https://www.zillow.com/homedetails/14638-N-62nd-Ave-Glendale-AZ-85306/8098778_zpid/,33.6177,-112.191,6512,2017-10-30
7389079,23836128,"12207 N Sun Valley Dr, Sun City, AZ 85351 ",85351,0.6318695247173309,0.8546143472194672,0.5400047613941767,209900,https://www.zillow.com/homedetails/12207-N-Sun-Valley-Dr-Sun-City-AZ-85351/7686174_zpid/,33.5952,-112.271,6530,2017-11-17
9012276,23755797,"5861 W Grovers Ave, Glendale, AZ 85308 ",85308,0.6393506526947021,0.843343049287796,0.5391919290076927,207000,https://www.zillow.com/homedetails/5861-W-Grovers-Ave-Glendale-AZ-85308/8099781_zpid/,33.6472,-112.186,6500,2017-10-18
5088735,23778838,"1314 W Cortez Ct, Chandler, AZ 85224 ",85224,0.6190831959247589,0.870401918888092,0.5388512016842828,239900,https://www.zillow.com/homedetails/1314-W-Cortez-Ct-Chandler-AZ-85224/8172443_zpid/,33.3557,-111.865,6270,2017-03-02
242590,22686911,"3202 W Angela Dr, Phoenix, AZ 85053 ",85053,0.6580767333507538,0.8187731802463531,0.538815579811728,234900,https://www.zillow.com/homedetails/3202-W-Angela-Dr-Phoenix-AZ-85053/7942083_zpid/,33.6461,-112.12799999999999,6464,2017-09-12
415297,23835189,"10114 N 66th Ln, Glendale, AZ 85302 ",85302,0.6038024425506592,0.8923306167125702,0.5387914059337859,197500,https://www.zillow.com/homedetails/10114-N-66th-Ln-Glendale-AZ-85302/67083300_zpid/,33.5779,-112.20299999999999,6528,2017-11-15
350009,23781671,"18518 N 20th Pl, Phoenix, AZ 85022 ",85022,0.6831713616847992,0.7875879406929016,0.5380575258896965,225000,https://www.zillow.com/homedetails/18518-N-20th-Pl-Phoenix-AZ-85022/61629214_zpid/,33.6544,-112.038,6286,2017-03-18
1410407,23835273,"7080 W Glenn Dr, Glendale, AZ 85303 ",85303,0.6019422113895416,0.8924323618412018,0.5371927094022846,234900,https://www.zillow.com/homedetails/7080-W-Glenn-Dr-Glendale-AZ-85303/55173602_zpid/,33.5399,-112.211,6528,2017-11-15
8964694,23800320,"9084 N 80th Ln, Peoria, AZ 85345 ",85345,0.6387416124343872,0.8410086333751678,0.5371872105532951,170000,https://www.zillow.com/homedetails/9084-N-80th-Ln-Peoria-AZ-85345/50187199_zpid/,33.5677,-112.23299999999999,6422,2017-08-01
9018953,23821610,"1515 W Utopia Rd, Phoenix, AZ 85027 ",85027,0.6393925249576569,0.8397881984710693,0.5369542966500589,210000,https://www.zillow.com/homedetails/1515-W-Utopia-Rd-Phoenix-AZ-85027/7969635_zpid/,33.6617,-112.09200000000001,6518,2017-11-05
7414060,13288806,"2040 N 72nd Ln, Phoenix, AZ 85035 ",85035,0.5429038852453232,0.9885542392730713,0.5366899372770852,200000,https://www.zillow.com/homedetails/2040-N-72nd-Ln-Phoenix-AZ-85035/2095313780_zpid/,33.4705,-112.215,6253,2017-02-13
422454,22731449,"6652 W Delmonico Ln, Glendale, AZ 85302 ",85302,0.6271305084228516,0.8554486632347107,0.5364779551040328,235000,https://www.zillow.com/homedetails/6652-W-Delmonico-Ln-Glendale-AZ-85302/50187742_zpid/,33.5645,-112.20200000000001,6481,2017-09-29
9012337,23837926,"3324 E Thunderbird Rd, Phoenix, AZ 85032 ",85032,0.614939421415329,0.8720796704292297,0.5362761679618213,210000,https://www.zillow.com/homedetails/3324-E-Thunderbird-Rd-Phoenix-AZ-85032/8011849_zpid/,33.6116,-112.01100000000001,6529,2017-11-16
9025900,23860183,"7635 W Desert Cove Ave, Peoria, AZ 85345 ",85345,0.6011038422584534,0.8918246030807495,0.5360791955324586,178000,https://www.zillow.com/homedetails/7635-W-Desert-Cove-Ave-Peoria-AZ-85345/7681678_zpid/,33.5849,-112.22399999999999,6537,2017-11-24
833447,23561389,"5713 N 42nd Ave, Phoenix, AZ 85019 ",85019,0.6121573448181152,0.8710730969905853,0.5332337941962493,165000,https://www.zillow.com/homedetails/5713-N-42nd-Ave-Phoenix-AZ-85019/7718429_zpid/,33.5207,-112.148,6495,2017-10-13
9023475,23827261,"12202 N Balboa Dr, Sun City, AZ 85351 ",85351,0.607263594865799,0.8775179088115692,0.5328846798640319,159500,https://www.zillow.com/homedetails/12202-N-Balboa-Dr-Sun-City-AZ-85351/7916635_zpid/,33.5958,-112.274,6526,2017-11-13
8950822,21960213,"7406 W Eva St, Peoria, AZ 85345 ",85345,0.6508481502532959,0.8177977502346039,0.5322621530214988,185000,https://www.zillow.com/homedetails/7406-W-Eva-St-Peoria-AZ-85345/7702481_zpid/,33.5683,-112.21799999999999,6346,2017-05-17
402667,23823693,"15234 N 51st Dr, Glendale, AZ 85306 ",85306,0.635758250951767,0.8361679315567017,0.5316006616684454,245000,https://www.zillow.com/homedetails/15234-N-51st-Dr-Glendale-AZ-85306/7911002_zpid/,33.6236,-112.169,6519,2017-11-06
233478,23794869,"19046 N 15th Ave, Phoenix, AZ 85027 ",85027,0.6335821151733398,0.8386731147766113,0.5313682859991786,229900,https://www.zillow.com/homedetails/19046-N-15th-Ave-Phoenix-AZ-85027/7969522_zpid/,33.6598,-112.09200000000001,6504,2017-10-22
8989092,22502911,"2617 E Waltann Ln, Phoenix, AZ 85032 ",85032,0.688479483127594,0.7704368233680725,0.530429945934916,150000,https://www.zillow.com/homedetails/2617-E-Waltann-Ln-Phoenix-AZ-85032/8007629_zpid/,33.6283,-112.02600000000001,6433,2017-08-12
413653,23822290,"6114 W Shaw Butte Dr, Glendale, AZ 85304 ",85304,0.5922603607177734,0.8954573273658752,0.5303438797130866,249999,https://www.zillow.com/homedetails/6114-W-Shaw-Butte-Dr-Glendale-AZ-85304/7698065_zpid/,33.596,-112.191,6519,2017-11-06
422357,23752505,"6612 W Brown St, Glendale, AZ 85302 ",85302,0.6050757169723511,0.8742992877960205,0.529017268411593,199000,https://www.zillow.com/homedetails/6612-W-Brown-St-Glendale-AZ-85302/7706362_zpid/,33.5783,-112.20100000000001,6496,2017-10-14
9024048,23836145,"9411 W Glen Oaks Cir, Sun City, AZ 85351 ",85351,0.6046432554721832,0.8742761015892029,0.5286251482464248,140000,https://www.zillow.com/homedetails/9411-W-Glen-Oaks-Cir-Sun-City-AZ-85351/7922837_zpid/,33.6297,-112.26299999999999,6530,2017-11-17
406363,23789864,"5213 W Evans Dr, Glendale, AZ 85306 ",85306,0.6832130253314972,0.7732627093791962,0.5283031550509909,209900,https://www.zillow.com/homedetails/5213-W-Evans-Dr-Glendale-AZ-85306/8097361_zpid/,33.6172,-112.17200000000001,6303,2017-04-04
9023935,23834938,"18241 N 31st St, Phoenix, AZ 85032 ",85032,0.603420078754425,0.8734369575977325,0.5270493977406492,225000,https://www.zillow.com/homedetails/18241-N-31st-St-Phoenix-AZ-85032/7999264_zpid/,33.6531,-112.016,6530,2017-11-17
424042,23835298,"9015 N 57th Ave, Glendale, AZ 85302 ",85302,0.6013491749763489,0.8762525320053101,0.5269337371923299,205000,https://www.zillow.com/homedetails/9015-N-57th-Ave-Glendale-AZ-85302/7734719_zpid/,33.5681,-112.182,6529,2017-11-16
224188,23754064,"14213 N 35th Dr, Phoenix, AZ 85053 ",85053,0.632841020822525,0.8310343325138092,0.5259126153266047,200000,https://www.zillow.com/homedetails/14213-N-35th-Dr-Phoenix-AZ-85053/7944539_zpid/,33.6154,-112.135,6498,2017-10-16
7399050,13303764,"6901 W Villa Rd, Phoenix, AZ 85033 ",85033,0.5316042006015778,0.9885457158088684,0.525515055010688,69900,https://www.zillow.com/homedetails/6901-W-Villa-Rd-Phoenix-AZ-85033/2120298628_zpid/,33.4952,-112.208,6239,2017-01-30
8976262,22541368,"2918 E Nisbet Ct, Phoenix, AZ 85032 ",85032,0.6721600294113159,0.7811198830604553,0.5250375635716793,219500,https://www.zillow.com/homedetails/2918-E-Nisbet-Ct-Phoenix-AZ-85032/8011642_zpid/,33.6234,-112.01899999999999,6440,2017-08-19
7450958,21944041,"12172 N 86th Ln, Peoria, AZ 85345 ",85345,0.6655565500259399,0.7888602316379547,0.525031094221621,215000,https://www.zillow.com/homedetails/12172-N-86th-Ln-Peoria-AZ-85345/7685390_zpid/,33.5947,-112.24600000000001,6289,2017-03-21
1410517,23856547,"7108 N 73rd Dr, Glendale, AZ 85303 ",85303,0.5771304368972778,0.9080514311790466,0.5240641192015616,222000,https://www.zillow.com/homedetails/7108-N-73rd-Dr-Glendale-AZ-85303/82823489_zpid/,33.5387,-112.21700000000001,6532,2017-11-19
424652,22494705,"9451 N 65th Ave, Glendale, AZ 85302 ",85302,0.6309307515621185,0.829186737537384,0.5231594114998028,179999,https://www.zillow.com/homedetails/9451-N-65th-Ave-Glendale-AZ-85302/7703396_zpid/,33.573,-112.199,6426,2017-08-05
9023880,23833725,"3454 E Libby St, Phoenix, AZ 85032 ",85032,0.607025533914566,0.860863596200943,0.5225661841114908,233000,https://www.zillow.com/homedetails/3454-E-Libby-St-Phoenix-AZ-85032/92349104_zpid/,33.6476,-112.005,6528,2017-11-15
8995968,22560409,"13818 N 43rd St, Phoenix, AZ 85032 ",85032,0.6793807148933411,0.7686610221862793,0.5222134747635607,160000,https://www.zillow.com/homedetails/13818-N-43rd-St-Phoenix-AZ-85032/8030572_zpid/,33.6125,-111.99,6441,2017-08-20
9018704,22731861,"13229 N 99th Dr, Sun City, AZ 85351 ",85351,0.631483256816864,0.8256545662879944,0.521387034525258,152500,https://www.zillow.com/homedetails/13229-N-99th-Dr-Sun-City-AZ-85351/7914996_zpid/,33.6055,-112.27,6481,2017-09-29
9006525,23825388,"12206 N Rio Vista Dr, Sun City, AZ 85351 ",85351,0.6177630722522736,0.8437042236328125,0.5212093132636255,239000,https://www.zillow.com/homedetails/12206-N-Rio-Vista-Dr-Sun-City-AZ-85351/67083172_zpid/,33.5947,-112.26899999999999,6520,2017-11-07
7428103,23779456,"14238 N Lakeforest Dr, Sun City, AZ 85351 ",85351,0.6618216931819916,0.7869228720664978,0.5208026275946853,169900,https://www.zillow.com/homedetails/14238-N-Lakeforest-Dr-Sun-City-AZ-85351/7922322_zpid/,33.6141,-112.26700000000001,6265,2017-02-25
9024049,23836147,"9545 W Briarwood Cir N, Sun City, AZ 85351 ",85351,0.5968241095542908,0.8722109794616699,0.520556541160687,210000,https://www.zillow.com/homedetails/9545-W-Briarwood-Cir-N-Sun-City-AZ-85351/7904970_zpid/,33.6371,-112.266,6530,2017-11-17
9023942,23834986,"3552 E Le Marche Ave, Phoenix, AZ 85032 ",85032,0.6285013854503632,0.8268740177154541,0.519691465727071,205000,https://www.zillow.com/homedetails/3552-E-Le-Marche-Ave-Phoenix-AZ-85032/8007139_zpid/,33.6329,-112.005,6530,2017-11-17
256392,23822269,"4228 W Hearn Rd, Phoenix, AZ 85053 ",85053,0.5994490683078766,0.8644940257072449,0.5182201382679335,229500,https://www.zillow.com/homedetails/4228-W-Hearn-Rd-Phoenix-AZ-85053/7944988_zpid/,33.6147,-112.15100000000001,6518,2017-11-05
8984109,23843223,"7426 W Carol Ave, Peoria, AZ 85345 ",85345,0.5730806887149811,0.9029561877250671,0.5174667539409352,195000,https://www.zillow.com/homedetails/7426-W-Carol-Ave-Peoria-AZ-85345/7702134_zpid/,33.5726,-112.219,6537,2017-11-24
407925,23791005,"6023 W Redfield Rd, Glendale, AZ 85306 ",85306,0.6450662612915039,0.802159994840622,0.5174463488294521,179900,https://www.zillow.com/homedetails/6023-W-Redfield-Rd-Glendale-AZ-85306/7910719_zpid/,33.6135,-112.18799999999999,6309,2017-04-10
836722,23830966,"5221 N 41st Dr, Phoenix, AZ 85019 ",85019,0.5948140621185303,0.8688221573829651,0.5167876366915465,179000,https://www.zillow.com/homedetails/5221-N-41st-Dr-Phoenix-AZ-85019/67083438_zpid/,33.5124,-112.148,6526,2017-11-13
831187,23815076,"3944 W Cavalier Dr, Phoenix, AZ 85019 ",85019,0.5957426130771637,0.8671866059303284,0.5166200146424504,210000,https://www.zillow.com/homedetails/3944-W-Cavalier-Dr-Phoenix-AZ-85019/7760413_zpid/,33.5263,-112.145,6512,2017-10-30
243119,22391945,"18226 N 10th Dr, Phoenix, AZ 85023 ",85023,0.6537424921989441,0.7901193201541901,0.5165345734921356,225000,https://www.zillow.com/homedetails/18226-N-10th-Dr-Phoenix-AZ-85023/7956715_zpid/,33.652,-112.086,6401,2017-07-11
401171,22726857,"14216 N 45th Dr, Glendale, AZ 85306 ",85306,0.6357191801071167,0.8118233680725098,0.5160916859428539,199900,https://www.zillow.com/homedetails/14216-N-45th-Dr-Glendale-AZ-85306/7952135_zpid/,33.6149,-112.15700000000001,6478,2017-09-26
354473,23783928,"2302 E Beck Ln, Phoenix, AZ 85022 ",85022,0.6859841346740723,0.75212562084198,0.515946243179485,149900,https://www.zillow.com/homedetails/2302-E-Beck-Ln-Phoenix-AZ-85022/8007955_zpid/,33.6274,-112.03299999999999,6282,2017-03-14
1356715,23831093,"7327 N 47th Ave, Glendale, AZ 85301 ",85301,0.5921051800251007,0.8710219860076904,0.5157366298309043,189500,https://www.zillow.com/homedetails/7327-N-47th-Ave-Glendale-AZ-85301/7725576_zpid/,33.545,-112.16,6523,2017-11-10
230822,23837058,"19206 N 4th St, Phoenix, AZ 85024 ",85024,0.575683057308197,0.8950157463550568,0.5152454012006569,225000,https://www.zillow.com/homedetails/19206-N-4th-St-Phoenix-AZ-85024/7972304_zpid/,33.6605,-112.07,6529,2017-11-16
234163,23837062,"1923 W Kristal Way, Phoenix, AZ 85027 ",85027,0.5962914228439331,0.8622711598873138,0.5141648968064949,220000,https://www.zillow.com/homedetails/1923-W-Kristal-Way-Phoenix-AZ-85027/7969934_zpid/,33.6606,-112.101,6529,2017-11-16
411581,22708161,"5226 W Eugie Ave, Glendale, AZ 85304 ",85304,0.6296482682228088,0.8156816363334656,0.5135925297385135,220000,https://www.zillow.com/homedetails/5226-W-Eugie-Ave-Glendale-AZ-85304/7911821_zpid/,33.608000000000004,-112.17200000000001,6473,2017-09-21
238285,23837083,"3015 W Villa Rita Dr, Phoenix, AZ 85053 ",85053,0.5932251214981079,0.8656983375549316,0.5135540014767344,225000,https://www.zillow.com/homedetails/3015-W-Villa-Rita-Dr-Phoenix-AZ-85053/7940712_zpid/,33.65,-112.124,6529,2017-11-16
9022111,23817234,"7629 N 44th Dr, Glendale, AZ 85301 ",85301,0.5963913202285767,0.860855758190155,0.5134069021533989,195000,https://www.zillow.com/homedetails/7629-N-44th-Dr-Glendale-AZ-85301/7725279_zpid/,33.5492,-112.155,6514,2017-11-01
411351,23831053,"5194 W Paradise Dr, Glendale, AZ 85304 ",85304,0.5861932337284088,0.8757872581481934,0.5133805649120262,214900,https://www.zillow.com/homedetails/5194-W-Paradise-Dr-Glendale-AZ-85304/60978690_zpid/,33.5953,-112.171,6526,2017-11-13
43124,23755414,"7301 W Payson Rd, Phoenix, AZ 85043 ",85043,0.5638840794563293,0.9098375141620636,0.5130428891281102,195000,https://www.zillow.com/homedetails/7301-W-Payson-Rd-Phoenix-AZ-85043/60975135_zpid/,33.4225,-112.21700000000001,6500,2017-10-18
246567,22745687,"3407 W Port Au Prince Ln, Phoenix, AZ 85053 ",85053,0.64077228307724,0.7996999025344849,0.5124255323236682,175000,https://www.zillow.com/homedetails/3407-W-Port-Au-Prince-Ln-Phoenix-AZ-85053/7943671_zpid/,33.6229,-112.132,6491,2017-10-09
230933,23837060,"18608 N 17th Ave, Phoenix, AZ 85027 ",85027,0.5951856076717377,0.85809725522995,0.5107271362954879,219900,https://www.zillow.com/homedetails/18608-N-17th-Ave-Phoenix-AZ-85027/7969674_zpid/,33.6552,-112.096,6529,2017-11-16
1372616,23837733,"8549 W Tuckey Ln, Glendale, AZ 85305 ",85305,0.5557719469070435,0.9180598258972168,0.5102318968160375,206000,https://www.zillow.com/homedetails/8549-W-Tuckey-Ln-Glendale-AZ-85305/7461499_zpid/,33.533,-112.245,6532,2017-11-19
9023655,23829023,"14631 N 36th St, Phoenix, AZ 85032 ",85032,0.6220511794090271,0.8163118064403534,0.5077877219617353,214000,https://www.zillow.com/homedetails/14631-N-36th-St-Phoenix-AZ-85032/8013016_zpid/,33.6203,-112.00399999999999,6525,2017-11-12
976591,23840164,"803 N Laveen Dr, Chandler, AZ 85226 ",85226,0.5638676285743713,0.9004871547222137,0.5077555564948977,240000,https://www.zillow.com/homedetails/803-N-Laveen-Dr-Chandler-AZ-85226/8264997_zpid/,33.3165,-111.91,6535,2017-11-22
1091154,23858452,"668 W Shawnee Dr, Chandler, AZ 85225 ",85225,0.5549726188182831,0.9143398702144623,0.5074335922628892,239900,https://www.zillow.com/homedetails/668-W-Shawnee-Dr-Chandler-AZ-85225/8200509_zpid/,33.3448,-111.852,6535,2017-11-22
392592,23803343,"3302 W Pershing Ave, Phoenix, AZ 85029 ",85029,0.6129675507545471,0.8276481032371521,0.5073214307279237,189900,https://www.zillow.com/homedetails/3302-W-Pershing-Ave-Phoenix-AZ-85029/7745089_zpid/,33.6058,-112.12899999999999,6504,2017-10-22
9020725,23815067,"9537 W Sunnyslope Ln, Peoria, AZ 85345 ",85345,0.5756130218505859,0.8799077570438385,0.5064863629817751,224000,https://www.zillow.com/homedetails/9537-W-Sunnyslope-Ln-Peoria-AZ-85345/7697879_zpid/,33.5693,-112.265,6512,2017-10-30
9013905,22694429,"2418 E Dahlia Dr, Phoenix, AZ 85032 ",85032,0.6623206734657288,0.7646307647228241,0.506430763043836,225000,https://www.zillow.com/homedetails/2418-E-Dahlia-Dr-Phoenix-AZ-85032/7820474_zpid/,33.6034,-112.03,6470,2017-09-18
1109968,23827087,"1231 W Tulsa St, Chandler, AZ 85224 ",85224,0.571365237236023,0.8862030506134033,0.5063456162530144,245000,https://www.zillow.com/homedetails/1231-W-Tulsa-St-Chandler-AZ-85224/8185626_zpid/,33.3123,-111.865,6524,2017-11-11
394581,23831766,"3626 W Rue De Lamour Ave, Phoenix, AZ 85029 ",85029,0.6171292364597321,0.8194380700588226,0.5056991905014376,199900,https://www.zillow.com/homedetails/3626-W-Rue-De-Lamour-Ave-Phoenix-AZ-85029/7741437_zpid/,33.6102,-112.137,6522,2017-11-09
455626,23813601,"4732 N 54th Dr, Phoenix, AZ 85031 ",85031,0.5921850204467773,0.85377237200737,0.505591209574078,169000,https://www.zillow.com/homedetails/4732-N-54th-Dr-Phoenix-AZ-85031/7713824_zpid/,33.5068,-112.177,6509,2017-10-27
450658,23828592,"8740 W Earll Dr, Phoenix, AZ 85037 ",85037,0.5707530975341797,0.8857004046440125,0.5055162494378465,129999,https://www.zillow.com/homedetails/8740-W-Earll-Dr-Phoenix-AZ-85037/7479995_zpid/,33.4838,-112.249,6509,2017-10-27
9023482,23827286,"15606 N 99th Dr, Sun City, AZ 85351 ",85351,0.576548159122467,0.8765598237514496,0.5053789527446124,192500,https://www.zillow.com/homedetails/15606-N-99th-Dr-Sun-City-AZ-85351/2092083796_zpid/,33.6257,-112.271,6526,2017-11-13
420303,23834253,"5729 W Purdue Cir, Glendale, AZ 85302 ",85302,0.5767039954662323,0.8759732842445374,0.5051772929455023,220000,https://www.zillow.com/homedetails/5729-W-Purdue-Cir-Glendale-AZ-85302/7734981_zpid/,33.5741,-112.18299999999999,6528,2017-11-15
1406612,23791492,"6765 N 74th Dr, Glendale, AZ 85303 ",85303,0.6158336102962494,0.8200846910476685,0.5050357160365699,210000,https://www.zillow.com/homedetails/6765-N-74th-Dr-Glendale-AZ-85303/14094753_zpid/,33.5349,-112.22,6283,2017-03-15
1373662,23843286,"8771 W Ocotillo Rd, Glendale, AZ 85305 ",85305,0.5595572590827942,0.9011684358119965,0.5042553399148897,185000,https://www.zillow.com/homedetails/8771-W-Ocotillo-Rd-Glendale-AZ-85305/7461673_zpid/,33.5332,-112.25,6540,2017-11-27
1374907,23793911,"9008 W Nicolet Ave, Glendale, AZ 85305 ",85305,0.6091241240501404,0.8272652626037598,0.5039072284406245,231798,https://www.zillow.com/homedetails/9008-W-Nicolet-Ave-Glendale-AZ-85305/95082341_zpid/,33.5415,-112.25299999999999,6263,2017-02-23
344420,17868383,"2408 W Mohave St, Phoenix, AZ 85009 ",85009,0.5092934519052505,0.9885582327842712,0.5034662347840557,120000,https://www.zillow.com/homedetails/2408-W-Mohave-St-Phoenix-AZ-85009/94639214_zpid/,33.4316,-112.111,6256,2017-02-16
8969477,23756066,"9324 W Mountain View Rd, Peoria, AZ 85345 ",85345,0.5713950097560883,0.8776246905326843,0.5014703686091071,214000,https://www.zillow.com/homedetails/9324-W-Mountain-View-Rd-Peoria-AZ-85345/7697441_zpid/,33.5733,-112.26100000000001,6500,2017-10-18
225959,23779726,"1502 E Taro Ln, Phoenix, AZ 85024 ",85024,0.631023496389389,0.7943290770053864,0.5012403114556951,208500,https://www.zillow.com/homedetails/1502-E-Taro-Ln-Phoenix-AZ-85024/7995794_zpid/,33.6595,-112.05,6283,2017-03-15
453577,23828246,"4508 N 50th Ave, Phoenix, AZ 85031 ",85031,0.5939982533454895,0.8419587314128876,0.5001220158482393,155000,https://www.zillow.com/homedetails/4508-N-50th-Ave-Phoenix-AZ-85031/7720645_zpid/,33.5027,-112.167,6520,2017-11-07
391100,23830817,"3110 W Willow Ave, Phoenix, AZ 85029 ",85029,0.6060919761657715,0.8251470625400543,0.500115013762283,195000,https://www.zillow.com/homedetails/3110-W-Willow-Ave-Phoenix-AZ-85029/7745069_zpid/,33.6072,-112.126,6522,2017-11-09
7419652,23752910,"4450 N 37TH Ave, Phoenix, AZ 85019 ",85019,0.5873326659202576,0.8507439494132996,0.499669711824442,240000,https://www.zillow.com/homedetails/4450-N-37TH-Ave-Phoenix-AZ-85019/95137035_zpid/,33.5016,-112.139,6497,2017-10-15
413085,21986995,"5754 W Shangri La Rd, Glendale, AZ 85304 ",85304,0.6433970630168915,0.7765048444271088,0.49960093632279,227500,https://www.zillow.com/homedetails/5754-W-Shangri-La-Rd-Glendale-AZ-85304/7736186_zpid/,33.586999999999996,-112.18299999999999,6311,2017-04-12
423069,23831999,"8502 N 54th Dr, Glendale, AZ 85302 ",85302,0.5738177001476288,0.8701978921890259,0.49933495316922105,196900,https://www.zillow.com/homedetails/8502-N-54th-Dr-Glendale-AZ-85302/7733696_zpid/,33.5606,-112.177,6522,2017-11-09
386525,23810920,"2019 W Willow Ave, Phoenix, AZ 85029 ",85029,0.606539785861969,0.8229140043258667,0.4991300839666266,189000,https://www.zillow.com/homedetails/2019-W-Willow-Ave-Phoenix-AZ-85029/7749707_zpid/,33.6066,-112.102,6509,2017-10-27
497391,17864024,"6741 W Virginia Ave, Phoenix, AZ 85035 ",85035,0.5044539421796799,0.9885525703430176,0.4986792411613905,145800,https://www.zillow.com/homedetails/6741-W-Virginia-Ave-Phoenix-AZ-85035/7475866_zpid/,33.4765,-112.205,6278,2017-03-10
9024051,23836152,"9867 N Balboa Dr, Sun City, AZ 85351 ",85351,0.5708132982254028,0.8713406622409821,0.4973728372916817,140000,https://www.zillow.com/homedetails/9867-N-Balboa-Dr-Sun-City-AZ-85351/7695490_zpid/,33.5723,-112.273,6528,2017-11-15
484854,23817893,"2833 N 73rd Dr, Phoenix, AZ 85035 ",85035,0.5606168210506439,0.8871302604675293,0.497340146481136,190000,https://www.zillow.com/homedetails/2833-N-73rd-Dr-Phoenix-AZ-85035/92692586_zpid/,33.4796,-112.21600000000001,6514,2017-11-01
43395,23752723,"7911 W Hilton Ave, Phoenix, AZ 85043 ",85043,0.5427437424659729,0.9138399064540863,0.4959808908436454,232000,https://www.zillow.com/homedetails/7911-W-Hilton-Ave-Phoenix-AZ-85043/50893343_zpid/,33.4289,-112.23,6497,2017-10-15
8999379,22680357,"9308 W Glen Oaks Cir, Sun City, AZ 85351 ",85351,0.634635865688324,0.7814257442951202,0.4959208037018765,249800,https://www.zillow.com/homedetails/9308-W-Glen-Oaks-Cir-Sun-City-AZ-85351/7922796_zpid/,33.6312,-112.26,6465,2017-09-13
234640,23785215,"2751 W Acoma Dr, Phoenix, AZ 85053 ",85053,0.6173708736896515,0.8022006452083588,0.4952553132066866,210000,https://www.zillow.com/homedetails/2751-W-Acoma-Dr-Phoenix-AZ-85053/7942788_zpid/,33.6166,-112.12,6283,2017-03-15
361380,23818137,"8601 W Flavia Hvn, Tolleson, AZ 85353 ",85353,0.5397244691848755,0.9165336191654205,0.4946756210941494,245000,https://www.zillow.com/homedetails/8601-W-Flavia-Hvn-Tolleson-AZ-85353/59271170_zpid/,33.4241,-112.245,6515,2017-11-02
149903,23800141,"8309 E Indian School Rd, Scottsdale, AZ 85251 ",85251,0.6042965650558472,0.8173539042472839,0.4939241567716195,239850,https://www.zillow.com/homedetails/8309-E-Indian-School-Rd-Scottsdale-AZ-85251/7577019_zpid/,33.4948,-111.902,6497,2017-10-15
9023068,23823620,"15224 N 30th St, Phoenix, AZ 85032 ",85032,0.6321632266044617,0.7795545160770416,0.4928056981973423,229000,https://www.zillow.com/homedetails/15224-N-30th-St-Phoenix-AZ-85032/8011594_zpid/,33.6253,-112.01799999999999,6520,2017-11-07
448988,23831998,"8504 W College Dr, Phoenix, AZ 85037 ",85037,0.5451711714267731,0.9030312895774841,0.49230662597398656,184900,https://www.zillow.com/homedetails/8504-W-College-Dr-Phoenix-AZ-85037/7483600_zpid/,33.5084,-112.243,6526,2017-11-13
226007,23837043,"1415 W Topeka Dr, Phoenix, AZ 85027 ",85027,0.5498357713222504,0.8944377601146698,0.4917938757323954,248000,https://www.zillow.com/homedetails/1415-W-Topeka-Dr-Phoenix-AZ-85027/7971784_zpid/,33.6594,-112.089,6529,2017-11-16
1114416,23820184,"1617 W Stottler Dr, Chandler, AZ 85224 ",85224,0.5521588921546936,0.8892216980457306,0.4909916676728461,229900,https://www.zillow.com/homedetails/1617-W-Stottler-Dr-Chandler-AZ-85224/8193816_zpid/,33.3325,-111.87,6516,2017-11-03
1421999,23820040,"8134 W Mclellan Rd, Glendale, AZ 85303 ",85303,0.5532766878604889,0.8870486915111542,0.49078336201027195,222500,https://www.zillow.com/homedetails/8134-W-Mclellan-Rd-Glendale-AZ-85303/7462575_zpid/,33.5326,-112.235,6516,2017-11-03
384269,23819801,"13430 N 37th Ave, Phoenix, AZ 85029 ",85029,0.5949640274047852,0.8242351412773132,0.49039025918290235,209900,https://www.zillow.com/homedetails/13430-N-37th-Ave-Phoenix-AZ-85029/7741466_zpid/,33.6083,-112.139,6516,2017-11-03
350131,22705127,"6405 W Preston Ln, Phoenix, AZ 85043 ",85043,0.5540491938591003,0.8846338093280792,0.4901306489187274,187000,https://www.zillow.com/homedetails/6405-W-Preston-Ln-Phoenix-AZ-85043/55257428_zpid/,33.4235,-112.198,6474,2017-09-22
337488,23779389,"1424 E Le Marche Ave, Phoenix, AZ 85022 ",85022,0.6673722267150879,0.7342767417430878,0.490035904162184,223000,https://www.zillow.com/homedetails/1424-E-Le-Marche-Ave-Phoenix-AZ-85022/8003944_zpid/,33.6325,-112.051,6285,2017-03-17
7520977,22428537,"7562 W Turquoise Ave, Peoria, AZ 85345 ",85345,0.6115059554576874,0.8008944094181061,0.4897517010519392,189900,https://www.zillow.com/homedetails/7562-W-Turquoise-Ave-Peoria-AZ-85345/7682178_zpid/,33.5747,-112.223,6327,2017-04-28
522141,23828650,"9008 W Roma Ave, Phoenix, AZ 85037 ",85037,0.5648279786109924,0.8639644682407379,0.48799130418813697,164900,https://www.zillow.com/homedetails/9008-W-Roma-Ave-Phoenix-AZ-85037/7467364_zpid/,33.5003,-112.25299999999999,6515,2017-11-02
830701,23830958,"3833 W Ocotillo Rd, Phoenix, AZ 85019 ",85019,0.5719821751117706,0.8530437052249908,0.48792579397999436,199900,https://www.zillow.com/homedetails/3833-W-Ocotillo-Rd-Phoenix-AZ-85019/7758511_zpid/,33.5346,-112.14200000000001,6525,2017-11-12
383928,23818660,"13245 N 15th Dr, Phoenix, AZ 85029 ",85029,0.5902995765209198,0.8262839913368225,0.4877550901721417,230000,https://www.zillow.com/homedetails/13245-N-15th-Dr-Phoenix-AZ-85029/7784183_zpid/,33.6081,-112.09299999999999,6515,2017-11-02
250889,23830838,"3634 W Banff Ln, Phoenix, AZ 85053 ",85053,0.559061735868454,0.8705334067344666,0.48668191750044976,243000,https://www.zillow.com/homedetails/3634-W-Banff-Ln-Phoenix-AZ-85053/7944164_zpid/,33.621,-112.137,6527,2017-11-14
227536,22735776,"15219 N 37th Ave, Phoenix, AZ 85053 ",85053,0.6233489513397217,0.7793750166893005,0.4858225993536536,219000,https://www.zillow.com/homedetails/15219-N-37th-Ave-Phoenix-AZ-85053/7944373_zpid/,33.6242,-112.137,6474,2017-09-22
416034,23808888,"4413 W Mission Ln, Glendale, AZ 85302 ",85302,0.561092883348465,0.8656575977802277,0.4857143175310137,184500,https://www.zillow.com/homedetails/4413-W-Mission-Ln-Glendale-AZ-85302/7729654_zpid/,33.5689,-112.155,6508,2017-10-26
434601,23841755,"1838 N 83rd Ln, Phoenix, AZ 85037 ",85037,0.5396150648593903,0.8987134397029877,0.4849593110553334,195000,https://www.zillow.com/homedetails/1838-N-83rd-Ln-Phoenix-AZ-85037/7487940_zpid/,33.4683,-112.24,6536,2017-11-23
1346962,23823701,"4935 W Lamar Rd, Glendale, AZ 85301 ",85301,0.5775977671146393,0.8395406305789948,0.4849167936244436,149900,https://www.zillow.com/homedetails/4935-W-Lamar-Rd-Glendale-AZ-85301/7722382_zpid/,33.5365,-112.166,6520,2017-11-07
410256,23810938,"4730 W Shaw Butte Dr, Glendale, AZ 85304 ",85304,0.5686022937297821,0.8524773418903351,0.4847205719515122,240000,https://www.zillow.com/homedetails/4730-W-Shaw-Butte-Dr-Glendale-AZ-85304/7727507_zpid/,33.5952,-112.161,6509,2017-10-27
450692,23753402,"8742 W Edgemont Ave, Phoenix, AZ 85037 ",85037,0.5547317862510681,0.8731910288333893,0.48438681916315396,190000,https://www.zillow.com/homedetails/8742-W-Edgemont-Ave-Phoenix-AZ-85037/7473770_zpid/,33.4794,-112.249,6494,2017-10-12
239765,21170292,"3054 W Acoma Dr, Phoenix, AZ 85053 ",85053,0.6253749132156372,0.7735241949558258,0.4837426262906952,198500,http://www.zillow.com/homedetails/3054-W-Acoma-Dr-Phoenix-AZ-85053/7942812_zpid/,33.6179,-112.125,6272,2017-03-04
9023953,23835041,"3306 W Pierson St, Phoenix, AZ 85017 ",85017,0.5753709971904755,0.839941680431366,0.4832780822516387,159000,https://www.zillow.com/homedetails/3306-W-Pierson-St-Phoenix-AZ-85017/7766533_zpid/,33.507,-112.13,6527,2017-11-14
8991893,23837557,"9352 W Jefferson St, Tolleson, AZ 85353 ",85353,0.5362992733716965,0.9008826017379761,0.48314268470528,229900,https://www.zillow.com/homedetails/9352-W-Jefferson-St-Tolleson-AZ-85353/7460100_zpid/,33.4464,-112.26100000000001,6533,2017-11-20
331769,23835049,"5044 N 20th Ave, Phoenix, AZ 85015 ",85015,0.5849693119525909,0.8246384263038635,0.4823881728446384,198900,https://www.zillow.com/homedetails/5044-N-20th-Ave-Phoenix-AZ-85015/7765233_zpid/,33.510999999999996,-112.103,6528,2017-11-15
9011928,23753384,"7411 W Wolf St, Phoenix, AZ 85033 ",85033,0.5436968505382538,0.8850577473640442,0.4812031097863123,229900,https://www.zillow.com/homedetails/7411-W-Wolf-St-Phoenix-AZ-85033/95184996_zpid/,33.5059,-112.219,6494,2017-10-12
5187885,23794657,"9915 W Tarrytown Ave, Sun City, AZ 85351 ",85351,0.604621559381485,0.7953870296478271,0.4809081461774767,179000,https://www.zillow.com/homedetails/9915-W-Tarrytown-Ave-Sun-City-AZ-85351/7688483_zpid/,33.5783,-112.274,6290,2017-03-22
353672,22728286,"2201 E Nisbet Rd, Phoenix, AZ 85022 ",85022,0.6849101483821869,0.7018898129463196,0.48073145593300914,199900,https://www.zillow.com/homedetails/2201-E-Nisbet-Rd-Phoenix-AZ-85022/8010593_zpid/,33.6231,-112.035,6480,2017-09-28
5187848,21947200,"16030 N Lakeforest Dr, Sun City, AZ 85351 ",85351,0.6031260788440704,0.796933501958847,0.48065137813591274,239900,https://www.zillow.com/homedetails/16030-N-Lakeforest-Dr-Sun-City-AZ-85351/7923097_zpid/,33.6324,-112.272,6375,2017-06-15
379541,23831369,"11439 N 33rd Ave, Phoenix, AZ 85029 ",85029,0.568539947271347,0.8443903923034668,0.48006966911664506,214900,https://www.zillow.com/homedetails/11439-N-33rd-Ave-Phoenix-AZ-85029/7749169_zpid/,33.5913,-112.13,6523,2017-11-10
450270,23853373,"8713 W Wilshire Dr, Phoenix, AZ 85037 ",85037,0.5262420177459717,0.9115290641784668,0.4796848939673737,200000,https://www.zillow.com/homedetails/8713-W-Wilshire-Dr-Phoenix-AZ-85037/7473941_zpid/,33.4756,-112.24700000000001,6526,2017-11-13
423456,22436549,"8633 N 55th Ave, Glendale, AZ 85302 ",85302,0.593561977148056,0.8080351054668427,0.4796189148059371,174000,https://www.zillow.com/homedetails/8633-N-55th-Ave-Glendale-AZ-85302/7733817_zpid/,33.5637,-112.178,6419,2017-07-29
8946570,21960648,"7614 W Turquoise Ave, Peoria, AZ 85345 ",85345,0.6092148423194885,0.7861484289169312,0.47893329116234185,219000,https://www.zillow.com/homedetails/7614-W-Turquoise-Ave-Peoria-AZ-85345/7682180_zpid/,33.5747,-112.223,6339,2017-05-10
410898,23823665,"5031 W Windrose Dr, Glendale, AZ 85304 ",85304,0.5489715933799744,0.8713106513023376,0.47832479657438753,229000,https://www.zillow.com/homedetails/5031-W-Windrose-Dr-Glendale-AZ-85304/7954728_zpid/,33.6006,-112.167,6521,2017-11-08
421990,23791113,"6451 W Sunnyslope Ln, Glendale, AZ 85302 ",85302,0.6235359013080597,0.7669185101985931,0.47820122448651414,219900,https://www.zillow.com/homedetails/6451-W-Sunnyslope-Ln-Glendale-AZ-85302/7703523_zpid/,33.5702,-112.199,6305,2017-04-06
350177,22541766,"6408 W Cordes Rd, Phoenix, AZ 85043 ",85043,0.551305741071701,0.8627786934375763,0.475654846966477,169900,https://www.zillow.com/homedetails/6408-W-Cordes-Rd-Phoenix-AZ-85043/49641248_zpid/,33.4216,-112.197,6442,2017-08-21
469895,23526992,"3401 W Tuckey Ln, Phoenix, AZ 85017 ",85017,0.5433330833911896,0.8736184537410736,0.47466580817858084,169000,https://www.zillow.com/homedetails/3401-W-Tuckey-Ln-Phoenix-AZ-85017/7760733_zpid/,33.5332,-112.132,6493,2017-10-11
409707,23564615,"4513 W Sunnyside Ave, Glendale, AZ 85304 ",85304,0.5503106117248535,0.8614602982997894,0.4740707437340319,239900,https://www.zillow.com/homedetails/4513-W-Sunnyside-Ave-Glendale-AZ-85304/7726914_zpid/,33.5922,-112.156,6495,2017-10-13
388115,23831776,"3814 W Davidson Ln, Phoenix, AZ 85051 ",85051,0.5616840720176697,0.8439821600914001,0.4740513363904064,192000,https://www.zillow.com/homedetails/3814-W-Davidson-Ln-Phoenix-AZ-85051/7746767_zpid/,33.5701,-112.141,6520,2017-11-07
1354557,23800556,"6504 N 61st Ave, Glendale, AZ 85301 ",85301,0.587920755147934,0.8024587333202362,0.4717821444686878,125000,https://www.zillow.com/homedetails/6504-N-61st-Ave-Glendale-AZ-85301/7707995_zpid/,33.5315,-112.191,6506,2017-10-24
450587,23832013,"8735 W Catalina Dr, Phoenix, AZ 85037 ",85037,0.5359358191490173,0.8780266344547272,0.470565923571149,164000,https://www.zillow.com/homedetails/8735-W-Catalina-Dr-Phoenix-AZ-85037/7479803_zpid/,33.4815,-112.24799999999999,6517,2017-11-04
326029,23814914,"1734 W Rose Ln, Phoenix, AZ 85015 ",85015,0.5584931671619415,0.8412947654724121,0.46985737808545025,194900,https://www.zillow.com/homedetails/1734-W-Rose-Ln-Phoenix-AZ-85015/7774223_zpid/,33.5279,-112.09700000000001,6511,2017-10-29
447466,23853329,"8314 W Avalon Dr, Phoenix, AZ 85037 ",85037,0.5270137190818787,0.8914501368999481,0.46980645202369153,184900,https://www.zillow.com/homedetails/8314-W-Avalon-Dr-Phoenix-AZ-85037/55257045_zpid/,33.4824,-112.23899999999999,6528,2017-11-15
484005,23821708,"2696 N 73rd Gln, Phoenix, AZ 85035 ",85035,0.5318077504634857,0.8818989992141724,0.46900072290808836,210000,https://www.zillow.com/homedetails/2696-N-73rd-Gln-Phoenix-AZ-85035/95155175_zpid/,33.4779,-112.21799999999999,6513,2017-10-31
1092802,23820224,"731 W Palomino Dr, Chandler, AZ 85225 ",85225,0.5243903994560242,0.8937068283557892,0.4686512807180687,245900,https://www.zillow.com/homedetails/731-W-Palomino-Dr-Chandler-AZ-85225/8177603_zpid/,33.3404,-111.855,6516,2017-11-03
395883,23835126,"3830 W Sharon Ave, Phoenix, AZ 85029 ",85029,0.5476694703102112,0.8555294871330261,0.46854738105291105,179900,https://www.zillow.com/homedetails/3830-W-Sharon-Ave-Phoenix-AZ-85029/7741516_zpid/,33.6095,-112.14200000000001,6530,2017-11-17
395130,23830853,"3719 W Joan De Arc Ave, Phoenix, AZ 85029 ",85029,0.5632134079933167,0.831585019826889,0.46835983305289197,205900,https://www.zillow.com/homedetails/3719-W-Joan-De-Arc-Ave-Phoenix-AZ-85029/7741718_zpid/,33.607,-112.139,6526,2017-11-13
835193,22740118,"3633 W Mariposa St, Phoenix, AZ 85019 ",85019,0.5733028054237366,0.8164186477661133,0.46805510116456617,180000,https://www.zillow.com/homedetails/3633-W-Mariposa-St-Phoenix-AZ-85019/7506850_zpid/,33.5075,-112.13799999999999,6487,2017-10-05
392666,23759961,"4208 W El Camino Dr, Phoenix, AZ 85051 ",85051,0.5295112729072571,0.881247490644455,0.46663048051747147,215000,https://www.zillow.com/homedetails/4208-W-El-Camino-Dr-Phoenix-AZ-85051/7752812_zpid/,33.5573,-112.15,6503,2017-10-21
1866845,23763851,"1825 W Ray Rd, Chandler, AZ 85224 ",85224,0.5869734883308411,0.7946338355541229,0.46642899440091945,179000,http://www.zillow.com/homedetails/1825-W-Ray-Rd-Chandler-AZ-85224/2109892120_zpid/,33.318000000000005,-111.87299999999999,6236,2017-01-27
348914,23822646,"3525 W Melvin St, Phoenix, AZ 85009 ",85009,0.5366482138633728,0.8680824637413025,0.46585490365288607,159900,https://www.zillow.com/homedetails/3525-W-Melvin-St-Phoenix-AZ-85009/7505973_zpid/,33.4521,-112.13600000000001,6520,2017-11-07
448364,23512346,"8402 W Fairmount Ave, Phoenix, AZ 85037 ",85037,0.5462842583656311,0.8519587814807892,0.4654116710993197,170000,https://www.zillow.com/homedetails/8402-W-Fairmount-Ave-Phoenix-AZ-85037/7470144_zpid/,33.4902,-112.24,6492,2017-10-10
384676,23814267,"3501 W Ironwood Dr, Phoenix, AZ 85051 ",85051,0.5506834983825684,0.8441304564476013,0.46484871284783935,239900,https://www.zillow.com/homedetails/3501-W-Ironwood-Dr-Phoenix-AZ-85051/7745307_zpid/,33.5759,-112.134,6511,2017-10-29
836805,23790332,"5534 N 41st Ave, Phoenix, AZ 85019 ",85019,0.6069479882717133,0.7649283409118652,0.46427171768847586,194999,https://www.zillow.com/homedetails/5534-N-41st-Ave-Phoenix-AZ-85019/7718832_zpid/,33.5179,-112.148,6250,2017-02-10
450526,23793670,"8731 W Earll Dr, Phoenix, AZ 85037 ",85037,0.5716972351074219,0.8118596374988556,0.46413791005340954,149000,https://www.zillow.com/homedetails/8731-W-Earll-Dr-Phoenix-AZ-85037/7479986_zpid/,33.4833,-112.24799999999999,6284,2017-03-16
381842,23829311,"12409 N 36th Dr, Phoenix, AZ 85029 ",85029,0.5977095365524292,0.7764398157596588,0.4640854824385592,174900,https://www.zillow.com/homedetails/12409-N-36th-Dr-Phoenix-AZ-85029/7743051_zpid/,33.5986,-112.13600000000001,6424,2017-08-03
8959309,23803780,"4201 W Mission Ln, Phoenix, AZ 85051 ",85051,0.5492287874221802,0.8427694737911224,0.46287325616672703,219000,https://www.zillow.com/homedetails/4201-W-Mission-Ln-Phoenix-AZ-85051/7746195_zpid/,33.5703,-112.149,6501,2017-10-19
388744,23819809,"3835 W Camino Acequia, Phoenix, AZ 85051 ",85051,0.5356400161981583,0.8622308969497681,0.4618453716087263,233900,https://www.zillow.com/homedetails/3835-W-Camino-Acequia-Phoenix-AZ-85051/7745922_zpid/,33.5749,-112.14200000000001,6516,2017-11-03
432541,22734473,"7113 W Sheila Ln, Phoenix, AZ 85033 ",85033,0.5401357412338257,0.8529407978057861,0.46070381005139893,189000,https://www.zillow.com/homedetails/7113-W-Sheila-Ln-Phoenix-AZ-85033/55257199_zpid/,33.4878,-112.213,6485,2017-10-03
9023645,23828731,"7328 W Heatherbrae Dr, Phoenix, AZ 85033 ",85033,0.5281646698713303,0.8706024289131165,0.4598214444560744,174900,https://www.zillow.com/homedetails/7328-W-Heatherbrae-Dr-Phoenix-AZ-85033/7711026_zpid/,33.4977,-112.21700000000001,6519,2017-11-06
435965,23838336,"2237 N 94th Ave, Phoenix, AZ 85037 ",85037,0.5281625092029572,0.8705169558525085,0.4597744197067808,229900,https://www.zillow.com/homedetails/2237-N-94th-Ave-Phoenix-AZ-85037/67773064_zpid/,33.4752,-112.26100000000001,6534,2017-11-21
450552,22126108,"8733 W Indianola Ave, Phoenix, AZ 85037 ",85037,0.5594503879547119,0.8208540678024292,0.4592271266862724,169900,https://www.zillow.com/homedetails/8733-W-Indianola-Ave-Phoenix-AZ-85037/7470962_zpid/,33.4911,-112.24799999999999,6325,2017-04-26
9018879,23808777,"4021 W Roosevelt St, Phoenix, AZ 85009 ",85009,0.5371376872062683,0.8541922867298126,0.45881886932348515,179990,https://www.zillow.com/homedetails/4021-W-Roosevelt-St-Phoenix-AZ-85009/2092569655_zpid/,33.4585,-112.147,6508,2017-10-26
483971,22688771,"2734 N 73rd Gln, Phoenix, AZ 85035 ",85035,0.5318077504634857,0.8616390228271484,0.45822631044126183,209900,https://www.zillow.com/homedetails/2734-N-73rd-Gln-Phoenix-AZ-85035/95167972_zpid/,33.4783,-112.21799999999999,6470,2017-09-18
470656,22708029,"3446 W Montebello Ave, Phoenix, AZ 85017 ",85017,0.5931824147701263,0.7723366618156433,0.45813652607130173,169800,https://www.zillow.com/homedetails/3446-W-Montebello-Ave-Phoenix-AZ-85017/7762454_zpid/,33.5205,-112.134,6472,2017-09-20
405134,21884112,"4532 W Bobbie Ter, Glendale, AZ 85306 ",85306,0.5917310416698456,0.7739432156085968,0.4579662251653849,234975,https://www.zillow.com/homedetails/4532-W-Bobbie-Ter-Glendale-AZ-85306/7950550_zpid/,33.635999999999996,-112.154,6281,2017-03-13
416064,23818791,"4416 W Turquoise Ave, Glendale, AZ 85302 ",85302,0.5306741893291473,0.8606400787830353,0.45671947611236074,249900,https://www.zillow.com/homedetails/4416-W-Turquoise-Ave-Glendale-AZ-85302/7729268_zpid/,33.5757,-112.154,6515,2017-11-02
394310,23786762,"3560 W Wood Dr, Phoenix, AZ 85029 ",85029,0.5832173526287079,0.779859870672226,0.45482780919482213,230000,https://www.zillow.com/homedetails/3560-W-Wood-Dr-Phoenix-AZ-85029/7741612_zpid/,33.6044,-112.137,6308,2017-04-09
9025872,23860172,"15168 N 90th Ln, Peoria, AZ 85381 ",85381,0.49991147220134735,0.9093425869941711,0.4545907913996379,218700,https://www.zillow.com/homedetails/15168-N-90th-Ln-Peoria-AZ-85381/7908827_zpid/,33.6229,-112.25399999999999,6546,2017-12-03
388700,23829780,"2353 W Cortez St, Phoenix, AZ 85029 ",85029,0.5421802997589111,0.8370417952537537,0.4538275714614173,173500,https://www.zillow.com/homedetails/2353-W-Cortez-St-Phoenix-AZ-85029/7749270_zpid/,33.5905,-112.11,6523,2017-11-10
8989019,22747254,"2049 N 77th Gln, Phoenix, AZ 85035 ",85035,0.5143470168113708,0.8779265284538269,0.45155889088978896,168250,https://www.zillow.com/homedetails/2049-N-77th-Gln-Phoenix-AZ-85035/95149994_zpid/,33.4706,-112.226,6487,2017-10-05
404082,23831516,"16245 N 43rd Dr, Glendale, AZ 85306 ",85306,0.5114445835351944,0.8828808665275574,0.45154463709237813,244900,https://www.zillow.com/homedetails/16245-N-43rd-Dr-Glendale-AZ-85306/7950704_zpid/,33.6339,-112.152,6527,2017-11-14
342843,23840815,"1701 S 65th Dr, Phoenix, AZ 85043 ",85043,0.49249790608882904,0.9160016179084778,0.45112887879390495,176000,https://www.zillow.com/homedetails/1701-S-65th-Dr-Phoenix-AZ-85043/52621334_zpid/,33.4331,-112.2,6537,2017-11-24
404268,23780495,"16417 N 47th Dr, Glendale, AZ 85306 ",85306,0.5897005200386047,0.7648191750049591,0.45101426523592103,245000,https://www.zillow.com/homedetails/16417-N-47th-Dr-Glendale-AZ-85306/7951226_zpid/,33.6345,-112.161,6277,2017-03-09
8946285,22054871,"1612 W Andorra Dr, Phoenix, AZ 85029 ",85029,0.6078484952449799,0.741358071565628,0.4506333882388871,219900,https://www.zillow.com/homedetails/1612-W-Andorra-Dr-Phoenix-AZ-85029/7784242_zpid/,33.6066,-112.094,6380,2017-06-20
22933,22734467,"8739 W Fairmount Ave, Phoenix, AZ 85037 ",85037,0.5329146385192871,0.8455365598201752,0.45059881013141023,170000,https://www.zillow.com/homedetails/8739-W-Fairmount-Ave-Phoenix-AZ-85037/7471067_zpid/,33.492,-112.24799999999999,6485,2017-10-03
9023951,23835138,"4206 W North Ln, Phoenix, AZ 85051 ",85051,0.522632896900177,0.8592448234558105,0.4490696112291914,189000,https://www.zillow.com/homedetails/4206-W-North-Ln-Phoenix-AZ-85051/7746035_zpid/,33.5817,-112.149,6529,2017-11-16
8977242,23802183,"16434 N 32nd Pl, Phoenix, AZ 85032 ",85032,0.6654866337776184,0.6742662787437439,0.44871519611093547,84000,https://www.zillow.com/homedetails/16434-N-32nd-Pl-Phoenix-AZ-85032/8006065_zpid/,33.6366,-112.01299999999999,6495,2017-10-13
9020435,22875945,"3838 W Carol Ave, Phoenix, AZ 85051 ",85051,0.5471479892730713,0.8172380030155182,0.44715013010748095,219990,https://www.zillow.com/homedetails/3838-W-Carol-Ave-Phoenix-AZ-85051/7746969_zpid/,33.5731,-112.14200000000001,6492,2017-10-10
9021767,23840851,"1139 W Auburn St, Mesa, AZ 85201 ",85201,0.5000168085098267,0.8879070580005646,0.44396845339479185,215000,https://www.zillow.com/homedetails/1139-W-Auburn-St-Mesa-AZ-85201/81997574_zpid/,33.4176,-111.85600000000001,6536,2017-11-23
451525,21618159,"4229 N 51st Ave, Phoenix, AZ 85031 ",85031,0.5936581790447235,0.7462016642093658,0.44298872117467436,165000,https://www.zillow.com/homedetails/4229-N-51st-Ave-Phoenix-AZ-85031/7721281_zpid/,33.4982,-112.169,6355,2017-05-26
343249,23831593,"2019 N 37th Ave, Phoenix, AZ 85009 ",85009,0.5247903168201447,0.8435570895671844,0.44269059228984187,145000,https://www.zillow.com/homedetails/2019-N-37th-Ave-Phoenix-AZ-85009/7511305_zpid/,33.4704,-112.139,6523,2017-11-10
446554,23770921,"4817 N 92nd Dr, Phoenix, AZ 85037 ",85037,0.5531936585903168,0.8000482320785522,0.44258160855224915,218000,http://www.zillow.com/homedetails/4817-N-92nd-Dr-Phoenix-AZ-85037/7466453_zpid,33.5076,-112.258,6266,2017-02-26
524930,22304530,"9134 W Vernon Ave, Phoenix, AZ 85037 ",85037,0.5259929001331329,0.8403202891349792,0.44200250592282053,249000,https://www.zillow.com/homedetails/9134-W-Vernon-Ave-Phoenix-AZ-85037/67764424_zpid/,33.473,-112.257,6401,2017-07-11
837297,23835058,"6553 N 41st Ave, Phoenix, AZ 85019 ",85019,0.5156570374965668,0.8555023074150085,0.44114578541310046,199999,https://www.zillow.com/homedetails/6553-N-41st-Ave-Phoenix-AZ-85019/7762442_zpid/,33.5332,-112.147,6531,2017-11-18
8996051,23841761,"3410 N 67TH Dr, Phoenix, AZ 85033 ",85033,0.4901120066642761,0.8976288735866547,0.43993868847334916,220000,https://www.zillow.com/homedetails/3410-N-67th-Dr-Phoenix-AZ-85033/7485764_zpid/,33.4878,-112.204,6537,2017-11-24
383781,22501929,"3339 W Malapai Dr, Phoenix, AZ 85051 ",85051,0.5513213723897934,0.7978377640247345,0.43986501100652076,244900,https://www.zillow.com/homedetails/3339-W-Malapai-Dr-Phoenix-AZ-85051/7739353_zpid/,33.5756,-112.131,6433,2017-08-12
244488,23837399,"1935 W Davis Rd, Phoenix, AZ 85023 ",85023,0.4974125176668167,0.8833527863025665,0.43939073342275714,199500,https://www.zillow.com/homedetails/1935-W-Davis-Rd-Phoenix-AZ-85023/81978440_zpid/,33.632,-112.101,6533,2017-11-20
255668,23837407,"412 W Sandra Ter, Phoenix, AZ 85023 ",85023,0.48460231721401215,0.9064737558364868,0.4392792825720502,229999,https://www.zillow.com/homedetails/412-W-Sandra-Ter-Phoenix-AZ-85023/7965434_zpid/,33.6344,-112.08,6533,2017-11-20
398944,22432872,"9409 N 36th Dr, Phoenix, AZ 85051 ",85051,0.5545867085456848,0.7895832359790802,0.4378923679644888,215000,https://www.zillow.com/homedetails/9409-N-36th-Dr-Phoenix-AZ-85051/7746677_zpid/,33.5717,-112.137,6330,2017-05-01
503618,23782296,"2007 N 78th Ave, Phoenix, AZ 85035 ",85035,0.5143470168113708,0.85056471824646,0.43748542543507085,170000,https://www.zillow.com/homedetails/2007-N-78th-Ave-Phoenix-AZ-85035/82823153_zpid/,33.4698,-112.227,6256,2017-02-16
244451,23841407,"1933 W Davis Rd, Phoenix, AZ 85023 ",85023,0.4980703443288803,0.8773607909679413,0.4369873912580613,200000,https://www.zillow.com/homedetails/1933-W-Davis-Rd-Phoenix-AZ-85023/81995109_zpid/,33.6318,-112.101,6537,2017-11-24
9023639,23828239,"3202 N 64th Dr, Phoenix, AZ 85033 ",85033,0.504069522023201,0.8658921718597412,0.43646985319297116,193000,https://www.zillow.com/homedetails/3202-N-64th-Dr-Phoenix-AZ-85033/7498616_zpid/,33.4854,-112.199,6523,2017-11-10
329444,22745740,"2423 W San Miguel Ave, Phoenix, AZ 85015 ",85015,0.5571772456169128,0.783340185880661,0.4364593271500272,178800,https://www.zillow.com/homedetails/2423-W-San-Miguel-Ave-Phoenix-AZ-85015/7763696_zpid/,33.5193,-112.11200000000001,6488,2017-10-06
9021253,23756561,"2832 N 28th Dr, Phoenix, AZ 85008 ",85008,0.5907619297504425,0.7387848198413849,0.43644594583982954,139900,https://www.zillow.com/homedetails/2832-N-28th-Dr-Phoenix-AZ-85008/7513343_zpid/,33.4797,-112.021,6495,2017-10-13
2193730,23774667,"8021 W Roma Ave, Phoenix, AZ 85033 ",85033,0.5345147252082825,0.8162153363227844,0.436279116205359,151000,http://www.zillow.com/homedetails/8021-W-Roma-Ave-Phoenix-AZ-85033/7481703_zpid/,33.5004,-112.23200000000001,6278,2017-03-10
1960784,22678331,"7424 W Minnezona Ave, Phoenix, AZ 85033 ",85033,0.5244051814079285,0.8315664827823639,0.43607777225623856,175000,https://www.zillow.com/homedetails/7424-W-Minnezona-Ave-Phoenix-AZ-85033/7710976_zpid/,33.5028,-112.219,6467,2017-09-15
411159,23837722,"5131 W Corrine Dr, Glendale, AZ 85304 ",85304,0.4902254790067673,0.8886250555515289,0.43562664351516345,235000,https://www.zillow.com/homedetails/5131-W-Corrine-Dr-Glendale-AZ-85304/7911511_zpid/,33.6005,-112.171,6533,2017-11-20
834955,22429468,"3614 W Sierra Vista Dr, Phoenix, AZ 85019 ",85019,0.5718414783477783,0.7589078545570374,0.433974989479637,175000,https://www.zillow.com/homedetails/3614-W-Sierra-Vista-Dr-Phoenix-AZ-85019/7761685_zpid/,33.5322,-112.137,6327,2017-04-28
453411,23853062,"4450 N 50th Ave, Phoenix, AZ 85031 ",85031,0.5134415328502655,0.8444940447807312,0.4335983168351394,149800,https://www.zillow.com/homedetails/4450-N-50th-Ave-Phoenix-AZ-85031/7720779_zpid/,33.501999999999995,-112.167,6533,2017-11-20
8988082,23849229,"6914 W Sierra St, Peoria, AZ 85345 ",85345,0.4807997792959213,0.9012426733970642,0.4333172784613746,198900,https://www.zillow.com/homedetails/6914-W-Sierra-St-Peoria-AZ-85345/7699742_zpid/,33.5904,-112.208,6548,2017-12-05
409622,23825573,"4447 W Mercer Ln, Glendale, AZ 85304 ",85304,0.505825400352478,0.8563542366027832,0.4331657245731435,227000,https://www.zillow.com/homedetails/4447-W-Mercer-Ln-Glendale-AZ-85304/7727953_zpid/,33.5852,-112.156,6526,2017-11-13
9019302,23841992,"4718 W Nicolet Ave, Glendale, AZ 85301 ",85301,0.4935341477394104,0.8745057582855225,0.43159845410865216,159999,https://www.zillow.com/homedetails/4718-W-Nicolet-Ave-Glendale-AZ-85301/7725715_zpid/,33.5429,-112.161,6535,2017-11-22
9015636,23825624,"7118 W Sells Dr, Phoenix, AZ 85033 ",85033,0.4959775060415268,0.8699553906917572,0.4314783050426798,182900,https://www.zillow.com/homedetails/7118-W-Sells-Dr-Phoenix-AZ-85033/88889219_zpid/,33.5022,-112.213,6523,2017-11-10
400185,22494552,"10610 N 46th Ave, Glendale, AZ 85304 ",85304,0.5531121790409088,0.7787638604640961,0.43074377581960643,234900,https://www.zillow.com/homedetails/10610-N-46th-Ave-Glendale-AZ-85304/7727627_zpid/,33.5824,-112.15700000000001,6428,2017-08-07
9024363,23841767,"3147 N 77TH Ln, Phoenix, AZ 85033 ",85033,0.48455068469047546,0.8884933888912201,0.4305200799302016,154900,https://www.zillow.com/homedetails/3147-N-77th-Ln-Phoenix-AZ-85033/7469330_zpid/,33.4853,-112.226,6535,2017-11-22
469757,23786316,"3342 W Krall St, Phoenix, AZ 85017 ",85017,0.5498934388160706,0.7827640771865845,0.430436830185819,139900,https://www.zillow.com/homedetails/3342-W-Krall-St-Phoenix-AZ-85017/82817782_zpid/,33.5343,-112.132,6289,2017-03-21
415104,23776939,"10015 N 45th Ave, Glendale, AZ 85302 ",85302,0.5762516856193542,0.7448525130748749,0.42922251619720875,192900,https://www.zillow.com/homedetails/10015-N-45th-Ave-Glendale-AZ-85302/7729213_zpid/,33.577,-112.156,6290,2017-03-22
556883,23809047,"2529 N 40th Ave, Phoenix, AZ 85009 ",85009,0.49307264387607574,0.8679745197296143,0.42797449126014797,149899,https://www.zillow.com/homedetails/2529-N-40th-Ave-Phoenix-AZ-85009/88889007_zpid/,33.4758,-112.146,6508,2017-10-26
434089,23853304,"7601 W Earll Dr, Phoenix, AZ 85033 ",85033,0.4690951704978943,0.9116694331169128,0.42765972816569686,165000,https://www.zillow.com/homedetails/7601-W-Earll-Dr-Phoenix-AZ-85033/7469553_zpid/,33.4836,-112.22200000000001,6534,2017-11-21
9019605,22737585,"9213 W Fillmore St, Tolleson, AZ 85353 ",85353,0.5363146066665649,0.7968571186065674,0.4273661121349335,195000,https://www.zillow.com/homedetails/9213-W-Fillmore-St-Tolleson-AZ-85353/7476932_zpid/,33.4532,-112.258,6486,2017-10-04
333228,23843165,"5702 N 19th Dr, Phoenix, AZ 85015 ",85015,0.5064631700515747,0.8429065048694611,0.42690110051328034,222000,https://www.zillow.com/homedetails/5702-N-19th-Dr-Phoenix-AZ-85015/7763351_zpid/,33.5212,-112.101,6540,2017-11-27
501068,23853288,"7426 W Monte Vista Rd, Phoenix, AZ 85035 ",85035,0.47876061499118805,0.8907116949558258,0.42643767885689465,155000,https://www.zillow.com/homedetails/7426-W-Monte-Vista-Rd-Phoenix-AZ-85035/7474922_zpid/,33.471,-112.22,6528,2017-11-15
441880,23831779,"3901 N 84th Ln, Phoenix, AZ 85037 ",85037,0.4800418019294739,0.8881171643733978,0.42633336391030063,174000,https://www.zillow.com/homedetails/3901-N-84th-Ln-Phoenix-AZ-85037/67081706_zpid/,33.4925,-112.241,6526,2017-11-13
8998472,23817219,"6708 W Highland Ave, Phoenix, AZ 85033 ",85033,0.491256982088089,0.8672407865524292,0.4260380915454469,168500,https://www.zillow.com/homedetails/6708-W-Highland-Ave-Phoenix-AZ-85033/7716706_zpid/,33.5065,-112.204,6514,2017-11-01
9001785,23834299,"6614 W Weldon Ave, Phoenix, AZ 85033 ",85033,0.4908595234155655,0.8671644032001495,0.4256559056777687,149000,https://www.zillow.com/homedetails/6614-W-Weldon-Ave-Phoenix-AZ-85033/7489041_zpid/,33.4907,-112.20200000000001,6524,2017-11-11
382563,23778636,"12640 N 21st Ave, Phoenix, AZ 85029 ",85029,0.5673968493938446,0.7488150298595428,0.4248752887210623,189000,https://www.zillow.com/homedetails/12640-N-21st-Ave-Phoenix-AZ-85029/7739027_zpid/,33.6016,-112.104,6284,2017-03-16
1351717,23840567,"6001 W Northview Ave, Glendale, AZ 85301 ",85301,0.5334751307964325,0.7957582175731659,0.42451721920218066,179000,https://www.zillow.com/homedetails/6001-W-Northview-Ave-Glendale-AZ-85301/7705497_zpid/,33.5431,-112.189,6534,2017-11-21
2044933,22443059,"1446 W Bentley St, Mesa, AZ 85201 ",85201,0.55406853556633,0.7659211754798889,0.4243728240573841,220000,https://www.zillow.com/homedetails/1446-W-Bentley-St-Mesa-AZ-85201/7610672_zpid/,33.4202,-111.86200000000001,6338,2017-05-09
390667,23787702,"4029 W Caron St, Phoenix, AZ 85051 ",85051,0.563463419675827,0.7510475516319275,0.4231878217816831,189900,https://www.zillow.com/homedetails/4029-W-Caron-St-Phoenix-AZ-85051/7746120_zpid/,33.5682,-112.146,6265,2017-02-25
440994,23821180,"8228 W Fairmount Ave, Phoenix, AZ 85033 ",85033,0.49049927294254303,0.8626876771450043,0.4231476784161159,167000,https://www.zillow.com/homedetails/8228-W-Fairmount-Ave-Phoenix-AZ-85033/7478785_zpid/,33.4907,-112.23700000000001,6517,2017-11-04
319525,23824915,"2238 N 22nd St, Phoenix, AZ 85006 ",85006,0.5477509498596191,0.7711836695671082,0.42241658752161015,249900,https://www.zillow.com/homedetails/2238-N-22nd-St-Phoenix-AZ-85006/7531630_zpid/,33.4726,-112.035,6522,2017-11-09
389970,22302502,"2910 W Altadena Ave, Phoenix, AZ 85029 ",85029,0.5444701015949249,0.7753504812717438,0.42215515530970027,220000,https://www.zillow.com/homedetails/2910-W-Altadena-Ave-Phoenix-AZ-85029/7739875_zpid/,33.5927,-112.12200000000001,6401,2017-07-11
409836,23788987,"4544 W Cholla St, Glendale, AZ 85304 ",85304,0.5514193177223206,0.7655604481697083,0.4221448200049345,230000,https://www.zillow.com/homedetails/4544-W-Cholla-St-Glendale-AZ-85304/7727053_zpid/,33.5891,-112.15700000000001,6319,2017-04-20
394881,23830983,"7533 N 30th Ave, Phoenix, AZ 85051 ",85051,0.49023324251174927,0.8605268597602844,0.42185887272873757,237900,https://www.zillow.com/homedetails/7533-N-30th-Ave-Phoenix-AZ-85051/95143966_zpid/,33.5471,-112.124,6524,2017-11-11
409973,23835214,"4617 W Christy Dr, Glendale, AZ 85304 ",85304,0.4864209294319153,0.8653576672077179,0.4209280807742122,230000,https://www.zillow.com/homedetails/4617-W-Christy-Dr-Glendale-AZ-85304/7727674_zpid/,33.5841,-112.15899999999999,6530,2017-11-17
9005709,23843235,"7738 W Monterey Way, Phoenix, AZ 85033 ",85033,0.480665922164917,0.8756731152534485,0.42090622545832446,161000,https://www.zillow.com/homedetails/7738-W-Monterey-Way-Phoenix-AZ-85033/7469325_zpid/,33.4849,-112.226,6540,2017-11-27
336868,23820918,"2122 W Glendale Ave, Phoenix, AZ 85021 ",85021,0.5068211555480957,0.8289474844932556,0.42012812197955895,208400,https://www.zillow.com/homedetails/2122-W-Glendale-Ave-Phoenix-AZ-85021/7778952_zpid/,33.5389,-112.105,6516,2017-11-03
403477,23842141,"12447 N 50th Ln, Glendale, AZ 85304 ",85304,0.46655645966529846,0.9003416299819946,0.42006020337368355,209900,https://www.zillow.com/homedetails/12447-N-50th-Ln-Glendale-AZ-85304/7954648_zpid/,33.5997,-112.16799999999999,6540,2017-11-27
425566,23374604,"3339 N 80th Dr, Phoenix, AZ 85033 ",85033,0.5157071799039841,0.8141921758651733,0.4198847509153172,179500,http://www.zillow.com/homedetails/3339-N-80th-Dr-Phoenix-AZ-85033/7479414_zpid,33.4867,-112.23200000000001,6369,2017-06-09
556266,23783983,"2325 N 28th Pl, Phoenix, AZ 85008 ",85008,0.5266547501087189,0.7939492762088776,0.41813715766078463,144000,https://www.zillow.com/homedetails/2325-N-28th-Pl-Phoenix-AZ-85008/7542977_zpid/,33.4742,-112.02,6305,2017-04-06
435667,22734446,"7942 W Verde Ln, Phoenix, AZ 85033 ",85033,0.49421486258506775,0.8441885709762573,0.4172105386009157,175000,https://www.zillow.com/homedetails/7942-W-Verde-Ln-Phoenix-AZ-85033/7479526_zpid/,33.4815,-112.23100000000001,6484,2017-10-02
9020443,23869115,"11637 N 58th Dr, Glendale, AZ 85304 ",85304,0.46137453615665436,0.903848260641098,0.41701257200928543,225000,https://www.zillow.com/homedetails/11637-N-58th-Dr-Glendale-AZ-85304/7737634_zpid/,33.5924,-112.185,6535,2017-11-22
481368,23814944,"2346 N 47th Ln, Phoenix, AZ 85035 ",85035,0.4883470982313156,0.8496104776859283,0.41490481140484503,174900,https://www.zillow.com/homedetails/2346-N-47th-Ln-Phoenix-AZ-85035/7499146_zpid/,33.4749,-112.162,6511,2017-10-29
8970322,23833063,"3323 N 63rd Ave, Phoenix, AZ 85033 ",85033,0.4780116081237793,0.8638173937797546,0.4129147415259524,165000,https://www.zillow.com/homedetails/3323-N-63rd-Ave-Phoenix-AZ-85033/7498361_zpid/,33.4857,-112.195,6528,2017-11-15
7381600,22218425,"4317 N 72nd Dr, Phoenix, AZ 85033 ",85033,0.5186306685209274,0.7924433052539825,0.41098540116880633,190000,https://www.zillow.com/homedetails/4317-N-72nd-Dr-Phoenix-AZ-85033/7711467_zpid/,33.4989,-112.214,6377,2017-06-17
330587,22131299,"4508 N 17th Ave, Phoenix, AZ 85015 ",85015,0.5347667038440704,0.7667478919029236,0.41003124283231607,185000,https://www.zillow.com/homedetails/4508-N-17th-Ave-Phoenix-AZ-85015/7772361_zpid/,33.5027,-112.096,6321,2017-04-22
334027,23820917,"6217 N 25th Ave, Phoenix, AZ 85015 ",85015,0.5353753864765167,0.7656866014003754,0.4099297601446166,186500,https://www.zillow.com/homedetails/6217-N-25th-Ave-Phoenix-AZ-85015/7772678_zpid/,33.5283,-112.11200000000001,6516,2017-11-03
9022220,23813743,"3934 W Sheridan St, Phoenix, AZ 85009 ",85009,0.4704067260026932,0.8709910809993744,0.40972006279046225,175000,https://www.zillow.com/homedetails/3934-W-Sheridan-St-Phoenix-AZ-85009/7512512_zpid/,33.4754,-112.145,6510,2017-10-28
497370,23828357,"6740 W Encanto Blvd, Phoenix, AZ 85035 ",85035,0.47031480073928833,0.8704628944396973,0.4093915827493504,195000,https://www.zillow.com/homedetails/6740-W-Encanto-Blvd-Phoenix-AZ-85035/7475724_zpid/,33.4737,-112.205,6499,2017-10-17
359281,23846977,"2013 S 86th Ave, Tolleson, AZ 85353 ",85353,0.43980181217193604,0.9292442500591278,0.4086833051263561,215000,https://www.zillow.com/homedetails/2013-S-86th-Ave-Tolleson-AZ-85353/59271375_zpid/,33.4287,-112.244,6546,2017-12-03
1354714,21989085,"6518 N 60th Ave, Glendale, AZ 85301 ",85301,0.5765755772590637,0.7076788246631622,0.4080303268441785,115000,https://www.zillow.com/homedetails/6518-N-60th-Ave-Glendale-AZ-85301/7707850_zpid/,33.532,-112.19,6359,2017-05-30
318987,23813756,"2220 E Palm Ln, Phoenix, AZ 85006 ",85006,0.5365380644798279,0.7602075636386871,0.4078802947976268,239900,https://www.zillow.com/homedetails/2220-E-Palm-Ln-Phoenix-AZ-85006/7531376_zpid/,33.4695,-112.03399999999999,6510,2017-10-28
225614,23844378,"1303 W Michelle Dr, Phoenix, AZ 85023 ",85023,0.45260146260261536,0.8998910784721375,0.4072920182995343,249900,https://www.zillow.com/homedetails/1303-W-Michelle-Dr-Phoenix-AZ-85023/7956957_zpid/,33.6494,-112.09,6543,2017-11-30
1844940,23839763,"7728 W Crittenden Ln, Phoenix, AZ 85033 ",85033,0.47596971690654755,0.8537944257259369,0.4063802911091625,165500,https://www.zillow.com/homedetails/7728-W-Crittenden-Ln-Phoenix-AZ-85033/7478567_zpid/,33.4884,-112.226,6530,2017-11-17
8985924,22488235,"7609 W Avalon Dr, Phoenix, AZ 85033 ",85033,0.4966937154531479,0.8140079379081726,0.40431262708796556,190000,https://www.zillow.com/homedetails/7609-W-Avalon-Dr-Phoenix-AZ-85033/7469546_zpid/,33.4829,-112.223,6426,2017-08-05
9026097,23861966,"8850 W Greenbrian Dr, Peoria, AZ 85382 ",85382,0.4480525851249695,0.9023414254188538,0.4042964083242673,185000,https://www.zillow.com/homedetails/8850-W-Greenbrian-Dr-Peoria-AZ-85382/7898281_zpid/,33.6434,-112.25,6548,2017-12-05
7380359,22747336,"3611 W Maricopa St, Phoenix, AZ 85009 ",85009,0.5283402502536774,0.7651202082633972,0.40424380230802903,146600,https://www.zillow.com/homedetails/3611-W-Maricopa-St-Phoenix-AZ-85009/7506371_zpid/,33.4383,-112.137,6492,2017-10-10
333549,23831460,"1415 W Cinnabar Ave, Phoenix, AZ 85021 ",85021,0.5043788403272629,0.8003884851932526,0.40369901597306734,215000,https://www.zillow.com/homedetails/1415-W-Cinnabar-Ave-Phoenix-AZ-85021/7781704_zpid/,33.5764,-112.09100000000001,6522,2017-11-09
459700,22721620,"5715 W Roma Ave, Phoenix, AZ 85031 ",85031,0.4863235801458359,0.8300829231739044,0.40368889901585403,139900,https://www.zillow.com/homedetails/5715-W-Roma-Ave-Phoenix-AZ-85031/7712868_zpid/,33.4993,-112.18299999999999,6478,2017-09-26
830006,22432017,"3735 W Catalina Dr, Phoenix, AZ 85019 ",85019,0.5287652760744095,0.7633967399597168,0.40365768795910384,144000,https://www.zillow.com/homedetails/3735-W-Catalina-Dr-Phoenix-AZ-85019/7507455_zpid/,33.4817,-112.14,6334,2017-05-05
827683,22544155,"3017 N 40th Dr, Phoenix, AZ 85019 ",85019,0.49319125711917877,0.8168971836566925,0.40288654894476084,140000,https://www.zillow.com/homedetails/3017-N-40th-Dr-Phoenix-AZ-85019/7509168_zpid/,33.483000000000004,-112.146,6437,2017-08-16
312249,23814876,"1433 S 14th Ave, Phoenix, AZ 85007 ",85007,0.5024660229682922,0.799094945192337,0.40151805908485905,174900,https://www.zillow.com/homedetails/1433-S-14th-Ave-Phoenix-AZ-85007/7500688_zpid/,33.4338,-112.09,6511,2017-10-29
486164,22539632,"4802 W Encanto Blvd, Phoenix, AZ 85035 ",85035,0.4999039024114609,0.8031725883483887,0.40150911122527333,148000,https://www.zillow.com/homedetails/4802-W-Encanto-Blvd-Phoenix-AZ-85035/7499173_zpid/,33.4734,-112.163,6437,2017-08-16
415049,23846150,"10006 N 66th Ave, Glendale, AZ 85302 ",85302,0.44536958634853363,0.9009606242179871,0.40126046052428155,199000,https://www.zillow.com/homedetails/10006-N-66th-Ave-Glendale-AZ-85302/7706542_zpid/,33.5765,-112.20100000000001,6544,2017-12-01
470397,23842202,"3425 W Citrus Way, Phoenix, AZ 85017 ",85017,0.4505775272846222,0.8904389441013336,0.4012117776311088,147000,https://www.zillow.com/homedetails/3425-W-Citrus-Way-Phoenix-AZ-85017/7758679_zpid/,33.5297,-112.133,6540,2017-11-27
405768,23846514,"4845 W Evans Dr, Glendale, AZ 85306 ",85306,0.4549688547849655,0.8809270560741425,0.4007943738511437,192900,https://www.zillow.com/homedetails/4845-W-Evans-Dr-Glendale-AZ-85306/7952529_zpid/,33.6169,-112.164,6544,2017-12-01
331776,22565895,"10418 N 18th Ave, Phoenix, AZ 85021 ",85021,0.5366922914981842,0.7457267343997955,0.40022578991648405,199000,https://www.zillow.com/homedetails/10418-N-18th-Ave-Phoenix-AZ-85021/7781375_zpid/,33.5813,-112.098,6444,2017-08-23
483705,23784850,"2639 N 49th Ave, Phoenix, AZ 85035 ",85035,0.4907192140817642,0.8130060136318207,0.39895767205315513,162499,https://www.zillow.com/homedetails/2639-N-49th-Ave-Phoenix-AZ-85035/7499042_zpid/,33.4778,-112.163,6270,2017-03-02
834633,23845436,"3526 W Ocotillo Rd, Phoenix, AZ 85019 ",85019,0.4595203846693039,0.8671418130397797,0.39846933949087715,220000,https://www.zillow.com/homedetails/3526-W-Ocotillo-Rd-Phoenix-AZ-85019/7761449_zpid/,33.535,-112.13600000000001,6537,2017-11-24
1412767,23846610,"7238 W Ocotillo Rd, Glendale, AZ 85303 ",85303,0.4414840191602707,0.9015215039253235,0.39800733691236356,245000,https://www.zillow.com/homedetails/7238-W-Ocotillo-Rd-Glendale-AZ-85303/67800379_zpid/,33.5344,-112.215,6543,2017-11-30
393150,23840514,"4228 W Vista Ave, Phoenix, AZ 85051 ",85051,0.46457479894161224,0.8542872369289398,0.3968803213346477,172400,https://www.zillow.com/homedetails/4228-W-Vista-Ave-Phoenix-AZ-85051/7758035_zpid/,33.5467,-112.15,6534,2017-11-21
454952,23752844,"4630 W Indianola Ave, Phoenix, AZ 85031 ",85031,0.45962613821029663,0.8632810711860657,0.39678654493929955,159000,https://www.zillow.com/homedetails/4630-W-Indianola-Ave-Phoenix-AZ-85031/7508079_zpid/,33.4927,-112.15899999999999,6497,2017-10-15
9011104,22672448,"12997 N 71st Ave, Peoria, AZ 85381 ",85381,0.6325611770153046,0.6259808838367462,0.3959712046688528,200000,https://www.zillow.com/homedetails/12997-N-71st-Ave-Peoria-AZ-85381/50185506_zpid/,33.603,-112.211,6408,2017-07-18
9011933,22678376,"7934 W Mitchell Dr, Phoenix, AZ 85033 ",85033,0.49343594908714294,0.8023209273815155,0.3958939882749748,155000,https://www.zillow.com/homedetails/7934-W-Mitchell-Dr-Phoenix-AZ-85033/7478637_zpid/,33.4893,-112.23,6464,2017-09-12
9000590,22678276,"2725 N 40th Ave, Phoenix, AZ 85009 ",85009,0.4890735298395157,0.8093289732933044,0.3958213777699475,162900,https://www.zillow.com/homedetails/2725-N-40th-Ave-Phoenix-AZ-85009/7512795_zpid/,33.4798,-112.145,6467,2017-09-15
329115,23755232,"2335 W Campus Dr, Phoenix, AZ 85015 ",85015,0.4774380326271057,0.8255025446414948,0.39412631084230476,212800,https://www.zillow.com/homedetails/2335-W-Campus-Dr-Phoenix-AZ-85015/7518987_zpid/,33.484,-112.11,6499,2017-10-17
457960,23512295,"5355 W Earll Dr, Phoenix, AZ 85031 ",85031,0.46919773519039154,0.8378525376319885,0.3931185130804513,179900,https://www.zillow.com/homedetails/5355-W-Earll-Dr-Phoenix-AZ-85031/7496878_zpid/,33.4846,-112.175,6492,2017-10-10
457725,23828275,"5216 W Mulberry Dr, Phoenix, AZ 85031 ",85031,0.4558418542146683,0.8600641489028931,0.3920532363794553,175000,https://www.zillow.com/homedetails/5216-W-Mulberry-Dr-Phoenix-AZ-85031/7497059_zpid/,33.4869,-112.17200000000001,6523,2017-11-10
501018,22711998,"7420 W Alvarado Rd, Phoenix, AZ 85035 ",85035,0.48397013545036316,0.80990931391716,0.39197192035899864,119900,https://www.zillow.com/homedetails/7420-W-Alvarado-Rd-Phoenix-AZ-85035/7474905_zpid/,33.4717,-112.22,6475,2017-09-23
389338,23787313,"3912 W Townley Ave, Phoenix, AZ 85051 ",85051,0.5413215160369873,0.7226278185844421,0.39117398628663125,184900,https://www.zillow.com/homedetails/3912-W-Townley-Ave-Phoenix-AZ-85051/7754475_zpid/,33.5662,-112.14399999999999,6291,2017-03-23
976127,23846057,"734 N Tangerine Dr, Chandler, AZ 85226 ",85226,0.43161410093307495,0.9048862159252167,0.3905616505332947,204900,https://www.zillow.com/homedetails/734-N-Tangerine-Dr-Chandler-AZ-85226/8156625_zpid/,33.3162,-111.928,6544,2017-12-01
404277,23846221,"13213 N 55th Ave, Glendale, AZ 85304 ",85304,0.4357001483440399,0.8930998146533966,0.38912372173051946,214900,https://www.zillow.com/homedetails/13213-N-55th-Ave-Glendale-AZ-85304/7911876_zpid/,33.6045,-112.177,6544,2017-12-01
381684,22380395,"3111 W Laurie Ln, Phoenix, AZ 85051 ",85051,0.4757795184850693,0.8155503571033478,0.3880221562029571,229900,https://www.zillow.com/homedetails/3111-W-Laurie-Ln-Phoenix-AZ-85051/7754882_zpid/,33.5587,-112.126,6403,2017-07-13
364303,22743539,"9353 W Taylor St, Tolleson, AZ 85353 ",85353,0.5316381752490997,0.7294709086418152,0.38781458276763736,99000,https://www.zillow.com/homedetails/9353-W-Taylor-St-Tolleson-AZ-85353/7477007_zpid/,33.4524,-112.26100000000001,6489,2017-10-07
380762,23785452,"2911 W Lawrence Ln, Phoenix, AZ 85051 ",85051,0.5084677934646606,0.7616530060768127,0.38727602338560274,155000,https://www.zillow.com/homedetails/2911-W-Lawrence-Ln-Phoenix-AZ-85051/7750459_zpid/,33.5641,-112.12200000000001,6274,2017-03-06
379250,23806503,"2622 W Northview Ave, Phoenix, AZ 85051 ",85051,0.48791392147541046,0.7925038039684296,0.38667363877841643,169900,https://www.zillow.com/homedetails/2622-W-Northview-Ave-Phoenix-AZ-85051/7779483_zpid/,33.5439,-112.115,6507,2017-10-25
7569182,23846194,"11603 N Rio Vista Dr, Sun City, AZ 85351 ",85351,0.4496994912624359,0.8574481308460236,0.3855939882253834,164000,https://www.zillow.com/homedetails/11603-N-Rio-Vista-Dr-Sun-City-AZ-85351/7686077_zpid/,33.5899,-112.266,6543,2017-11-30
22930,21627869,"5725 W Highland Ave, Phoenix, AZ 85031 ",85031,0.5182124376296997,0.7432571649551392,0.3851651072371425,175000,https://www.zillow.com/homedetails/5725-W-Highland-Ave-Phoenix-AZ-85031/7713313_zpid/,33.5057,-112.18299999999999,6328,2017-04-29
428369,23828377,"6211 W Clarendon Ave, Phoenix, AZ 85033 ",85033,0.4569428563117981,0.8402636647224426,0.383952479013292,219000,https://www.zillow.com/homedetails/6211-W-Clarendon-Ave-Phoenix-AZ-85033/7496532_zpid/,33.4914,-112.193,6513,2017-10-31
502071,22116293,"3625 N 48th Ave, Phoenix, AZ 85031 ",85031,0.47269199788570404,0.8122533559799194,0.3839456616275161,158000,https://www.zillow.com/homedetails/3625-N-48th-Ave-Phoenix-AZ-85031/7508647_zpid/,33.4911,-112.163,6338,2017-05-09
328718,23810569,"2235 W Highland Ave, Phoenix, AZ 85015 ",85015,0.5264201164245605,0.7275232076644897,0.38298285168031043,99000,https://www.zillow.com/homedetails/2235-W-Highland-Ave-Phoenix-AZ-85015/7767290_zpid/,33.5055,-112.10799999999999,6509,2017-10-27
225855,23847348,"1461 E Renee Dr, Phoenix, AZ 85024 ",85024,0.4196312725543976,0.9121372699737549,0.38276132334338087,249000,https://www.zillow.com/homedetails/1461-E-Renee-Dr-Phoenix-AZ-85024/7996071_zpid/,33.6554,-112.05,6545,2017-12-02
342960,23847789,"1722 S 64th Ave, Phoenix, AZ 85043 ",85043,0.41464248299598694,0.9225990772247314,0.38254877219026895,175000,https://www.zillow.com/homedetails/1722-S-64th-Ave-Phoenix-AZ-85043/55257220_zpid/,33.4323,-112.198,6548,2017-12-05
9019728,23843826,"17413 N 8th Ave, Phoenix, AZ 85023 ",85023,0.4280586391687393,0.8934310972690582,0.38244089968802664,184500,https://www.zillow.com/homedetails/17413-N-8th-Ave-Phoenix-AZ-85023/7963487_zpid/,33.6445,-112.085,6542,2017-11-29
349445,23786888,"3622 W Berkeley Rd, Phoenix, AZ 85009 ",85009,0.5175260901451111,0.7385464310646057,0.3822170468594912,144900,https://www.zillow.com/homedetails/3622-W-Berkeley-Rd-Phoenix-AZ-85009/7512043_zpid/,33.4684,-112.137,6316,2017-04-17
337793,22745680,"2343 W Diana Ave, Phoenix, AZ 85021 ",85021,0.4695776402950287,0.8137524425983429,0.38211995177964564,225000,https://www.zillow.com/homedetails/2343-W-Diana-Ave-Phoenix-AZ-85021/7782287_zpid/,33.563,-112.11,6491,2017-10-09
646338,23847131,"2249 W Portobello Ave, Mesa, AZ 85202 ",85202,0.42221906781196594,0.9043495953083038,0.3818336431072007,215000,https://www.zillow.com/homedetails/2249-W-Portobello-Ave-Mesa-AZ-85202/8170991_zpid/,33.3591,-111.882,6546,2017-12-03
9022258,23835030,"3023 W Krall St, Phoenix, AZ 85017 ",85017,0.449401319026947,0.8491254150867462,0.38159808155928765,249900,https://www.zillow.com/homedetails/3023-W-Krall-St-Phoenix-AZ-85017/7759497_zpid/,33.534,-112.125,6530,2017-11-17
9007274,23854421,"8426 W Bluefield Ave, Peoria, AZ 85382 ",85382,0.43012116849422455,0.8870738744735718,0.38154925142927176,229000,https://www.zillow.com/homedetails/8426-W-Bluefield-Ave-Peoria-AZ-85382/8129054_zpid/,33.6509,-112.241,6552,2017-12-09
503203,23857062,"4214 N 31st Ave, Phoenix, AZ 85017 ",85017,0.5017229914665222,0.7560796141624451,0.37934252580443584,135000,https://www.zillow.com/homedetails/4214-N-31st-Ave-Phoenix-AZ-85017/7768398_zpid/,33.497,-112.126,6537,2017-11-24
330130,23649302,"3841 N 21st Ave, Phoenix, AZ 85015 ",85015,0.44919155538082123,0.8433694541454315,0.37883443686826057,165000,https://www.zillow.com/homedetails/3841-N-21st-Ave-Phoenix-AZ-85015/7516223_zpid/,33.4929,-112.104,6495,2017-10-13
9023845,23833062,"1333 N 32nd Ave, Phoenix, AZ 85009 ",85009,0.5104019045829773,0.741388350725174,0.37840602624576114,125000,https://www.zillow.com/homedetails/1333-N-32nd-Ave-Phoenix-AZ-85009/7513099_zpid/,33.464,-112.12700000000001,6528,2017-11-15
9017511,23846619,"7346 W Coolidge St, Phoenix, AZ 85033 ",85033,0.4215541183948517,0.8970654904842377,0.378161651983528,199900,https://www.zillow.com/homedetails/7346-W-Coolidge-St-Phoenix-AZ-85033/7710836_zpid/,33.5042,-112.21799999999999,6544,2017-12-01
9024752,23848642,"9850 W Royal Oak Rd, Sun City, AZ 85351 ",85351,0.42869216203689575,0.8809338808059692,0.377649449974264,179900,https://www.zillow.com/homedetails/9850-W-Royal-Oak-Rd-Sun-City-AZ-85351/8096121_zpid/,33.6005,-112.26899999999999,6548,2017-12-05
331783,22651353,"10428 N 13th Ave, Phoenix, AZ 85021 ",85021,0.537151038646698,0.7008858323097229,0.37648155279792306,195000,https://www.zillow.com/homedetails/10428-N-13th-Ave-Phoenix-AZ-85021/7781474_zpid/,33.5811,-112.089,6463,2017-09-11
326266,22680508,"1747 W Colter St, Phoenix, AZ 85015 ",85015,0.5412943363189697,0.6952065825462341,0.37631138570394285,249900,https://www.zillow.com/homedetails/1747-W-Colter-St-Phoenix-AZ-85015/7775943_zpid/,33.5127,-112.098,6466,2017-09-14
215329,22594254,"1402 E Mescal St, Phoenix, AZ 85020 ",85020,0.622355043888092,0.6038631498813629,0.3758172771468171,249900,https://www.zillow.com/homedetails/1402-E-Mescal-St-Phoenix-AZ-85020/63200956_zpid/,33.5873,-112.052,6448,2017-08-27
7546896,22096492,"6102 W Mulberry Dr, Phoenix, AZ 85033 ",85033,0.4869777709245682,0.7698033452033997,0.37487711709742744,165000,https://www.zillow.com/homedetails/6102-W-Mulberry-Dr-Phoenix-AZ-85033/7498385_zpid/,33.4872,-112.19200000000001,6321,2017-04-22
832330,23845531,"4148 W Maryland Ave, Phoenix, AZ 85019 ",85019,0.4216804951429367,0.8863348960876465,0.3737501378447021,178500,https://www.zillow.com/homedetails/4148-W-Maryland-Ave-Phoenix-AZ-85019/7762142_zpid/,33.5312,-112.149,6541,2017-11-28
330099,22738563,"3820 N 23rd Ave, Phoenix, AZ 85015 ",85015,0.4459437429904938,0.8374194800853729,0.37344197740242446,245000,https://www.zillow.com/homedetails/3820-N-23rd-Ave-Phoenix-AZ-85015/7516043_zpid/,33.4921,-112.10799999999999,6487,2017-10-05
459441,22441396,"5651 W Sells Dr, Phoenix, AZ 85031 ",85031,0.4973928928375244,0.7507396936416626,0.3734125879883834,191000,https://www.zillow.com/homedetails/5651-W-Sells-Dr-Phoenix-AZ-85031/7712751_zpid/,33.4999,-112.182,6333,2017-05-04
9024615,23850383,"4345 W Morrow Dr, Glendale, AZ 85308 ",85308,0.4156048446893692,0.8984262049198151,0.3733902833605591,245000,https://www.zillow.com/homedetails/4345-W-Morrow-Dr-Glendale-AZ-85308/7938791_zpid/,33.6569,-112.154,6552,2017-12-09
470861,22224283,"4135 N 29th Dr, Phoenix, AZ 85017 ",85017,0.5443788766860962,0.6840198040008545,0.37236593253302885,125000,https://www.zillow.com/homedetails/4135-N-29th-Dr-Phoenix-AZ-85017/64623257_zpid/,33.4965,-112.12200000000001,6321,2017-04-22
9022517,23843319,"9918 W Oakstone Dr, Sun City, AZ 85351 ",85351,0.41638945043087006,0.8941688537597656,0.3723224776094298,205000,https://www.zillow.com/homedetails/9918-W-Oakstone-Dr-Sun-City-AZ-85351/7907984_zpid/,33.6152,-112.26899999999999,6541,2017-11-28
342822,22678663,"1925 W Holly St, Phoenix, AZ 85009 ",85009,0.48255839943885803,0.77034130692482,0.3717346680912792,160000,https://www.zillow.com/homedetails/1925-W-Holly-St-Phoenix-AZ-85009/7519786_zpid/,33.4699,-112.102,6467,2017-09-15
9019709,23816778,"2325 W Adams St, Phoenix, AZ 85009 ",85009,0.5222857594490051,0.7100154459476471,0.3708309564072909,150000,https://www.zillow.com/homedetails/2325-W-Adams-St-Phoenix-AZ-85009/7515215_zpid/,33.4489,-112.11,6514,2017-11-01
491289,23853212,"5551 W Wilshire Dr, Phoenix, AZ 85035 ",85035,0.4186929166316986,0.8853216171264648,0.37067789003177154,187900,https://www.zillow.com/homedetails/5551-W-Wilshire-Dr-Phoenix-AZ-85035/7491935_zpid/,33.4756,-112.18,6538,2017-11-25
9206,23840092,"1220 W Ironwood Dr, Phoenix, AZ 85021 ",85021,0.43801550567150116,0.844796746969223,0.37003407431336344,169000,https://www.zillow.com/homedetails/1220-W-Ironwood-Dr-Phoenix-AZ-85021/7781692_zpid/,33.576,-112.089,6534,2017-11-21
8981328,22485420,"1411 E Whitton Ave, Phoenix, AZ 85014 ",85014,0.5417638123035431,0.6808248162269592,0.36884624794997656,160000,https://www.zillow.com/homedetails/1411-E-Whitton-Ave-Phoenix-AZ-85014/7534776_zpid/,33.4887,-112.051,6421,2017-07-31
686694,23841252,"2821 N 28th Pl, Phoenix, AZ 85008 ",85008,0.469024121761322,0.7831327617168427,0.3673081557867608,235000,https://www.zillow.com/homedetails/2821-N-28th-Pl-Phoenix-AZ-85008/7542846_zpid/,33.4793,-112.02,6539,2017-11-26
8946582,23846686,"9637 W Tonto Ln, Peoria, AZ 85382 ",85382,0.41809771955013275,0.8777934014797211,0.3670034193948255,229900,https://www.zillow.com/homedetails/9637-W-Tonto-Ln-Peoria-AZ-85382/7895900_zpid/,33.6617,-112.26799999999999,6543,2017-11-30
316554,23837195,"1843 E Harvard St, Phoenix, AZ 85006 ",85006,0.518022358417511,0.7076137065887451,0.3665597211356584,119900,https://www.zillow.com/homedetails/1843-E-Harvard-St-Phoenix-AZ-85006/7531029_zpid/,33.4737,-112.041,6529,2017-11-16
350252,22116796,"3827 W Taylor St, Phoenix, AZ 85009 ",85009,0.5188159942626953,0.7058090567588806,0.3661850275419738,112500,https://www.zillow.com/homedetails/3827-W-Taylor-St-Phoenix-AZ-85009/7505668_zpid/,33.454,-112.14299999999999,6364,2017-06-04
9024756,23848729,"3002 N 70TH Ave, Phoenix, AZ 85033 ",85033,0.4130380302667618,0.8865208923816681,0.3661668431796561,164900,https://www.zillow.com/homedetails/3002-N-70TH-Ave-Phoenix-AZ-85033/7468637_zpid/,33.4816,-112.211,6548,2017-12-05
496469,22536294,"6526 W Holly St, Phoenix, AZ 85035 ",85035,0.4609060138463974,0.7943555414676666,0.36612324619465886,169499,https://www.zillow.com/homedetails/6526-W-Holly-St-Phoenix-AZ-85035/7490333_zpid/,33.471,-112.20100000000001,6408,2017-07-18
8977430,22376634,"1505 W Hadley St, Phoenix, AZ 85007 ",85007,0.4834265410900116,0.7564367651939392,0.3656816089510233,180000,https://www.zillow.com/homedetails/1505-W-Hadley-St-Phoenix-AZ-85007/2112748542_zpid/,33.4392,-112.09200000000001,6414,2017-07-24
477931,23837214,"1802 N 66th Ave, Phoenix, AZ 85035 ",85035,0.43182554841041565,0.8456149101257324,0.36515812230906874,150000,https://www.zillow.com/homedetails/1802-N-66th-Ave-Phoenix-AZ-85035/7490498_zpid/,33.4678,-112.20200000000001,6531,2017-11-18
7515382,22616806,"3843 W Grant St, Phoenix, AZ 85009 ",85009,0.5220620036125183,0.6993597447872162,0.36510914960955354,114900,https://www.zillow.com/homedetails/3843-W-Grant-St-Phoenix-AZ-85009/7506219_zpid/,33.4411,-112.14299999999999,6403,2017-07-13
413798,23850402,"6136 W Sierra St, Glendale, AZ 85304 ",85304,0.4064144790172577,0.8962436318397522,0.3642463887066878,239899,https://www.zillow.com/homedetails/6136-W-Sierra-St-Glendale-AZ-85304/7698235_zpid/,33.5914,-112.19200000000001,6551,2017-12-08
9019232,23843081,"3428 E Sheridan St, Phoenix, AZ 85008 ",85008,0.43787945806980133,0.831682026386261,0.36417647500041017,240000,https://www.zillow.com/homedetails/3428-E-Sheridan-St-Phoenix-AZ-85008/7541233_zpid/,33.4752,-112.007,6540,2017-11-27
633870,23848061,"1763 W Natal Ave, Mesa, AZ 85202 ",85202,0.4044738709926605,0.9001201093196869,0.3640750649748705,245000,https://www.zillow.com/homedetails/1763-W-Natal-Ave-Mesa-AZ-85202/8251610_zpid/,33.3665,-111.87200000000001,6544,2017-12-01
450725,23853431,"8746 W Granada Rd, Phoenix, AZ 85037 ",85037,0.39536401629447937,0.9197977185249329,0.3636549201745165,209900,https://www.zillow.com/homedetails/8746-W-Granada-Rd-Phoenix-AZ-85037/7487519_zpid/,33.4683,-112.249,6551,2017-12-08
255987,23850390,"506 W Beverly Ln, Phoenix, AZ 85023 ",85023,0.40192486345767975,0.9037678241729736,0.36324675932816675,229900,https://www.zillow.com/homedetails/506-W-Beverly-Ln-Phoenix-AZ-85023/7965481_zpid/,33.6337,-112.081,6552,2017-12-09
1672407,23856036,"9529 W Appaloosa Dr, Sun City, AZ 85373 ",85373,0.4072626531124115,0.8883149921894073,0.36177752051858914,192500,https://www.zillow.com/homedetails/9529-W-Appaloosa-Dr-Sun-City-AZ-85373/8095188_zpid/,33.6455,-112.26799999999999,6544,2017-12-01
650458,23850182,"2419 W Naranja Ave, Mesa, AZ 85202 ",85202,0.39339855313301086,0.9180041253566742,0.36114149468545076,235000,https://www.zillow.com/homedetails/2419-W-Naranja-Ave-Mesa-AZ-85202/8251330_zpid/,33.3643,-111.88600000000001,6551,2017-12-08
225687,23849553,"1306 W Charleston Ave, Phoenix, AZ 85023 ",85023,0.4008020907640457,0.8980560600757599,0.359942746501686,245000,https://www.zillow.com/homedetails/1306-W-Charleston-Ave-Phoenix-AZ-85023/7956977_zpid/,33.6491,-112.09,6550,2017-12-07
227559,23843808,"15221 N 28th Dr, Phoenix, AZ 85053 ",85053,0.41338489949703217,0.8702876269817352,0.35976376321335524,209900,https://www.zillow.com/homedetails/15221-N-28th-Dr-Phoenix-AZ-85053/7942595_zpid/,33.6243,-112.119,6542,2017-11-29
8926187,23815309,"7109 N 24th Ave, Phoenix, AZ 85021 ",85021,0.4640655368566513,0.7745224833488464,0.3594291920428292,249900,https://www.zillow.com/homedetails/7109-N-24th-Ave-Phoenix-AZ-85021/7779113_zpid/,33.5407,-112.111,6513,2017-10-31
458973,22036993,"5608 W Heatherbrae Dr, Phoenix, AZ 85031 ",85031,0.474001869559288,0.757491409778595,0.35905234441015477,165000,https://www.zillow.com/homedetails/5608-W-Heatherbrae-Dr-Phoenix-AZ-85031/7713127_zpid/,33.4974,-112.181,6348,2017-05-19
8944881,17734724,"3302 W Edgemont Ave, Phoenix, AZ 85009 ",85009,0.5002860128879547,0.7153932750225067,0.3579012492078659,138000,https://www.zillow.com/homedetails/3302-W-Edgemont-Ave-Phoenix-AZ-85009/7510406_zpid/,33.4799,-112.13,6334,2017-05-05
325345,23781077,"1710 W Bethany Home Rd, Phoenix, AZ 85015 ",85015,0.5201098620891571,0.6871584057807922,0.3573978636640529,219000,https://www.zillow.com/homedetails/1710-W-Bethany-Home-Rd-Phoenix-AZ-85015/7774319_zpid/,33.5243,-112.096,6281,2017-03-13
342222,23780659,"1648 N 38th Dr, Phoenix, AZ 85009 ",85009,0.5055321455001831,0.7056015133857727,0.35670424693008584,129900,https://www.zillow.com/homedetails/1648-N-38th-Dr-Phoenix-AZ-85009/7511922_zpid/,33.4675,-112.14200000000001,6321,2017-04-22
345079,22412828,"2742 W Pierce St, Phoenix, AZ 85009 ",85009,0.5019642412662506,0.7076933085918427,0.35523673469650685,119900,https://www.zillow.com/homedetails/2742-W-Pierce-St-Phoenix-AZ-85009/7513479_zpid/,33.455999999999996,-112.119,6407,2017-07-17
9021795,23854390,"747 W Rosal Pl, Chandler, AZ 85225 ",85225,0.3821791559457779,0.9247129857540131,0.35340602838756885,244800,https://www.zillow.com/homedetails/747-W-Rosal-Pl-Chandler-AZ-85225/8177685_zpid/,33.3412,-111.855,6551,2017-12-08
9023077,23849850,"5810 W Saint John Rd, Glendale, AZ 85308 ",85308,0.38440799713134766,0.91080042719841,0.3501189680057166,238000,https://www.zillow.com/homedetails/5810-W-Saint-John-Rd-Glendale-AZ-85308/8099795_zpid/,33.6464,-112.184,6548,2017-12-05
445188,23853143,"4627 N 91st Dr, Phoenix, AZ 85037 ",85037,0.381854847073555,0.9088896811008453,0.34706393018349546,240000,https://www.zillow.com/homedetails/4627-N-91st-Dr-Phoenix-AZ-85037/7466477_zpid/,33.5051,-112.256,6551,2017-12-08
400817,23856413,"11004 N 58th Dr, Glendale, AZ 85304 ",85304,0.38237155973911285,0.9027726650238037,0.3451945920149875,215000,https://www.zillow.com/homedetails/11004-N-58th-Dr-Glendale-AZ-85304/7736132_zpid/,33.5857,-112.186,6550,2017-12-07
8990554,23839230,"3845 N 59th Ave, Phoenix, AZ 85033 ",85033,0.40609556436538696,0.8476838171482086,0.34424063812820727,176000,https://www.zillow.com/homedetails/3845-N-59th-Ave-Phoenix-AZ-85033/7496809_zpid/,33.493,-112.186,6531,2017-11-18
499623,23853309,"7113 W Holly St, Phoenix, AZ 85035 ",85035,0.38034045696258545,0.9033975899219513,0.34359865216981333,135000,https://www.zillow.com/homedetails/7113-W-Holly-St-Phoenix-AZ-85035/7475387_zpid/,33.4699,-112.213,6548,2017-12-05
453580,23853046,"4508 N 57th Ave, Phoenix, AZ 85031 ",85031,0.396663174033165,0.8612306714057922,0.3416184916945353,189950,https://www.zillow.com/homedetails/4508-N-57th-Ave-Phoenix-AZ-85031/7713228_zpid/,33.5028,-112.182,6537,2017-11-24
243942,23854107,"18463 N 5th Ave, Phoenix, AZ 85023 ",85023,0.37932881712913513,0.8999322056770325,0.3413702190758823,249000,https://www.zillow.com/homedetails/18463-N-5th-Ave-Phoenix-AZ-85023/7956457_zpid/,33.6543,-112.08,6552,2017-12-09
237433,23843870,"2957 W Michelle Dr, Phoenix, AZ 85053 ",85053,0.3905043601989746,0.8730047047138214,0.3409121436649656,225000,https://www.zillow.com/homedetails/2957-W-Michelle-Dr-Phoenix-AZ-85053/7940747_zpid/,33.6492,-112.124,6542,2017-11-29
8985214,22623361,"4530 N 15th St, Phoenix, AZ 85014 ",85014,0.5352733433246613,0.6338904500007629,0.3393046604734824,219900,https://www.zillow.com/homedetails/4530-N-15th-St-Phoenix-AZ-85014/7768940_zpid/,33.5031,-112.05,6450,2017-08-29
379359,23862932,"11404 N 30th Ave, Phoenix, AZ 85029 ",85029,0.3869487941265106,0.8727177679538727,0.33769708792253095,211500,https://www.zillow.com/homedetails/11404-N-30th-Ave-Phoenix-AZ-85029/7739905_zpid/,33.5896,-112.124,6552,2017-12-09
328960,22284604,"2322 W Cheery Lynn Rd, Phoenix, AZ 85015 ",85015,0.46123310923576355,0.7317560315132141,0.3375101096168631,249900,https://www.zillow.com/homedetails/2322-W-Cheery-Lynn-Rd-Phoenix-AZ-85015/7517610_zpid/,33.4857,-112.109,6398,2017-07-08
400713,23840251,"10843 N 45th Ln, Glendale, AZ 85304 ",85304,0.38750749826431274,0.8696558773517609,0.33699817338343685,220000,https://www.zillow.com/homedetails/10843-N-45th-Ln-Glendale-AZ-85304/7727914_zpid/,33.5861,-112.156,6534,2017-11-21
139877,23857282,"9806 W Wrangler Dr, Sun City, AZ 85373 ",85373,0.37547045946121216,0.8938982784748077,0.33563239733052264,184900,https://www.zillow.com/homedetails/9806-W-Wrangler-Dr-Sun-City-AZ-85373/8095456_zpid/,33.6403,-112.271,6544,2017-12-01
379528,23846192,"11438 N 30th Ave, Phoenix, AZ 85029 ",85029,0.383438378572464,0.866467148065567,0.3322367583405681,235000,https://www.zillow.com/homedetails/11438-N-30th-Ave-Phoenix-AZ-85029/7739912_zpid/,33.5907,-112.124,6544,2017-12-01
221575,23843969,"9841 N 11th St, Phoenix, AZ 85020 ",85020,0.3901807516813278,0.8514470160007477,0.3322182367199953,169900,https://www.zillow.com/homedetails/9841-N-11th-St-Phoenix-AZ-85020/7787496_zpid/,33.5764,-112.059,6542,2017-11-29
450133,23853376,"8659 W Palm Ln, Phoenix, AZ 85037 ",85037,0.3647868037223816,0.907921701669693,0.331197855582273,179900,https://www.zillow.com/homedetails/8659-W-Palm-Ln-Phoenix-AZ-85037/7487502_zpid/,33.47,-112.244,6552,2017-12-09
7454178,23781563,"1831 E Monte Vista Rd, Phoenix, AZ 85006 ",85006,0.4725298434495926,0.6954501867294312,0.32862096786224804,224900,https://www.zillow.com/homedetails/1831-E-Monte-Vista-Rd-Phoenix-AZ-85006/7531909_zpid/,33.4709,-112.042,6286,2017-03-18
25059,21638916,"777 W Roosevelt St, Phoenix, AZ 85007 ",85007,0.47296692430973053,0.6944221556186676,0.3284387111154943,207000,https://www.zillow.com/homedetails/777-W-Roosevelt-St-Phoenix-AZ-85007/2107063726_zpid/,33.4582,-112.083,6249,2017-02-09
345521,23753202,"2846 W Melvin St, Phoenix, AZ 85009 ",85009,0.48539818823337555,0.6747413873672485,0.32751824695413667,80000,https://www.zillow.com/homedetails/2846-W-Melvin-St-Phoenix-AZ-85009/7514191_zpid/,33.4524,-112.12200000000001,6497,2017-10-15
406281,23859189,"5202 W Banff Ln, Glendale, AZ 85306 ",85306,0.35917918384075165,0.9116044044494629,0.32742932597579255,208000,https://www.zillow.com/homedetails/5202-W-Banff-Ln-Glendale-AZ-85306/7911062_zpid/,33.6195,-112.171,6548,2017-12-05
