property_id,transaction_id,address,zipcode,any_sell,good_sell,bayesian,list,url,lat,long,date_listed,transaction_date
1115749,23864072,"1721 W Nopal Dr, Chandler, AZ 85224 ",85224,0.6471749842166901,0.9234801828861237,0.5976532727837531,249900,https://www.zillow.com/homedetails/1721-W-Nopal-Dr-Chandler-AZ-85224/8198402_zpid/,33.3418,-111.874,6581,2018-01-07
447418,23856851,"8311 W Coolidge St, Phoenix, AZ 85037 ",85037,0.6488156616687775,0.9191709160804749,0.5963724861034496,189900,https://www.zillow.com/homedetails/8311-W-Coolidge-St-Phoenix-AZ-85037/7480994_zpid/,33.5048,-112.238,6560,2017-12-17
9026050,23861695,"19901 N 98th Ave, Peoria, AZ 85382 ",85382,0.6479694545269012,0.9130898714065552,0.591654345909344,239000,https://www.zillow.com/homedetails/19901-N-98th-Ave-Peoria-AZ-85382/7896097_zpid/,33.6647,-112.271,6571,2017-12-28
1422266,23883525,"8164 W Sierra Vista Dr, Glendale, AZ 85303 ",85303,0.6399457156658173,0.9057090282440186,0.5796046122646104,239900,https://www.zillow.com/homedetails/8164-W-Sierra-Vista-Dr-Glendale-AZ-85303/7462584_zpid/,33.5315,-112.236,6579,2018-01-05
1093584,23859955,"781 W Del Rio St, Chandler, AZ 85225 ",85225,0.6324978768825531,0.9128006100654602,0.5773444478835028,248900,https://www.zillow.com/homedetails/781-W-Del-Rio-St-Chandler-AZ-85225/8186554_zpid/,33.3158,-111.854,6565,2017-12-22
432541,22734473,"7113 W Sheila Ln, Phoenix, AZ 85033 ",85033,0.6652944087982178,0.8621001839637756,0.5735504322150149,189000,https://www.zillow.com/homedetails/7113-W-Sheila-Ln-Phoenix-AZ-85033/55257199_zpid/,33.4878,-112.213,6485,2017-10-03
1091154,23858452,"668 W Shawnee Dr, Chandler, AZ 85225 ",85225,0.6495950222015381,0.8826736807823181,0.5733804292645033,239900,https://www.zillow.com/homedetails/668-W-Shawnee-Dr-Chandler-AZ-85225/8200509_zpid/,33.3448,-111.852,6535,2017-11-22
422815,23883544,"8324 N 56th Ln, Glendale, AZ 85302 ",85302,0.6300362050533295,0.9098407328128815,0.5732326025043681,242900,https://www.zillow.com/homedetails/8324-N-56th-Ln-Glendale-AZ-85302/7732897_zpid/,33.5576,-112.181,6568,2017-12-25
629569,23853723,"1645 W Peralta Ave, Mesa, AZ 85202 ",85202,0.6481118500232697,0.8805132210254669,0.5706710526487635,222900,https://www.zillow.com/homedetails/1645-W-Peralta-Ave-Mesa-AZ-85202/8191627_zpid/,33.3572,-111.87,6553,2017-12-10
9021439,23856224,"17630 N 33RD Ln, Phoenix, AZ 85053 ",85053,0.6474602520465851,0.8797659277915955,0.5696134693499442,215000,https://www.zillow.com/homedetails/17630-N-33rd-Ln-Phoenix-AZ-85053/7942069_zpid/,33.6462,-112.131,6558,2017-12-15
9029936,23905379,"8408 W Bloomfield Rd, Peoria, AZ 85381 ",85381,0.6228038966655731,0.9144687354564667,0.5695346918211266,224900,https://www.zillow.com/homedetails/8408-W-Bloomfield-Rd-Peoria-AZ-85381/7914533_zpid/,33.5976,-112.24,6578,2018-01-04
352916,23863486,"213 E Campo Bello Dr, Phoenix, AZ 85022 ",85022,0.6481168866157532,0.8786340057849884,0.5694575363040943,225000,https://www.zillow.com/homedetails/213-E-Campo-Bello-Dr-Phoenix-AZ-85022/7959267_zpid/,33.6435,-112.071,6579,2018-01-05
452056,23863849,"8831 W Mariposa St, Phoenix, AZ 85037 ",85037,0.6403870582580566,0.889236181974411,0.569455342671219,209900,https://www.zillow.com/homedetails/8831-W-Mariposa-St-Phoenix-AZ-85037/7483281_zpid/,33.5074,-112.25,6581,2018-01-07
332059,23858248,"115 E Hartford Ave, Phoenix, AZ 85022 ",85022,0.6481168866157532,0.8775401413440704,0.5687485842882669,215000,https://www.zillow.com/homedetails/115-E-Hartford-Ave-Phoenix-AZ-85022/79527909_zpid/,33.6426,-112.073,6562,2017-12-19
9025717,23858269,"3333 W Grovers Ave, Phoenix, AZ 85053 ",85053,0.6474602520465851,0.8761948347091675,0.5673013285227135,162000,https://www.zillow.com/homedetails/3333-W-Grovers-Ave-Phoenix-AZ-85053/2091717911_zpid/,33.6474,-112.131,6564,2017-12-21
8977160,23825434,"16231 N 91st Dr, Peoria, AZ 85382 ",85382,0.638535737991333,0.8869158625602722,0.5663274748361431,233000,https://www.zillow.com/homedetails/16231-N-91st-Dr-Peoria-AZ-85382/2123153916_zpid/,33.6316,-112.25200000000001,6526,2017-11-13
9021795,23854390,"747 W Rosal Pl, Chandler, AZ 85225 ",85225,0.6322775781154633,0.8942172229290009,0.565393500022684,244800,https://www.zillow.com/homedetails/747-W-Rosal-Pl-Chandler-AZ-85225/8177685_zpid/,33.3412,-111.855,6551,2017-12-08
8952180,23860567,"3408 N 67TH Ln, Phoenix, AZ 85033 ",85033,0.6295428276062012,0.8969784677028656,0.5646863608595396,195000,https://www.zillow.com/homedetails/3408-N-67th-Ln-Phoenix-AZ-85033/7485759_zpid/,33.4878,-112.205,6570,2017-12-27
1410517,23856547,"7108 N 73rd Dr, Glendale, AZ 85303 ",85303,0.6282033622264862,0.898245632648468,0.5642809265350248,222000,https://www.zillow.com/homedetails/7108-N-73rd-Dr-Glendale-AZ-85303/82823489_zpid/,33.5387,-112.21700000000001,6532,2017-11-19
424918,23883758,"9803 N 50TH Ave, Glendale, AZ 85302 ",85302,0.6418882310390472,0.8788766264915466,0.5641405630802243,224500,https://www.zillow.com/homedetails/9803-N-50TH-Ave-Glendale-AZ-85302/7728972_zpid/,33.575,-112.167,6571,2017-12-28
261662,23863593,"4827 W Topeka Dr, Glendale, AZ 85308 ",85308,0.6338677704334259,0.8894273042678833,0.5637793023188955,230000,https://www.zillow.com/homedetails/4827-W-Topeka-Dr-Glendale-AZ-85308/7939843_zpid/,33.6597,-112.166,6569,2017-12-26
405758,23864265,"4841 W Paradise Ln, Glendale, AZ 85306 ",85306,0.6293607950210571,0.8951273262500763,0.5633580456938212,249999,https://www.zillow.com/homedetails/4841-W-Paradise-Ln-Glendale-AZ-85306/7951435_zpid/,33.6321,-112.163,6579,2018-01-05
381077,23870349,"12217 N 30TH Ave, Phoenix, AZ 85029 ",85029,0.6372866332530975,0.8807479441165924,0.5612888920506505,239000,https://www.zillow.com/homedetails/12217-N-30th-Ave-Phoenix-AZ-85029/7747117_zpid/,33.5971,-112.12299999999999,6577,2018-01-03
1412767,23846610,"7238 W Ocotillo Rd, Glendale, AZ 85303 ",85303,0.6167154014110565,0.9099001586437225,0.5611494415819474,245000,https://www.zillow.com/homedetails/7238-W-Ocotillo-Rd-Glendale-AZ-85303/67800379_zpid/,33.5344,-112.215,6543,2017-11-30
9025615,23856149,"17636 N 35th St, Phoenix, AZ 85032 ",85032,0.6473137736320496,0.8648703098297119,0.5598424639581907,235000,https://www.zillow.com/homedetails/17636-N-35th-St-Phoenix-AZ-85032/7998341_zpid/,33.6469,-112.005,6557,2017-12-14
9019112,23856813,"4426 W Vogel Ave, Glendale, AZ 85302 ",85302,0.6315376162528992,0.8861662149429321,0.5596472989889136,219900,https://www.zillow.com/homedetails/4426-W-Vogel-Ave-Glendale-AZ-85302/7729451_zpid/,33.5722,-112.155,6561,2017-12-18
9022735,23864019,"13216 N 31ST Way, Phoenix, AZ 85032 ",85032,0.6438354551792145,0.8681882321834564,0.5589703656490732,241000,https://www.zillow.com/homedetails/13216-N-31st-Way-Phoenix-AZ-85032/50188555_zpid/,33.6068,-112.014,6581,2018-01-07
232170,23847359,"17834 N 33RD Dr, Phoenix, AZ 85053 ",85053,0.6360228359699249,0.8786091506481171,0.5588154837043424,249999,https://www.zillow.com/homedetails/17834-N-33RD-Dr-Phoenix-AZ-85053/7941287_zpid/,33.6484,-112.131,6543,2017-11-30
9017511,23846619,"7346 W Coolidge St, Phoenix, AZ 85033 ",85033,0.6375176310539246,0.8760529160499573,0.5584991797180514,199900,https://www.zillow.com/homedetails/7346-W-Coolidge-St-Phoenix-AZ-85033/7710836_zpid/,33.5042,-112.21799999999999,6544,2017-12-01
419470,23882476,"5428 W Puget Ave, Glendale, AZ 85302 ",85302,0.6339584290981293,0.8808086514472961,0.5583960690075696,180000,https://www.zillow.com/homedetails/5428-W-Puget-Ave-Glendale-AZ-85302/7733603_zpid/,33.567,-112.177,6559,2017-12-16
8989113,22740158,"19153 N 75TH Dr, Glendale, AZ 85308 ",85308,0.6518879532814026,0.856543630361557,0.5583704740926176,235000,https://www.zillow.com/homedetails/19153-N-75th-Dr-Glendale-AZ-85308/7892099_zpid/,33.6583,-112.221,6487,2017-10-05
1372616,23883622,"8549 W Tuckey Ln, Glendale, AZ 85305 ",85305,0.6346515417098999,0.8792372643947601,0.5580092853769294,206000,https://www.zillow.com/homedetails/8549-W-Tuckey-Ln-Glendale-AZ-85305/7461499_zpid/,33.533,-112.245,6532,2017-11-19
410719,23854939,"4923 W Larkspur Dr, Glendale, AZ 85304 ",85304,0.6108377873897552,0.9108443260192871,0.5563781327621342,236000,https://www.zillow.com/homedetails/4923-W-Larkspur-Dr-Glendale-AZ-85304/7954371_zpid/,33.5993,-112.165,6557,2017-12-14
9007274,23854421,"8426 W Bluefield Ave, Peoria, AZ 85382 ",85382,0.6421112716197968,0.8663904070854187,0.5563190460128116,229000,https://www.zillow.com/homedetails/8426-W-Bluefield-Ave-Peoria-AZ-85382/8129054_zpid/,33.6509,-112.241,6552,2017-12-09
9023243,23866706,"9140 W Gelding Dr, Peoria, AZ 85381 ",85381,0.625281572341919,0.8889080286026001,0.5558178097919892,247000,https://www.zillow.com/homedetails/9140-W-Gelding-Dr-Peoria-AZ-85381/7908642_zpid/,33.6153,-112.255,6579,2018-01-05
1409526,23883258,"7001 N 77th Ave, Glendale, AZ 85303 ",85303,0.6248618066310883,0.8886867463588715,0.5553064058589081,164900,https://www.zillow.com/homedetails/7001-N-77th-Ave-Glendale-AZ-85303/7684833_zpid/,33.5382,-112.22399999999999,6577,2018-01-03
9026628,23892890,"9702 W Campana Dr, Sun City, AZ 85351 ",85351,0.6307958960533142,0.880234956741333,0.5552485982750994,185950,https://www.zillow.com/homedetails/9702-W-Campana-Dr-Sun-City-AZ-85351/7904989_zpid/,33.6372,-112.26899999999999,6578,2018-01-04
423007,23883750,"8427 N 47th Dr, Glendale, AZ 85302 ",85302,0.6293607950210571,0.8811196386814117,0.5545421563091999,246999,https://www.zillow.com/homedetails/8427-N-47th-Dr-Glendale-AZ-85302/7731867_zpid/,33.5593,-112.161,6578,2018-01-04
484854,23817893,"2833 N 73RD Dr, Phoenix, AZ 85035 ",85035,0.652786374092102,0.8483696579933167,0.5538041529312139,190000,https://www.zillow.com/homedetails/2833-N-73rd-Dr-Phoenix-AZ-85035/92692586_zpid/,33.4796,-112.21600000000001,6514,2017-11-01
385542,23862282,"1634 W Andorra Dr, Phoenix, AZ 85029 ",85029,0.6359288394451141,0.8699707090854645,0.5532394633799624,235000,https://www.zillow.com/homedetails/1634-W-Andorra-Dr-Phoenix-AZ-85029/7784245_zpid/,33.6066,-112.095,6577,2018-01-03
1667493,23859750,"18423 N 94TH Dr, Sun City, AZ 85373 ",85373,0.6391972601413727,0.864903062582016,0.5528436678903068,249900,https://www.zillow.com/homedetails/18423-N-94th-Dr-Sun-City-AZ-85373/7897476_zpid/,33.6522,-112.26299999999999,6571,2017-12-28
392047,23856667,"3214 W Voltaire Ave, Phoenix, AZ 85029 ",85029,0.6299322843551636,0.8776212930679321,0.552841985941015,229000,https://www.zillow.com/homedetails/3214-W-Voltaire-Ave-Phoenix-AZ-85029/7747954_zpid/,33.6091,-112.12799999999999,6560,2017-12-17
255987,23850390,"506 W Beverly Ln, Phoenix, AZ 85023 ",85023,0.631750077009201,0.8746314942836761,0.552548513868385,229900,https://www.zillow.com/homedetails/506-W-Beverly-Ln-Phoenix-AZ-85023/7965481_zpid/,33.6337,-112.081,6552,2017-12-09
436097,23866308,"2311 N 91st Gln, Phoenix, AZ 85037 ",85037,0.605615884065628,0.911676287651062,0.5521256409274677,239900,https://www.zillow.com/homedetails/2311-N-91st-Gln-Phoenix-AZ-85037/60974969_zpid/,33.4747,-112.257,6579,2018-01-05
1990166,23862524,"3227 W Corrine Dr, Phoenix, AZ 85029 ",85029,0.6320658028125763,0.8713980317115784,0.5507808964830776,180000,https://www.zillow.com/homedetails/3227-W-Corrine-Dr-Phoenix-AZ-85029/7747533_zpid/,33.6005,-112.12799999999999,6578,2018-01-04
625494,23866146,"1522 W Plana Ave, Mesa, AZ 85202 ",85202,0.5964681506156921,0.9231762886047363,0.5506452535563255,242500,https://www.zillow.com/homedetails/1522-W-Plana-Ave-Mesa-AZ-85202/8172015_zpid/,33.3588,-111.866,6585,2018-01-11
1665351,23862007,"17415 N Country Club Dr, Sun City, AZ 85373 ",85373,0.6339584290981293,0.8674833178520203,0.5499483614542999,219500,https://www.zillow.com/homedetails/17415-N-Country-Club-Dr-Sun-City-AZ-85373/7897399_zpid/,33.6428,-112.26,6574,2017-12-31
8996051,23841761,"3410 N 67TH Dr, Phoenix, AZ 85033 ",85033,0.6295428276062012,0.8734484016895294,0.5498731765677434,220000,https://www.zillow.com/homedetails/3410-N-67th-Dr-Phoenix-AZ-85033/7485764_zpid/,33.4878,-112.204,6537,2017-11-24
431375,23855856,"6744 W Pierson St, Phoenix, AZ 85033 ",85033,0.6227676868438721,0.8822574615478516,0.5494414385289019,141900,https://www.zillow.com/homedetails/6744-W-Pierson-St-Phoenix-AZ-85033/7716621_zpid/,33.508,-112.205,6555,2017-12-12
386006,23854095,"1749 W Surrey Ave, Phoenix, AZ 85029 ",85029,0.6301392614841461,0.8717820048332214,0.5493440687007745,220000,https://www.zillow.com/homedetails/1749-W-Surrey-Ave-Phoenix-AZ-85029/7784365_zpid/,33.6053,-112.098,6555,2017-12-12
456854,23862646,"4925 W Flower St, Phoenix, AZ 85031 ",85031,0.6170936524868011,0.8902108669281006,0.5493434753561033,206000,https://www.zillow.com/homedetails/4925-W-Flower-St-Phoenix-AZ-85031/7509860_zpid/,33.4855,-112.165,6578,2018-01-04
9030739,23909196,"7307 N 41st Dr, Phoenix, AZ 85051 ",85051,0.625639408826828,0.878029078245163,0.5493295934460685,222000,https://www.zillow.com/homedetails/7307-N-41st-Dr-Phoenix-AZ-85051/7756457_zpid/,33.5444,-112.148,6563,2017-12-20
419794,23856376,"5539 W Hatcher Rd, Glendale, AZ 85302 ",85302,0.6171590685844421,0.889766663312912,0.5491275651876837,204999,https://www.zillow.com/homedetails/5539-W-Hatcher-Rd-Glendale-AZ-85302/7734771_zpid/,33.5705,-112.179,6559,2017-12-16
9013787,22693106,"5647 W Villa Theresa Dr, Glendale, AZ 85308 ",85308,0.6594998836517334,0.8313278257846832,0.5482606043814471,210000,https://www.zillow.com/homedetails/5647-W-Villa-Theresa-Dr-Glendale-AZ-85308/7901269_zpid/,33.6537,-112.182,6471,2017-09-19
481915,23852927,"2518 N 67TH Dr, Phoenix, AZ 85035 ",85035,0.6276675164699554,0.8703642785549164,0.5462993851447289,145000,https://www.zillow.com/homedetails/2518-N-67th-Dr-Phoenix-AZ-85035/7475839_zpid/,33.4762,-112.204,6551,2017-12-08
495328,23862682,"6239 W Encanto Blvd, Phoenix, AZ 85035 ",85035,0.6202718913555145,0.880035787820816,0.5458614625721578,153900,https://www.zillow.com/homedetails/6239-W-Encanto-Blvd-Phoenix-AZ-85035/7491160_zpid/,33.473,-112.195,6576,2018-01-02
1357376,23883408,"7648 N 46th Ave, Glendale, AZ 85301 ",85301,0.6366331875324249,0.8570995926856995,0.5456580457242399,240000,https://www.zillow.com/homedetails/7648-N-46th-Ave-Glendale-AZ-85301/7725091_zpid/,33.5494,-112.15799999999999,6571,2017-12-28
460325,23853200,"5810 W Avalon Dr, Phoenix, AZ 85031 ",85031,0.6386980414390564,0.8542500138282776,0.5456078107314077,150000,https://www.zillow.com/homedetails/5810-W-Avalon-Dr-Phoenix-AZ-85031/7490070_zpid/,33.484,-112.185,6551,2017-12-08
9026795,23893587,"9807 W Royal Oak Rd, Sun City, AZ 85351 ",85351,0.6246923506259918,0.8720384836196899,0.5447557701687096,164900,https://www.zillow.com/homedetails/9807-W-Royal-Oak-Rd-Sun-City-AZ-85351/8096145_zpid/,33.5995,-112.266,6565,2017-12-22
225614,23844378,"1303 W Michelle Dr, Phoenix, AZ 85023 ",85023,0.636722058057785,0.8548574149608612,0.5443065725998375,249900,https://www.zillow.com/homedetails/1303-W-Michelle-Dr-Phoenix-AZ-85023/7956957_zpid/,33.6494,-112.09,6543,2017-11-30
350999,23875711,"6522 W Preston Ln, Phoenix, AZ 85043 ",85043,0.589023768901825,0.9240071177482605,0.5442621549881927,230000,https://www.zillow.com/homedetails/6522-W-Preston-Ln-Phoenix-AZ-85043/62727413_zpid/,33.4236,-112.20100000000001,6561,2017-12-18
1864574,23822334,"9873 W Escuda Dr, Peoria, AZ 85382 ",85382,0.6479694545269012,0.8397051692008972,0.5441033004505247,245000,https://www.zillow.com/homedetails/9873-W-Escuda-Dr-Peoria-AZ-85382/7896125_zpid/,33.6652,-112.271,6519,2017-11-06
417420,23882392,"4809 W Laurie Ln, Glendale, AZ 85302 ",85302,0.6170478761196136,0.8815580308437347,0.5439635106083154,243000,https://www.zillow.com/homedetails/4809-W-Laurie-Ln-Glendale-AZ-85302/7731926_zpid/,33.5587,-112.163,6556,2017-12-13
9006564,23814082,"16612 N 28th Way, Phoenix, AZ 85032 ",85032,0.6548650562763214,0.829948753118515,0.5435044369174191,194900,https://www.zillow.com/homedetails/16612-N-28th-Way-Phoenix-AZ-85032/8005824_zpid/,33.6376,-112.021,6511,2017-10-29
243287,22690475,"3218 W Angela Dr, Phoenix, AZ 85053 ",85053,0.6474602520465851,0.8386354148387909,0.542983097066716,209000,https://www.zillow.com/homedetails/3218-W-Angela-Dr-Phoenix-AZ-85053/7942085_zpid/,33.6461,-112.12899999999999,6470,2017-09-18
481948,23862444,"2520 N 51st Ln, Phoenix, AZ 85035 ",85035,0.6164149641990662,0.8805587887763977,0.5427896142587763,152000,https://www.zillow.com/homedetails/2520-N-51st-Ln-Phoenix-AZ-85035/7493069_zpid/,33.4755,-112.171,6578,2018-01-04
403812,23864058,"16025 N 47TH Dr, Glendale, AZ 85306 ",85306,0.6144988238811493,0.8828523755073547,0.5425117464099483,240000,https://www.zillow.com/homedetails/16025-N-47TH-Dr-Glendale-AZ-85306/7951382_zpid/,33.6308,-112.161,6581,2018-01-07
359220,23854837,"1816 S 84TH Dr, Tolleson, AZ 85353 ",85353,0.5836600065231323,0.9289723038673401,0.542203980935021,225000,https://www.zillow.com/homedetails/1816-S-84TH-Dr-Tolleson-AZ-85353/59249294_zpid/,33.4304,-112.241,6557,2017-12-14
225687,23849553,"1306 W Charleston Ave, Phoenix, AZ 85023 ",85023,0.636722058057785,0.851457267999649,0.5421416240289956,245000,https://www.zillow.com/homedetails/1306-W-Charleston-Ave-Phoenix-AZ-85023/7956977_zpid/,33.6491,-112.09,6550,2017-12-07
235380,23862487,"2831 W Grovers Ave, Phoenix, AZ 85053 ",85053,0.6299164593219757,0.8596165180206299,0.5414865934062405,200000,https://www.zillow.com/homedetails/2831-W-Grovers-Ave-Phoenix-AZ-85053/7942333_zpid/,33.6472,-112.12200000000001,6578,2018-01-04
9025829,23859165,"4109 E Winchcomb Dr, Phoenix, AZ 85032 ",85032,0.6434320509433746,0.8399613201618195,0.540458034944824,185000,https://www.zillow.com/homedetails/4109-E-Winchcomb-Dr-Phoenix-AZ-85032/8030117_zpid/,33.617,-111.993,6558,2017-12-15
392024,23860589,"4134 W Linger Ln, Phoenix, AZ 85051 ",85051,0.6100010871887207,0.8849004209041595,0.5397902188052939,224900,https://www.zillow.com/homedetails/4134-W-Linger-Ln-Phoenix-AZ-85051/7755387_zpid/,33.5528,-112.148,6572,2017-12-29
495290,23854344,"6237 W Monte Vista Rd, Phoenix, AZ 85035 ",85035,0.6116310060024261,0.8821475803852081,0.5395488120336109,178900,https://www.zillow.com/homedetails/6237-W-Monte-Vista-Rd-Phoenix-AZ-85035/7491037_zpid/,33.4705,-112.194,6554,2017-12-11
9021586,23838024,"8142 W Sweetwater Ave, Peoria, AZ 85381 ",85381,0.6230075061321259,0.8646111786365509,0.5386592541763155,240000,https://www.zillow.com/homedetails/8142-W-Sweetwater-Ave-Peoria-AZ-85381/7913307_zpid/,33.6028,-112.235,6529,2017-11-16
413890,23882883,"6209 W Bloomfield Rd, Glendale, AZ 85304 ",85304,0.6010774970054626,0.8957634270191193,0.5384232386216876,225000,https://www.zillow.com/homedetails/6209-W-Bloomfield-Rd-Glendale-AZ-85304/7912238_zpid/,33.5984,-112.19200000000001,6561,2017-12-18
411064,23882421,"5118 W Columbine Dr, Glendale, AZ 85304 ",85304,0.6108377873897552,0.8806143999099731,0.5379125515845651,239000,https://www.zillow.com/homedetails/5118-W-Columbine-Dr-Glendale-AZ-85304/7911366_zpid/,33.5987,-112.17,6579,2018-01-05
8850973,23814108,"2525 E Michigan Ave, Phoenix, AZ 85032 ",85032,0.6601565182209015,0.8145460784435272,0.5377279030757682,225000,https://www.zillow.com/homedetails/2525-E-Michigan-Ave-Phoenix-AZ-85032/7999906_zpid/,33.6507,-112.027,6511,2017-10-29
349688,23875696,"6325 W Whyman Ave, Phoenix, AZ 85043 ",85043,0.5836600065231323,0.9210735261440277,0.5375937802775077,225000,https://www.zillow.com/homedetails/6325-W-Whyman-Ave-Phoenix-AZ-85043/53206198_zpid/,33.4269,-112.197,6579,2018-01-05
347157,23863475,"17828 N 1ST St, Phoenix, AZ 85022 ",85022,0.6252816319465637,0.859749048948288,0.5375852883908916,104990,https://www.zillow.com/homedetails/17828-N-1st-St-Phoenix-AZ-85022/7956061_zpid/,33.6483,-112.074,6567,2017-12-24
491289,23853212,"5551 W Wilshire Dr, Phoenix, AZ 85035 ",85035,0.6241770088672638,0.8608276844024658,0.5373088492004641,187900,https://www.zillow.com/homedetails/5551-W-Wilshire-Dr-Phoenix-AZ-85035/7491935_zpid/,33.4756,-112.18,6538,2017-11-25
391845,23866465,"4128 W Frier Dr, Phoenix, AZ 85051 ",85051,0.6156551241874695,0.8725286424160004,0.5371767297037469,229900,https://www.zillow.com/homedetails/4128-W-Frier-Dr-Phoenix-AZ-85051/7755554_zpid/,33.5496,-112.148,6579,2018-01-05
412003,23883799,"5331 W Voltaire Dr, Glendale, AZ 85304 ",85304,0.6010774970054626,0.8929744064807892,0.5367468211374113,206000,https://www.zillow.com/homedetails/5331-W-Voltaire-Dr-Glendale-AZ-85304/7911791_zpid/,33.6084,-112.17399999999999,6572,2017-12-29
387030,23862016,"2114 W Sunnyside Dr, Phoenix, AZ 85029 ",85029,0.6221500337123871,0.8624220788478851,0.5365559254295187,174400,https://www.zillow.com/homedetails/2114-W-Sunnyside-Dr-Phoenix-AZ-85029/7748813_zpid/,33.5934,-112.104,6575,2018-01-01
2042666,23866719,"9694 N 82nd Gln, Peoria, AZ 85345 ",85345,0.5877591669559479,0.9128553569316864,0.5365391041414425,219000,https://www.zillow.com/homedetails/9694-N-82nd-Gln-Peoria-AZ-85345/60978309_zpid/,33.5735,-112.23700000000001,6578,2018-01-04
433435,23843217,"7318 W Glenrosa Ave, Phoenix, AZ 85033 ",85033,0.625639408826828,0.8573387861251831,0.5363849313156699,154999,https://www.zillow.com/homedetails/7318-W-Glenrosa-Ave-Phoenix-AZ-85033/7711188_zpid/,33.4994,-112.21700000000001,6541,2017-11-28
450270,23853373,"8713 W Wilshire Dr, Phoenix, AZ 85037 ",85037,0.6004133820533752,0.8929927945137024,0.5361648239032668,200000,https://www.zillow.com/homedetails/8713-W-Wilshire-Dr-Phoenix-AZ-85037/7473941_zpid/,33.4756,-112.24700000000001,6526,2017-11-13
9024486,23843769,"6743 W Roma Ave, Phoenix, AZ 85033 ",85033,0.6227676868438721,0.8607233762741089,0.5360307060546745,135000,https://www.zillow.com/homedetails/6743-W-Roma-Ave-Phoenix-AZ-85033/7717104_zpid/,33.5015,-112.205,6542,2017-11-29
1090754,23921398,"649 W Ivanhoe St, Chandler, AZ 85225 ",85225,0.6272483766078949,0.8523541986942291,0.5346377874258783,190000,https://www.zillow.com/homedetails/649-W-Ivanhoe-St-Chandler-AZ-85225/8189345_zpid/,33.3174,-111.851,6536,2017-11-23
9026621,23892869,"9601 W Oakstone Dr, Sun City, AZ 85351 ",85351,0.6078929901123047,0.8790721893310547,0.5343818216970249,184900,https://www.zillow.com/homedetails/9601-W-Oakstone-Dr-Sun-City-AZ-85351/7922239_zpid/,33.6156,-112.265,6577,2018-01-03
8970849,23830064,"3715 E Delcoa Dr, Phoenix, AZ 85032 ",85032,0.6434320509433746,0.8303265869617462,0.5342587388016087,220000,https://www.zillow.com/homedetails/3715-E-Delcoa-Dr-Phoenix-AZ-85032/7813615_zpid/,33.6109,-112.00200000000001,6507,2017-10-25
1349332,23855797,"5601 N 61st Ln, Glendale, AZ 85301 ",85301,0.6267890334129333,0.8521820306777954,0.5341383513004061,164000,https://www.zillow.com/homedetails/5601-N-61st-Ln-Glendale-AZ-85301/7714491_zpid/,33.5189,-112.193,6551,2017-12-08
387374,23860581,"3735 W Cochise Dr, Phoenix, AZ 85051 ",85051,0.5931499600410461,0.900492936372757,0.5341273492267451,244900,https://www.zillow.com/homedetails/3735-W-Cochise-Dr-Phoenix-AZ-85051/7745459_zpid/,33.5803,-112.14,6572,2017-12-29
976127,23846057,"734 N Tangerine Dr, Chandler, AZ 85226 ",85226,0.6057048439979553,0.8811314404010773,0.5337055816498282,204900,https://www.zillow.com/homedetails/734-N-Tangerine-Dr-Chandler-AZ-85226/8156625_zpid/,33.3162,-111.928,6544,2017-12-01
561112,23847992,"1043 W Frito Ave, Mesa, AZ 85210 ",85210,0.6272483766078949,0.8506320416927338,0.5335575672424264,195000,https://www.zillow.com/homedetails/1043-W-Frito-Ave-Mesa-AZ-85210/7598695_zpid/,33.3951,-111.854,6543,2017-11-30
242590,22686911,"3202 W Angela Dr, Phoenix, AZ 85053 ",85053,0.6350583136081696,0.8398280143737793,0.5333397625291099,234900,https://www.zillow.com/homedetails/3202-W-Angela-Dr-Phoenix-AZ-85053/7942083_zpid/,33.6461,-112.12799999999999,6464,2017-09-12
409785,23870370,"4531 W Wethersfield Rd, Glendale, AZ 85304 ",85304,0.6062715649604797,0.8795096576213837,0.533221696523972,235000,https://www.zillow.com/homedetails/4531-W-Wethersfield-Rd-Glendale-AZ-85304/7955091_zpid/,33.5969,-112.15700000000001,6577,2018-01-03
9011928,23753384,"7411 W Wolf St, Phoenix, AZ 85033 ",85033,0.6375176310539246,0.8348737359046936,0.5322467263431001,229900,https://www.zillow.com/homedetails/7411-W-Wolf-St-Phoenix-AZ-85033/95184996_zpid/,33.5059,-112.219,6494,2017-10-12
9025493,23853409,"5955 W Mitchell Dr, Phoenix, AZ 85033 ",85033,0.6227676868438721,0.8545297384262085,0.5321735085389889,165000,https://www.zillow.com/homedetails/5955-W-Mitchell-Dr-Phoenix-AZ-85033/7489271_zpid/,33.4883,-112.189,6550,2017-12-07
627067,23856639,"1610 W 7th Ave, Mesa, AZ 85202 ",85202,0.6265546083450317,0.8489573895931244,0.5319181647381406,218900,https://www.zillow.com/homedetails/1610-W-7th-Ave-Mesa-AZ-85202/7604416_zpid/,33.4024,-111.866,6560,2017-12-17
415049,23846150,"10006 N 66TH Ave, Glendale, AZ 85302 ",85302,0.5966073572635651,0.8903934061527252,0.5312152569696815,199000,https://www.zillow.com/homedetails/10006-N-66th-Ave-Glendale-AZ-85302/7706542_zpid/,33.5765,-112.20100000000001,6544,2017-12-01
559333,23871337,"1223 W 6TH Ave, Mesa, AZ 85202 ",85202,0.613120049238205,0.8661641776561737,0.5310626232529225,199900,https://www.zillow.com/homedetails/1223-W-6th-Ave-Mesa-AZ-85202/7604271_zpid/,33.4035,-111.85799999999999,6576,2018-01-02
222394,23848564,"1010 W Campo Bello Dr, Phoenix, AZ 85023 ",85023,0.6269510984420776,0.8451889753341675,0.5298921564768904,199900,https://www.zillow.com/homedetails/1010-W-Campo-Bello-Dr-Phoenix-AZ-85023/7963596_zpid/,33.644,-112.087,6549,2017-12-06
5187848,21947200,"16030 N Lakeforest Dr, Sun City, AZ 85351 ",85351,0.6359288394451141,0.832929790019989,0.5296840747066742,239900,https://www.zillow.com/homedetails/16030-N-Lakeforest-Dr-Sun-City-AZ-85351/7923097_zpid/,33.6324,-112.272,6375,2017-06-15
9019728,23843826,"17413 N 8TH Ave, Phoenix, AZ 85023 ",85023,0.6269510984420776,0.8439600169658661,0.5291216596779442,184500,https://www.zillow.com/homedetails/17413-N-8th-Ave-Phoenix-AZ-85023/7963487_zpid/,33.6445,-112.085,6542,2017-11-29
417610,23855747,"4832 W Beryl Ave, Glendale, AZ 85302 ",85302,0.6194907426834106,0.8528978526592255,0.5283623241769497,217500,https://www.zillow.com/homedetails/4832-W-Beryl-Ave-Glendale-AZ-85302/7728604_zpid/,33.5797,-112.163,6557,2017-12-14
415297,23835189,"10114 N 66TH Ln, Glendale, AZ 85302 ",85302,0.5966073572635651,0.8856017887592316,0.5283565427795311,197500,https://www.zillow.com/homedetails/10114-N-66TH-Ln-Glendale-AZ-85302/67083300_zpid/,33.5779,-112.20299999999999,6528,2017-11-15
9030023,23905783,"8112 W Laurel Ln, Peoria, AZ 85345 ",85345,0.5683897733688354,0.9291174709796906,0.5281008687631719,243000,https://www.zillow.com/homedetails/8112-W-Laurel-Ln-Peoria-AZ-85345/7680881_zpid/,33.5932,-112.234,6580,2018-01-06
261479,23789366,"4757 W Topeka Dr, Glendale, AZ 85308 ",85308,0.6285659372806549,0.8396214246749878,0.5277574277617525,225000,https://www.zillow.com/homedetails/4757-W-Topeka-Dr-Glendale-AZ-85308/7939742_zpid/,33.6603,-112.164,6302,2017-04-03
152639,23860420,"1133 N Granite Reef Rd, Scottsdale, AZ 85257 ",85257,0.6350622177124023,0.8295944333076477,0.5268440806182184,139500,https://www.zillow.com/homedetails/1133-N-Granite-Reef-Rd-Scottsdale-AZ-85257/7577718_zpid/,33.4606,-111.9,6546,2017-12-03
9022649,23862722,"7133 W Mountain View Rd, Peoria, AZ 85345 ",85345,0.5822564363479614,0.9037232398986816,0.5261986731082402,205000,https://www.zillow.com/homedetails/7133-W-Mountain-View-Rd-Peoria-AZ-85345/7702397_zpid/,33.5743,-112.213,6576,2018-01-02
343494,23875666,"2518 S 66th Dr, Phoenix, AZ 85043 ",85043,0.5635579526424408,0.9321480393409729,0.525319440610664,194900,https://www.zillow.com/homedetails/2518-S-66th-Dr-Phoenix-AZ-85043/67773235_zpid/,33.425,-112.20200000000001,6581,2018-01-07
225855,23847348,"1461 E Renee Dr, Phoenix, AZ 85024 ",85024,0.5913906395435333,0.8877508640289307,0.5250075512333936,249000,https://www.zillow.com/homedetails/1461-E-Renee-Dr-Phoenix-AZ-85024/7996071_zpid/,33.6554,-112.05,6545,2017-12-02
493050,23849853,"5901 W Cypress St, Phoenix, AZ 85035 ",85035,0.6116310060024261,0.8577264547348022,0.5246120943843415,184500,https://www.zillow.com/homedetails/5901-W-Cypress-St-Phoenix-AZ-85035/7491471_zpid/,33.4723,-112.18700000000001,6550,2017-12-07
9026158,23863640,"3832 W Villa Theresa Dr, Glendale, AZ 85308 ",85308,0.6034711301326752,0.8685934245586395,0.5241710555442127,218000,https://www.zillow.com/homedetails/3832-W-Villa-Theresa-Dr-Glendale-AZ-85308/7948394_zpid/,33.6543,-112.14200000000001,6580,2018-01-06
332879,23849200,"5333 N 22nd Dr, Phoenix, AZ 85015 ",85015,0.6538699567317963,0.8006716370582581,0.5235351286796597,240000,https://www.zillow.com/homedetails/5333-N-22nd-Dr-Phoenix-AZ-85015/7764971_zpid/,33.5163,-112.10700000000001,6549,2017-12-06
8976262,22541368,"2918 E Nisbet Ct, Phoenix, AZ 85032 ",85032,0.6309788525104523,0.8290243148803711,0.5230968109064804,219500,https://www.zillow.com/homedetails/2918-E-Nisbet-Ct-Phoenix-AZ-85032/8011642_zpid/,33.6234,-112.01899999999999,6440,2017-08-19
8995212,23864024,"13428 N Hawthorn Dr, Sun City, AZ 85351 ",85351,0.582499086856842,0.8978874683380127,0.5230186304070941,139800,https://www.zillow.com/homedetails/13428-N-Hawthorn-Dr-Sun-City-AZ-85351/7914831_zpid/,33.6063,-112.274,6580,2018-01-06
499623,23853309,"7113 W Holly St, Phoenix, AZ 85035 ",85035,0.6004133820533752,0.8701211512088776,0.5224323831934985,135000,https://www.zillow.com/homedetails/7113-W-Holly-St-Phoenix-AZ-85035/7475387_zpid/,33.4699,-112.213,6548,2017-12-05
411351,23831053,"5194 W Paradise Dr, Glendale, AZ 85304 ",85304,0.6057048439979553,0.8610218167304993,0.5215250851815831,214900,https://www.zillow.com/homedetails/5194-W-Paradise-Dr-Glendale-AZ-85304/60978690_zpid/,33.5953,-112.171,6526,2017-11-13
434601,23841755,"1838 N 83rd Ln, Phoenix, AZ 85037 ",85037,0.5822564363479614,0.8947573602199554,0.5209782319577805,195000,https://www.zillow.com/homedetails/1838-N-83rd-Ln-Phoenix-AZ-85037/7487940_zpid/,33.4683,-112.24,6536,2017-11-23
7652,23868185,"18611 N 22ND St LOT 44, Phoenix, AZ 85024 ",85024,0.5751560926437378,0.9051693081855774,0.520613642477052,219000,https://www.zillow.com/homedetails/18611-N-22nd-St-LOT-44-Phoenix-AZ-85024/11884597_zpid/,33.6568,-112.03299999999999,6589,2018-01-15
17178,23846249,"14813 N 35TH St, Phoenix, AZ 85032 ",85032,0.6308809816837311,0.8246896862983704,0.5202810388763641,199900,https://www.zillow.com/homedetails/14813-N-35th-St-Phoenix-AZ-85032/8014278_zpid/,33.6214,-112.006,6543,2017-11-30
379528,23846192,"11438 N 30TH Ave, Phoenix, AZ 85029 ",85029,0.6437496244907379,0.8062491118907928,0.5190225630256888,235000,https://www.zillow.com/homedetails/11438-N-30th-Ave-Phoenix-AZ-85029/7739912_zpid/,33.5907,-112.124,6544,2017-12-01
9021200,23846457,"3819 N 63RD Ave, Phoenix, AZ 85033 ",85033,0.6180515885353088,0.8387302458286285,0.518378560786994,164900,https://www.zillow.com/homedetails/3819-N-63rd-Ave-Phoenix-AZ-85033/7496525_zpid/,33.4925,-112.195,6543,2017-11-30
355855,23833551,"702 E Rose Marie Ln, Phoenix, AZ 85022 ",85022,0.596187174320221,0.8690727949142456,0.518130053878501,247000,https://www.zillow.com/homedetails/702-E-Rose-Marie-Ln-Phoenix-AZ-85022/49942677_zpid/,33.6527,-112.065,6527,2017-11-14
2044933,22443059,"1446 W Bentley St, Mesa, AZ 85201 ",85201,0.6403743624687195,0.8089846968650818,0.518053059501927,220000,https://www.zillow.com/homedetails/1446-W-Bentley-St-Mesa-AZ-85201/7610672_zpid/,33.4202,-111.86200000000001,6338,2017-05-09
230832,23863481,"19209 N 6th St, Phoenix, AZ 85024 ",85024,0.5879020094871521,0.8803757429122925,0.5175746683618812,235000,https://www.zillow.com/homedetails/19209-N-6th-St-Phoenix-AZ-85024/7972480_zpid/,33.6606,-112.066,6581,2018-01-07
8989019,22747254,"2049 N 77th Gln, Phoenix, AZ 85035 ",85035,0.6050482094287872,0.8546394109725952,0.5170980453162421,168250,https://www.zillow.com/homedetails/2049-N-77th-Gln-Phoenix-AZ-85035/95149994_zpid/,33.4706,-112.226,6487,2017-10-05
524930,22304530,"9134 W Vernon Ave, Phoenix, AZ 85037 ",85037,0.605615884065628,0.8537823855876923,0.5170641742473512,249000,https://www.zillow.com/homedetails/9134-W-Vernon-Ave-Phoenix-AZ-85037/67764424_zpid/,33.473,-112.257,6401,2017-07-11
463250,23884456,"2736 W Rose Ln, Phoenix, AZ 85017 ",85017,0.5951295793056488,0.8687334656715393,0.5170089819538415,184900,https://www.zillow.com/homedetails/2736-W-Rose-Ln-Phoenix-AZ-85017/7759733_zpid/,33.5278,-112.118,6581,2018-01-07
9026770,23893524,"1518 W Marlboro Dr, Chandler, AZ 85224 ",85224,0.5618328750133514,0.9201895594596863,0.5169927457485048,237500,https://www.zillow.com/homedetails/1518-W-Marlboro-Dr-Chandler-AZ-85224/8176555_zpid/,33.3476,-111.87,6591,2018-01-17
9024048,23836145,"9411 W Glen Oaks Cir, Sun City, AZ 85351 ",85351,0.6124429702758789,0.8439913690090179,0.5168965809230883,140000,https://www.zillow.com/homedetails/9411-W-Glen-Oaks-Cir-Sun-City-AZ-85351/7922837_zpid/,33.6297,-112.26299999999999,6530,2017-11-17
1346544,23849829,"4852 W Frier Dr, Glendale, AZ 85301 ",85301,0.6141831278800964,0.8415638208389282,0.516874299793578,229900,https://www.zillow.com/homedetails/4852-W-Frier-Dr-Glendale-AZ-85301/7724567_zpid/,33.5494,-112.164,6550,2017-12-07
395130,23830853,"3719 W Joan De Arc Ave, Phoenix, AZ 85029 ",85029,0.6057048439979553,0.8533284068107605,0.5168651495263354,205900,https://www.zillow.com/homedetails/3719-W-Joan-De-Arc-Ave-Phoenix-AZ-85029/7741718_zpid/,33.607,-112.139,6526,2017-11-13
354621,23808089,"2310 E Winchcomb Dr, Phoenix, AZ 85022 ",85022,0.629242330789566,0.8213304281234741,0.516815872940807,224900,https://www.zillow.com/homedetails/2310-E-Winchcomb-Dr-Phoenix-AZ-85022/8010116_zpid/,33.6168,-112.03399999999999,6507,2017-10-25
381604,23884452,"3036 W Northview Ave, Phoenix, AZ 85051 ",85051,0.592502236366272,0.8715527951717377,0.5163969802505299,245000,https://www.zillow.com/homedetails/3036-W-Northview-Ave-Phoenix-AZ-85051/7756072_zpid/,33.5432,-112.125,6579,2018-01-05
237433,23843870,"2957 W Michelle Dr, Phoenix, AZ 85053 ",85053,0.6050482094287872,0.8531988561153412,0.5162264401792767,225000,https://www.zillow.com/homedetails/2957-W-Michelle-Dr-Phoenix-AZ-85053/7940747_zpid/,33.6492,-112.124,6542,2017-11-29
9020725,23815067,"9537 W Sunnyslope Ln, Peoria, AZ 85345 ",85345,0.6332888305187225,0.8112818598747253,0.5137757402611189,224000,https://www.zillow.com/homedetails/9537-W-Sunnyslope-Ln-Peoria-AZ-85345/7697879_zpid/,33.5693,-112.265,6512,2017-10-30
1350982,23882685,"5854 W Morten Ave, Glendale, AZ 85301 ",85301,0.6135016083717346,0.837174654006958,0.5136079967213192,179000,https://www.zillow.com/homedetails/5854-W-Morten-Ave-Glendale-AZ-85301/7726731_zpid/,33.5479,-112.186,6544,2017-12-01
391768,23866394,"3152 W Shangri La Rd, Phoenix, AZ 85029 ",85029,0.592502236366272,0.8667165637016296,0.513531502288906,229999,https://www.zillow.com/homedetails/3152-W-Shangri-La-Rd-Phoenix-AZ-85029/7740605_zpid/,33.5881,-112.12799999999999,6577,2018-01-03
441326,23862512,"3042 N 87TH Ave, Phoenix, AZ 85037 ",85037,0.5827255547046661,0.8810352385044098,0.51340174807184,199999,https://www.zillow.com/homedetails/3042-N-87th-Ave-Phoenix-AZ-85037/7479842_zpid/,33.483000000000004,-112.24700000000001,6578,2018-01-04
9023475,23827261,"12202 N Balboa Dr, Sun City, AZ 85351 ",85351,0.6147135496139526,0.8344474136829376,0.5129461316312209,159500,https://www.zillow.com/homedetails/12202-N-Balboa-Dr-Sun-City-AZ-85351/7916635_zpid/,33.5958,-112.274,6526,2017-11-13
333266,23854946,"5719 N 23rd Ave, Phoenix, AZ 85015 ",85015,0.6302351355552673,0.8132749497890472,0.5125544482240034,175000,https://www.zillow.com/homedetails/5719-N-23rd-Ave-Phoenix-AZ-85015/7763242_zpid/,33.5217,-112.10799999999999,6557,2017-12-14
426687,23866512,"4834 N 81st Dr, Phoenix, AZ 85033 ",85033,0.5657456815242767,0.9056154191493988,0.5123480125055702,174900,https://www.zillow.com/homedetails/4834-N-81st-Dr-Phoenix-AZ-85033/7482505_zpid/,33.5079,-112.235,6586,2018-01-12
440456,23867239,"8111 W College Dr, Phoenix, AZ 85033 ",85033,0.5657456815242767,0.904109388589859,0.5114959822202669,145000,https://www.zillow.com/homedetails/8111-W-College-Dr-Phoenix-AZ-85033/7482592_zpid/,33.5078,-112.234,6586,2018-01-12
1356244,23823740,"6825 N 60th Ave, Glendale, AZ 85301 ",85301,0.6380458176136017,0.8015567362308502,0.5114299231321029,182000,https://www.zillow.com/homedetails/6825-N-60th-Ave-Glendale-AZ-85301/7707716_zpid/,33.5378,-112.189,6521,2017-11-08
484005,23821708,"2696 N 73RD Gln, Phoenix, AZ 85035 ",85035,0.6050482094287872,0.8450188040733337,0.5112771143382258,210000,https://www.zillow.com/homedetails/2696-N-73rd-Gln-Phoenix-AZ-85035/95155175_zpid/,33.4779,-112.21799999999999,6513,2017-10-31
243942,23854107,"18463 N 5TH Ave, Phoenix, AZ 85023 ",85023,0.5913906395435333,0.8642601072788239,0.5111153375755864,249000,https://www.zillow.com/homedetails/18463-N-5th-Ave-Phoenix-AZ-85023/7956457_zpid/,33.6543,-112.08,6552,2017-12-09
1421999,23820040,"8134 W Mclellan Rd, Glendale, AZ 85303 ",85303,0.6346515417098999,0.8046999871730804,0.5107040874733322,222500,https://www.zillow.com/homedetails/8134-W-Mclellan-Rd-Glendale-AZ-85303/7462575_zpid/,33.5326,-112.235,6516,2017-11-03
7389079,23836128,"12207 N Sun Valley Dr, Sun City, AZ 85351 ",85351,0.6198892593383789,0.822993129491806,0.5101646014812502,209900,https://www.zillow.com/homedetails/12207-N-Sun-Valley-Dr-Sun-City-AZ-85351/7686174_zpid/,33.5952,-112.271,6530,2017-11-17
149903,23800141,"8309 E Indian School Rd, Scottsdale, AZ 85251 ",85251,0.6362569034099579,0.8013091087341309,0.5098384521973713,239850,https://www.zillow.com/homedetails/8309-E-Indian-School-Rd-Scottsdale-AZ-85251/7577019_zpid/,33.4948,-111.902,6497,2017-10-15
350131,22705127,"6405 W Preston Ln, Phoenix, AZ 85043 ",85043,0.5836600065231323,0.8723816573619843,0.5091742838265567,187000,https://www.zillow.com/homedetails/6405-W-Preston-Ln-Phoenix-AZ-85043/55257428_zpid/,33.4235,-112.198,6474,2017-09-22
416064,23818791,"4416 W Turquoise Ave, Glendale, AZ 85302 ",85302,0.6366705596446991,0.7991101741790771,0.508769921812366,249900,https://www.zillow.com/homedetails/4416-W-Turquoise-Ave-Glendale-AZ-85302/7729268_zpid/,33.5757,-112.154,6515,2017-11-02
483971,22688771,"2734 N 73rd Gln, Phoenix, AZ 85035 ",85035,0.6050482094287872,0.8407147824764252,0.5086729737776734,209900,https://www.zillow.com/homedetails/2734-N-73rd-Gln-Phoenix-AZ-85035/95167972_zpid/,33.4783,-112.21799999999999,6470,2017-09-18
386285,23856269,"3631 W Caron St, Phoenix, AZ 85051 ",85051,0.5829974412918091,0.8722144663333893,0.5084988021300667,239900,https://www.zillow.com/homedetails/3631-W-Caron-St-Phoenix-AZ-85051/7746596_zpid/,33.5684,-112.13799999999999,6558,2017-12-15
227559,23843808,"15221 N 28TH Dr, Phoenix, AZ 85053 ",85053,0.6064165532588959,0.8379455208778381,0.5081440345894688,209900,https://www.zillow.com/homedetails/15221-N-28th-Dr-Phoenix-AZ-85053/7942595_zpid/,33.6243,-112.119,6542,2017-11-29
450552,22126108,"8733 W Indianola Ave, Phoenix, AZ 85037 ",85037,0.6308341026306152,0.8053202629089355,0.5080234853824095,169900,https://www.zillow.com/homedetails/8733-W-Indianola-Ave-Phoenix-AZ-85037/7470962_zpid/,33.4911,-112.24799999999999,6325,2017-04-26
393911,23884959,"7111 N 27th Ln, Phoenix, AZ 85051 ",85051,0.6004133820533752,0.84500652551651,0.5073532258425395,225000,https://www.zillow.com/homedetails/7111-N-27th-Ln-Phoenix-AZ-85051/81986825_zpid/,33.5411,-112.118,6561,2017-12-18
832662,23884685,"4236 W Palo Verde Dr, Phoenix, AZ 85019 ",85019,0.570037454366684,0.8897298276424408,0.5071793260234054,219900,https://www.zillow.com/homedetails/4236-W-Palo-Verde-Dr-Phoenix-AZ-85019/7718989_zpid/,33.5232,-112.15100000000001,6576,2018-01-02
9023486,23827318,"9908 W Crosby Cir N, Sun City, AZ 85351 ",85351,0.6030898988246918,0.8409444987773895,0.507165132684837,140000,https://www.zillow.com/homedetails/9908-W-Crosby-Cir-N-Sun-City-AZ-85351/7694583_zpid/,33.5838,-112.273,6526,2017-11-13
389915,23884704,"3942 W Northview Ave, Phoenix, AZ 85051 ",85051,0.5737015306949615,0.8839516341686249,0.5071244055828528,209500,https://www.zillow.com/homedetails/3942-W-Northview-Ave-Phoenix-AZ-85051/7757824_zpid/,33.5444,-112.145,6573,2017-12-30
424042,23883745,"9015 N 57th Ave, Glendale, AZ 85302 ",85302,0.6085745096206665,0.8328213095664978,0.5068338200710727,205000,https://www.zillow.com/homedetails/9015-N-57th-Ave-Glendale-AZ-85302/7734719_zpid/,33.5681,-112.182,6529,2017-11-16
406363,23789864,"5213 W Evans Dr, Glendale, AZ 85306 ",85306,0.6269102692604065,0.8084293603897095,0.506812667999931,209900,https://www.zillow.com/homedetails/5213-W-Evans-Dr-Glendale-AZ-85306/8097361_zpid/,33.6172,-112.17200000000001,6303,2017-04-04
329110,23884405,"2334 W Rose Ln, Phoenix, AZ 85015 ",85015,0.6302351355552673,0.8038385510444641,0.5066072981820575,199900,https://www.zillow.com/homedetails/2334-W-Rose-Ln-Phoenix-AZ-85015/7772689_zpid/,33.5279,-112.11,6547,2017-12-04
408219,23882796,"6118 W Tierra Buena Ln, Glendale, AZ 85306 ",85306,0.5969836115837097,0.8483148217201233,0.50643004603047,199000,https://www.zillow.com/homedetails/6118-W-Tierra-Buena-Ln-Glendale-AZ-85306/8096943_zpid/,33.6295,-112.18700000000001,6529,2017-11-16
377735,23862131,"10720 N 36TH Ave, Phoenix, AZ 85029 ",85029,0.5873603820800781,0.862059623003006,0.5063396695428537,225000,https://www.zillow.com/homedetails/10720-N-36th-Ave-Phoenix-AZ-85029/7743347_zpid/,33.5838,-112.137,6576,2018-01-02
350177,22541766,"6408 W Cordes Rd, Phoenix, AZ 85043 ",85043,0.5836600065231323,0.8655922412872314,0.5052115731960782,169900,https://www.zillow.com/homedetails/6408-W-Cordes-Rd-Phoenix-AZ-85043/49641248_zpid/,33.4216,-112.197,6442,2017-08-21
8946285,22054871,"1612 W Andorra Dr, Phoenix, AZ 85029 ",85029,0.6307958960533142,0.800745278596878,0.5051068355229784,219900,https://www.zillow.com/homedetails/1612-W-Andorra-Dr-Phoenix-AZ-85029/7784242_zpid/,33.6066,-112.094,6380,2017-06-20
8990554,23839230,"3845 N 59th Ave, Phoenix, AZ 85033 ",85033,0.6141831278800964,0.82203009724617,0.5048770163382326,176000,https://www.zillow.com/homedetails/3845-N-59th-Ave-Phoenix-AZ-85033/7496809_zpid/,33.493,-112.186,6531,2017-11-18
8964694,23800320,"9084 N 80th Ln, Peoria, AZ 85345 ",85345,0.5877591669559479,0.8585982918739319,0.504649016781622,170000,https://www.zillow.com/homedetails/9084-N-80th-Ln-Peoria-AZ-85345/50187199_zpid/,33.5677,-112.23299999999999,6422,2017-08-01
22933,22734467,"8739 W Fairmount Ave, Phoenix, AZ 85037 ",85037,0.6217420697212219,0.8115878403186798,0.5045983036003125,170000,https://www.zillow.com/homedetails/8739-W-Fairmount-Ave-Phoenix-AZ-85037/7471067_zpid/,33.492,-112.24799999999999,6485,2017-10-03
834399,23856892,"3514 W Mariposa St, Phoenix, AZ 85019 ",85019,0.5693717002868652,0.885995477437973,0.5044607514353316,195000,https://www.zillow.com/homedetails/3514-W-Mariposa-St-Phoenix-AZ-85019/7506769_zpid/,33.5079,-112.135,6560,2017-12-17
234034,23855362,"18447 N 31ST Ave, Phoenix, AZ 85053 ",85053,0.5861133635044098,0.8604789078235626,0.5043381868890693,209000,https://www.zillow.com/homedetails/18447-N-31st-Ave-Phoenix-AZ-85053/7940519_zpid/,33.6544,-112.126,6551,2017-12-08
9023482,23827286,"15606 N 99th Dr, Sun City, AZ 85351 ",85351,0.6118090450763702,0.8238056600093842,0.5040117541788502,192500,https://www.zillow.com/homedetails/15606-N-99th-Dr-Sun-City-AZ-85351/2092083796_zpid/,33.6257,-112.271,6526,2017-11-13
1091759,23886133,"701 W Dublin St, Chandler, AZ 85225 ",85225,0.5612430572509766,0.89795783162117,0.5039725987015231,225000,https://www.zillow.com/homedetails/701-W-Dublin-St-Chandler-AZ-85225/8189377_zpid/,33.3186,-111.853,6588,2018-01-14
379293,23843863,"2626 W Northview Ave, Phoenix, AZ 85051 ",85051,0.6138327121734619,0.8208301663398743,0.5038524072381989,134900,https://www.zillow.com/homedetails/2626-W-Northview-Ave-Phoenix-AZ-85051/7779482_zpid/,33.5439,-112.116,6542,2017-11-29
1092802,23820224,"731 W Palomino Dr, Chandler, AZ 85225 ",85225,0.6018568575382233,0.8370780646800995,0.5038011735225423,245900,https://www.zillow.com/homedetails/731-W-Palomino-Dr-Chandler-AZ-85225/8177603_zpid/,33.3404,-111.855,6516,2017-11-03
410898,23823665,"5031 W Windrose Dr, Glendale, AZ 85304 ",85304,0.6057048439979553,0.8311814069747925,0.5034506044456677,229000,https://www.zillow.com/homedetails/5031-W-Windrose-Dr-Glendale-AZ-85304/7954728_zpid/,33.6006,-112.167,6521,2017-11-08
395883,23835126,"3830 W Sharon Ave, Phoenix, AZ 85029 ",85029,0.5880170166492462,0.8537149429321289,0.5019989138118319,179900,https://www.zillow.com/homedetails/3830-W-Sharon-Ave-Phoenix-AZ-85029/7741516_zpid/,33.6095,-112.14200000000001,6530,2017-11-17
9012841,23819608,"8121 W Hatcher Rd, Peoria, AZ 85345 ",85345,0.5930797755718231,0.844744861125946,0.501001092652027,239000,https://www.zillow.com/homedetails/8121-W-Hatcher-Rd-Peoria-AZ-85345/7682649_zpid/,33.57,-112.234,6515,2017-11-02
8991893,23837557,"9352 W Jefferson St, Tolleson, AZ 85353 ",85353,0.5829752087593079,0.858624130487442,0.5005565817166957,229900,https://www.zillow.com/homedetails/9352-W-Jefferson-St-Tolleson-AZ-85353/7460100_zpid/,33.4464,-112.26100000000001,6533,2017-11-20
337615,23862924,"2310 W Echo Ln, Phoenix, AZ 85021 ",85021,0.5873603820800781,0.8510754108428955,0.49988797849164257,190000,https://www.zillow.com/homedetails/2310-W-Echo-Ln-Phoenix-AZ-85021/7782737_zpid/,33.5598,-112.109,6558,2017-12-15
411581,22708161,"5226 W Eugie Ave, Glendale, AZ 85304 ",85304,0.6010774970054626,0.8310762941837311,0.4995412587285326,220000,https://www.zillow.com/homedetails/5226-W-Eugie-Ave-Glendale-AZ-85304/7911821_zpid/,33.608000000000004,-112.17200000000001,6473,2017-09-21
242869,23862343,"18216 N 24TH Dr, Phoenix, AZ 85023 ",85023,0.5956080257892609,0.838283896446228,0.49928861661326707,197899,https://www.zillow.com/homedetails/18216-N-24th-Dr-Phoenix-AZ-85023/7957934_zpid/,33.6523,-112.111,6576,2018-01-02
402127,23814880,"14638 N 62nd Ave, Glendale, AZ 85306 ",85306,0.6108377873897552,0.8172537386417389,0.4992094654479251,230000,https://www.zillow.com/homedetails/14638-N-62nd-Ave-Glendale-AZ-85306/8098778_zpid/,33.6177,-112.191,6512,2017-10-30
7381600,22218425,"4317 N 72nd Dr, Phoenix, AZ 85033 ",85033,0.6360551118850708,0.784212589263916,0.4988024262059412,190000,https://www.zillow.com/homedetails/4317-N-72nd-Dr-Phoenix-AZ-85033/7711467_zpid/,33.4989,-112.214,6377,2017-06-17
9025999,23861141,"9232 W Meadow Hills Dr, Sun City, AZ 85351 ",85351,0.6084822118282318,0.8196375370025635,0.498734861412764,241800,https://www.zillow.com/homedetails/9232-W-Meadow-Hills-Dr-Sun-City-AZ-85351/2091823839_zpid/,33.6111,-112.259,6553,2017-12-10
7449241,23819586,"11935 N 68th Ave, Peoria, AZ 85345 ",85345,0.5920561254024506,0.8420155048370361,0.498520437322604,245000,https://www.zillow.com/homedetails/11935-N-68th-Ave-Peoria-AZ-85345/7700139_zpid/,33.594,-112.204,6516,2017-11-03
501068,23853288,"7426 W Monte Vista Rd, Phoenix, AZ 85035 ",85035,0.5827255547046661,0.855178564786911,0.498334403536993,155000,https://www.zillow.com/homedetails/7426-W-Monte-Vista-Rd-Phoenix-AZ-85035/7474922_zpid/,33.471,-112.22,6528,2017-11-15
828507,23855608,"3542 W Rovey Ave, Phoenix, AZ 85019 ",85019,0.5848308801651001,0.8520978093147278,0.4983331118082859,235000,https://www.zillow.com/homedetails/3542-W-Rovey-Ave-Phoenix-AZ-85019/7759119_zpid/,33.5255,-112.13600000000001,6547,2017-12-04
1090009,23867209,"615 W Dublin St, Chandler, AZ 85225 ",85225,0.5551548600196838,0.8972316086292267,0.4981024880937941,247000,https://www.zillow.com/homedetails/615-W-Dublin-St-Chandler-AZ-85225/8189370_zpid/,33.3189,-111.851,6586,2018-01-12
1405541,23883136,"6702 N 82ND Dr, Glendale, AZ 85303 ",85303,0.5506561100482941,0.9041765034198761,0.49789031617025703,229900,https://www.zillow.com/homedetails/6702-N-82ND-Dr-Glendale-AZ-85303/7462533_zpid/,33.5329,-112.23700000000001,6585,2018-01-11
9025718,23861001,"2944 W Villa Theresa Dr, Phoenix, AZ 85053 ",85053,0.5861133635044098,0.8494018018245697,0.49784574703410467,210000,https://www.zillow.com/homedetails/2944-W-Villa-Theresa-Dr-Phoenix-AZ-85053/7940561_zpid/,33.6541,-112.12299999999999,6573,2017-12-30
416186,23888950,"4431 W Mission Ln, Glendale, AZ 85302 ",85302,0.5591853559017181,0.8898962736129761,0.49761696447588477,182500,https://www.zillow.com/homedetails/4431-W-Mission-Ln-Glendale-AZ-85302/7729651_zpid/,33.5689,-112.156,6588,2018-01-14
496469,22536294,"6526 W Holly St, Phoenix, AZ 85035 ",85035,0.6202718913555145,0.8010130524635315,0.49684588105200866,169499,https://www.zillow.com/homedetails/6526-W-Holly-St-Phoenix-AZ-85035/7490333_zpid/,33.471,-112.20100000000001,6408,2017-07-18
9018704,22731861,"13229 N 99th Dr, Sun City, AZ 85351 ",85351,0.6078929901123047,0.8172872066497803,0.496823163830868,152500,https://www.zillow.com/homedetails/13229-N-99th-Dr-Sun-City-AZ-85351/7914996_zpid/,33.6055,-112.27,6481,2017-09-29
388700,23829780,"2353 W Cortez St, Phoenix, AZ 85029 ",85029,0.6273646652698517,0.7912060916423798,0.4963747448426892,173500,https://www.zillow.com/homedetails/2353-W-Cortez-St-Phoenix-AZ-85029/7749270_zpid/,33.5905,-112.11,6523,2017-11-10
9023655,23829023,"14631 N 36th St, Phoenix, AZ 85032 ",85032,0.6308809816837311,0.7856859564781189,0.49567432751803686,214000,https://www.zillow.com/homedetails/14631-N-36th-St-Phoenix-AZ-85032/8013016_zpid/,33.6203,-112.00399999999999,6525,2017-11-12
436099,23864351,"8017 W Pinchot Ave, Phoenix, AZ 85033 ",85033,0.5583581030368805,0.8869049847126007,0.4952105848380812,149400,https://www.zillow.com/homedetails/8017-W-Pinchot-Ave-Phoenix-AZ-85033/7479545_zpid/,33.4824,-112.23200000000001,6581,2018-01-07
9026278,23865568,"8630 W El Caminito Dr, Peoria, AZ 85345 ",85345,0.5381719470024109,0.9199688732624054,0.4951014397052429,199999,https://www.zillow.com/homedetails/8630-W-El-Caminito-Dr-Peoria-AZ-85345/50187525_zpid/,33.5576,-112.24600000000001,6585,2018-01-11
9024757,23848700,"3126 N 43RD Ave, Phoenix, AZ 85031 ",85031,0.570037454366684,0.8679328858852386,0.49475425283115104,175000,https://www.zillow.com/homedetails/3126-N-43rd-Ave-Phoenix-AZ-85031/7509773_zpid/,33.4851,-112.152,6547,2017-12-04
453411,23853062,"4450 N 50TH Ave, Phoenix, AZ 85031 ",85031,0.6267890334129333,0.788925975561142,0.49449014965632365,149800,https://www.zillow.com/homedetails/4450-N-50th-Ave-Phoenix-AZ-85031/7720779_zpid/,33.501999999999995,-112.167,6533,2017-11-20
9023645,23828731,"7328 W Heatherbrae Dr, Phoenix, AZ 85033 ",85033,0.620349258184433,0.7951342463493347,0.493260939879848,174900,https://www.zillow.com/homedetails/7328-W-Heatherbrae-Dr-Phoenix-AZ-85033/7711026_zpid/,33.4977,-112.21700000000001,6519,2017-11-06
9026261,23865254,"2153 W Joan De Arc Ave, Phoenix, AZ 85029 ",85029,0.5649704039096832,0.872983992099762,0.49321011862329023,195000,https://www.zillow.com/homedetails/2153-W-Joan-De-Arc-Ave-Phoenix-AZ-85029/7749859_zpid/,33.6072,-112.10600000000001,6585,2018-01-11
336868,23820918,"2122 W Glendale Ave, Phoenix, AZ 85021 ",85021,0.6441803872585297,0.7653783559799194,0.4930417257544413,208400,https://www.zillow.com/homedetails/2122-W-Glendale-Ave-Phoenix-AZ-85021/7778952_zpid/,33.5389,-112.105,6516,2017-11-03
9021086,23815044,"8137 W Aster Dr, Peoria, AZ 85381 ",85381,0.6050745844841003,0.8145999610424042,0.49289373294849703,239000,https://www.zillow.com/homedetails/8137-W-Aster-Dr-Peoria-AZ-85381/8100990_zpid/,33.6013,-112.235,6512,2017-10-30
400713,23840251,"10843 N 45TH Ln, Glendale, AZ 85304 ",85304,0.5833896696567535,0.8439729809761047,0.4923651185708753,220000,https://www.zillow.com/homedetails/10843-N-45th-Ln-Glendale-AZ-85304/7727914_zpid/,33.5861,-112.156,6534,2017-11-21
422357,23883112,"6612 W Brown St, Glendale, AZ 85302 ",85302,0.5966073572635651,0.8240858614444733,0.49165568795465564,199000,https://www.zillow.com/homedetails/6612-W-Brown-St-Glendale-AZ-85302/7706362_zpid/,33.5783,-112.20100000000001,6496,2017-10-14
472964,23884783,"5737 N 35th Ave, Phoenix, AZ 85017 ",85017,0.578919529914856,0.8481729030609131,0.4910238583265425,169500,https://www.zillow.com/homedetails/5737-N-35th-Ave-Phoenix-AZ-85017/7762448_zpid/,33.5218,-112.134,6555,2017-12-12
1356715,23883331,"7327 N 47th Ave, Glendale, AZ 85301 ",85301,0.6226733922958374,0.7880753874778748,0.4907135749057048,189500,https://www.zillow.com/homedetails/7327-N-47th-Ave-Glendale-AZ-85301/7725576_zpid/,33.545,-112.16,6523,2017-11-10
405641,23865434,"4810 W Paradise Ln, Glendale, AZ 85306 ",85306,0.5507780909538269,0.89061039686203,0.49052869416729905,230000,https://www.zillow.com/homedetails/4810-W-Paradise-Ln-Glendale-AZ-85306/7951146_zpid/,33.6326,-112.162,6586,2018-01-12
397286,23862957,"8437 N 36th Ave, Phoenix, AZ 85051 ",85051,0.577838271856308,0.8484987318515778,0.49029504088538456,187000,https://www.zillow.com/homedetails/8437-N-36th-Ave-Phoenix-AZ-85051/7754435_zpid/,33.5599,-112.137,6550,2017-12-07
392666,23759961,"4208 W El Camino Dr, Phoenix, AZ 85051 ",85051,0.6223930418491364,0.7877525389194489,0.49029169892245594,215000,https://www.zillow.com/homedetails/4208-W-El-Camino-Dr-Phoenix-AZ-85051/7752812_zpid/,33.5573,-112.15,6503,2017-10-21
233458,23864530,"18230 N 33RD Ave, Phoenix, AZ 85053 ",85053,0.5596734881401062,0.8756641745567322,0.49008602301349313,179900,https://www.zillow.com/homedetails/18230-N-33rd-Ave-Phoenix-AZ-85053/7941211_zpid/,33.652,-112.13,6584,2018-01-10
8991642,23869584,"9253 W Gold Dust Ave, Peoria, AZ 85345 ",85345,0.5377205163240433,0.9111317992210388,0.4899342615163915,215000,https://www.zillow.com/homedetails/9253-W-Gold-Dust-Ave-Peoria-AZ-85345/7697589_zpid/,33.5765,-112.26,6589,2018-01-15
389970,22302502,"2910 W Altadena Ave, Phoenix, AZ 85029 ",85029,0.6309788525104523,0.7763815224170685,0.48988032212503985,220000,https://www.zillow.com/homedetails/2910-W-Altadena-Ave-Phoenix-AZ-85029/7739875_zpid/,33.5927,-112.12200000000001,6401,2017-07-11
451186,23869054,"3607 N 51ST Ave, Phoenix, AZ 85031 ",85031,0.5459617376327515,0.8971937596797943,0.48983346402804173,174900,https://www.zillow.com/homedetails/3607-N-51st-Ave-Phoenix-AZ-85031/7508531_zpid/,33.4904,-112.169,6585,2018-01-11
409622,23825573,"4447 W Mercer Ln, Glendale, AZ 85304 ",85304,0.5833896696567535,0.8391641676425934,0.4895597065487971,227000,https://www.zillow.com/homedetails/4447-W-Mercer-Ln-Glendale-AZ-85304/7727953_zpid/,33.5852,-112.156,6526,2017-11-13
246567,22745687,"3407 W Port Au Prince Ln, Phoenix, AZ 85053 ",85053,0.6140288412570953,0.7964684069156647,0.4890545729963103,175000,https://www.zillow.com/homedetails/3407-W-Port-Au-Prince-Ln-Phoenix-AZ-85053/7943671_zpid/,33.6229,-112.132,6491,2017-10-09
8947845,23865596,"8909 W Echo Ln, Peoria, AZ 85345 ",85345,0.547294557094574,0.8931847810745239,0.4888351691617956,220000,https://www.zillow.com/homedetails/8909-W-Echo-Ln-Peoria-AZ-85345/7683180_zpid/,33.5583,-112.251,6585,2018-01-11
247778,23865817,"2831 W GROVERS Ave Phoenix, AZ 85053",85053,0.5554896593093872,0.8799990713596344,0.48883038434214043,219900,https://www.redfin.com/AZ/Phoenix/2831-W-Grovers-Ave-85053/home/26864793,33.6178,-112.133,6587,2018-01-13
394310,23786762,"3560 W Wood Dr, Phoenix, AZ 85029 ",85029,0.6230082213878632,0.7845860123634338,0.48880353608833893,230000,https://www.zillow.com/homedetails/3560-W-Wood-Dr-Phoenix-AZ-85029/7741612_zpid/,33.6044,-112.137,6308,2017-04-09
8998472,23817219,"6708 W Highland Ave, Phoenix, AZ 85033 ",85033,0.6227676868438721,0.7839222550392151,0.4882014494362039,168500,https://www.zillow.com/homedetails/6708-W-Highland-Ave-Phoenix-AZ-85033/7716706_zpid/,33.5065,-112.204,6514,2017-11-01
17711,23887053,"5008 W Wikieup Ln, Glendale, AZ 85308 ",85308,0.5424049198627472,0.8996537625789642,0.4879766269958621,229000,https://www.zillow.com/homedetails/5008-W-Wikieup-Ln-Glendale-AZ-85308/7938109_zpid/,33.6638,-112.16799999999999,6585,2018-01-11
503053,23856891,"2823 W Marshall Ave, Phoenix, AZ 85017 ",85017,0.5873603820800781,0.8307285904884338,0.48793706231413125,175000,https://www.zillow.com/homedetails/2823-W-Marshall-Ave-Phoenix-AZ-85017/7763994_zpid/,33.5174,-112.12,6561,2017-12-18
384323,23864506,"1344 W Joan De Arc Ave, Phoenix, AZ 85029 ",85029,0.5607055127620697,0.8697618544101715,0.48768026655794383,210000,https://www.zillow.com/homedetails/1344-W-Joan-De-Arc-Ave-Phoenix-AZ-85029/7784468_zpid/,33.6078,-112.089,6584,2018-01-10
9029877,23905155,"9507 W Sunnyslope Ln, Peoria, AZ 85345 ",85345,0.5377205163240433,0.9053926467895508,0.4868482015076694,199980,https://www.zillow.com/homedetails/9507-W-Sunnyslope-Ln-Peoria-AZ-85345/7697884_zpid/,33.5693,-112.264,6584,2018-01-10
390477,23864565,"3018 W Lupine Ave, Phoenix, AZ 85029 ",85029,0.5792603492736816,0.8398836851119995,0.4865113167872437,230000,https://www.zillow.com/homedetails/3018-W-Lupine-Ave-Phoenix-AZ-85029/7739937_zpid/,33.5913,-112.124,6584,2018-01-10
435667,22734446,"7942 W Verde Ln, Phoenix, AZ 85033 ",85033,0.5873603820800781,0.8274429142475128,0.48600718626187245,175000,https://www.zillow.com/homedetails/7942-W-Verde-Ln-Phoenix-AZ-85033/7479526_zpid/,33.4815,-112.23100000000001,6484,2017-10-02
379541,23831369,"11439 N 33rd Ave, Phoenix, AZ 85029 ",85029,0.6127488315105438,0.7931261658668518,0.4859871313753512,214900,https://www.zillow.com/homedetails/11439-N-33rd-Ave-Phoenix-AZ-85029/7749169_zpid/,33.5913,-112.13,6523,2017-11-10
534315,23853548,"1914 W Granada Rd, Phoenix, AZ 85009 ",85009,0.6034010052680969,0.8048719167709351,0.48566052369164225,189000,https://www.zillow.com/homedetails/1914-W-Granada-Rd-Phoenix-AZ-85009/7519853_zpid/,33.4686,-112.101,6549,2017-12-06
232395,23858251,"19615 N 6th Pl, Phoenix, AZ 85024 ",85024,0.5916160941123962,0.8203456103801727,0.4853296658353674,179990,https://www.zillow.com/homedetails/19615-N-6th-Pl-Phoenix-AZ-85024/7967758_zpid/,33.6645,-112.066,6553,2017-12-10
477931,23837214,"1802 N 66TH Ave, Phoenix, AZ 85035 ",85035,0.5880626738071442,0.8248259723186493,0.4850493667072824,150000,https://www.zillow.com/homedetails/1802-N-66th-Ave-Phoenix-AZ-85035/7490498_zpid/,33.4678,-112.20200000000001,6531,2017-11-18
384614,23864029,"13636 N 18TH Dr, Phoenix, AZ 85029 ",85029,0.5686063766479492,0.8528134822845459,0.4849151841183357,189500,https://www.zillow.com/homedetails/13636-N-18th-Dr-Phoenix-AZ-85029/7784603_zpid/,33.6108,-112.09899999999999,6583,2018-01-09
329291,23884491,"2402 W Stella Ln, Phoenix, AZ 85015 ",85015,0.5744930505752563,0.8436876833438873,0.4846927109370007,174900,https://www.zillow.com/homedetails/2402-W-Stella-Ln-Phoenix-AZ-85015/7772787_zpid/,33.5308,-112.11,6589,2018-01-15
410256,23810938,"4730 W Shaw Butte Dr, Glendale, AZ 85304 ",85304,0.5931499600410461,0.8170132339000702,0.4846113670408325,240000,https://www.zillow.com/homedetails/4730-W-Shaw-Butte-Dr-Glendale-AZ-85304/7727507_zpid/,33.5952,-112.161,6509,2017-10-27
8992552,23882752,"6029 W Mary Jane Ln, Glendale, AZ 85306 ",85306,0.6189248263835907,0.7829451560974121,0.4845841948054641,239000,https://www.zillow.com/homedetails/6029-W-Mary-Jane-Ln-Glendale-AZ-85306/8097193_zpid/,33.6273,-112.189,6493,2017-10-11
329963,23867145,"3418 N 23RD Ave, Phoenix, AZ 85015 ",85015,0.5668649077415466,0.8536726534366608,0.483917069931854,245000,https://www.zillow.com/homedetails/3418-N-23RD-Ave-Phoenix-AZ-85015/7517398_zpid/,33.4885,-112.109,6588,2018-01-14
398944,22432872,"9409 N 36th Dr, Phoenix, AZ 85051 ",85051,0.5873603820800781,0.8226835429668427,0.48321172012799707,215000,https://www.zillow.com/homedetails/9409-N-36th-Dr-Phoenix-AZ-85051/7746677_zpid/,33.5717,-112.137,6330,2017-05-01
8977566,23865226,"2018 W Bloomfield Rd, Phoenix, AZ 85029 ",85029,0.5822479724884033,0.8292679786682129,0.48283959922912345,206000,https://www.zillow.com/homedetails/2018-W-Bloomfield-Rd-Phoenix-AZ-85029/7739154_zpid/,33.5987,-112.102,6585,2018-01-11
9023033,23823351,"437 E Wescott Dr, Phoenix, AZ 85024 ",85024,0.5916160941123962,0.8160733878612518,0.4828021502355444,225000,https://www.zillow.com/homedetails/437-E-Wescott-Dr-Phoenix-AZ-85024/2092120604_zpid/,33.6585,-112.068,6521,2017-11-08
9022111,23817234,"7629 N 44th Dr, Glendale, AZ 85301 ",85301,0.6313390135765076,0.7640224099159241,0.4823571546266656,195000,https://www.zillow.com/homedetails/7629-N-44th-Dr-Glendale-AZ-85301/7725279_zpid/,33.5492,-112.155,6514,2017-11-01
383781,22501929,"3339 W Malapai Dr, Phoenix, AZ 85051 ",85051,0.592502236366272,0.8138400316238403,0.4822020387815229,244900,https://www.zillow.com/homedetails/3339-W-Malapai-Dr-Phoenix-AZ-85051/7739353_zpid/,33.5756,-112.131,6433,2017-08-12
9021585,23824122,"12612 N 79TH Ave, Peoria, AZ 85381 ",85381,0.5824130177497864,0.827349454164505,0.4818590923335879,225000,https://www.zillow.com/homedetails/12612-N-79th-Ave-Peoria-AZ-85381/8101178_zpid/,33.5997,-112.229,6522,2017-11-09
392265,23884716,"4144 W Northview Ave, Phoenix, AZ 85051 ",85051,0.5420685410499573,0.8885141611099243,0.48163557501508336,200000,https://www.zillow.com/homedetails/4144-W-Northview-Ave-Phoenix-AZ-85051/7756481_zpid/,33.5444,-112.149,6586,2018-01-12
337751,23867585,"14407 N 23RD St, Phoenix, AZ 85022 ",85022,0.5367263406515121,0.8969361484050751,0.4814092567315176,219000,https://www.zillow.com/homedetails/14407-N-23rd-St-Phoenix-AZ-85022/8010507_zpid/,33.618,-112.03399999999999,6590,2018-01-16
1410681,23883266,"7115 N 77TH Ave, Glendale, AZ 85303 ",85303,0.5403330326080322,0.8892139494419098,0.48047166993931256,165000,https://www.zillow.com/homedetails/7115-N-77TH-Ave-Glendale-AZ-85303/7684823_zpid/,33.54,-112.22399999999999,6586,2018-01-12
388525,23864545,"2330 W Columbine Dr, Phoenix, AZ 85029 ",85029,0.5502204895019531,0.8726894557476044,0.48017161952463994,199900,https://www.zillow.com/homedetails/2330-W-Columbine-Dr-Phoenix-AZ-85029/7738746_zpid/,33.5996,-112.109,6584,2018-01-10
7977745,23866230,"19033 N 45TH Dr, Glendale, AZ 85308 ",85308,0.543352335691452,0.8825952708721161,0.47956020189859405,159000,https://www.zillow.com/homedetails/19033-N-45th-Dr-Glendale-AZ-85308/7939041_zpid/,33.6593,-112.15799999999999,6583,2018-01-09
450692,23753402,"8742 W Edgemont Ave, Phoenix, AZ 85037 ",85037,0.6004133820533752,0.7982215285301208,0.4792628875725846,190000,https://www.zillow.com/homedetails/8742-W-Edgemont-Ave-Phoenix-AZ-85037/7473770_zpid/,33.4794,-112.249,6494,2017-10-12
337572,23850351,"2307 W Alice Ave, Phoenix, AZ 85021 ",85021,0.577838271856308,0.8279488682746887,0.4784205432292321,211900,https://www.zillow.com/homedetails/2307-W-Alice-Ave-Phoenix-AZ-85021/7782260_zpid/,33.5637,-112.109,6551,2017-12-08
830701,23830958,"3833 W Ocotillo Rd, Phoenix, AZ 85019 ",85019,0.5792618989944458,0.8252072632312775,0.4780111263633593,199900,https://www.zillow.com/homedetails/3833-W-Ocotillo-Rd-Phoenix-AZ-85019/7758511_zpid/,33.5346,-112.14200000000001,6525,2017-11-12
400185,22494552,"10610 N 46th Ave, Glendale, AZ 85304 ",85304,0.5885837376117706,0.8118998110294342,0.47787102534199466,234900,https://www.zillow.com/homedetails/10610-N-46th-Ave-Glendale-AZ-85304/7727627_zpid/,33.5824,-112.15700000000001,6428,2017-08-07
522482,23866699,"9013 W Virginia Ave, Phoenix, AZ 85037 ",85037,0.5191366672515869,0.9188081324100494,0.47698699170300785,174900,https://www.zillow.com/homedetails/9013-W-Virginia-Ave-Phoenix-AZ-85037/7473884_zpid/,33.4743,-112.25399999999999,6583,2018-01-09
407925,23791005,"6023 W Redfield Rd, Glendale, AZ 85306 ",85306,0.5880170166492462,0.8109003305435181,0.4768231931660871,179900,https://www.zillow.com/homedetails/6023-W-Redfield-Rd-Glendale-AZ-85306/7910719_zpid/,33.6135,-112.18799999999999,6309,2017-04-10
421990,23791113,"6451 W Sunnyslope Ln, Glendale, AZ 85302 ",85302,0.6224401295185089,0.7642980813980103,0.47572979677612537,219900,https://www.zillow.com/homedetails/6451-W-Sunnyslope-Ln-Glendale-AZ-85302/7703523_zpid/,33.5702,-112.199,6305,2017-04-06
259461,23881240,"19660 N 48TH Ln, Glendale, AZ 85308 ",85308,0.5396609604358673,0.8804290592670441,0.47513319171970014,215000,https://www.zillow.com/homedetails/19660-N-48TH-Ln-Glendale-AZ-85308/7937777_zpid/,33.6639,-112.165,6584,2018-01-10
9004345,23865832,"6818 W Highland Ave, Phoenix, AZ 85033 ",85033,0.5382995903491974,0.8822642862796783,0.47492250388407786,179500,https://www.zillow.com/homedetails/6818-W-Highland-Ave-Phoenix-AZ-85033/7716694_zpid/,33.5063,-112.206,6586,2018-01-12
420581,23882618,"5810 W Alice Ave, Glendale, AZ 85302 ",85302,0.5143406093120575,0.9233035147190094,0.47489249234053954,234500,https://www.zillow.com/homedetails/5810-W-Alice-Ave-Glendale-AZ-85302/7733216_zpid/,33.5645,-112.185,6590,2018-01-16
9020198,23867892,"17950 N 88th Ave, Peoria, AZ 85382 ",85382,0.5157891064882278,0.9192664325237274,0.47414761185603416,249000,https://www.zillow.com/homedetails/17950-N-88th-Ave-Peoria-AZ-85382/7898435_zpid/,33.6467,-112.24799999999999,6590,2018-01-16
257719,23869968,"919 W Anderson Dr, Phoenix, AZ 85023 ",85023,0.5359507501125336,0.8841038942337036,0.4738361452919655,155000,https://www.zillow.com/homedetails/919-W-Anderson-Dr-Phoenix-AZ-85023/7963528_zpid/,33.6429,-112.086,6591,2018-01-17
834633,23845436,"3526 W Ocotillo Rd, Phoenix, AZ 85019 ",85019,0.5737015306949615,0.8258303701877594,0.4737801474711043,220000,https://www.zillow.com/homedetails/3526-W-Ocotillo-Rd-Phoenix-AZ-85019/7761449_zpid/,33.535,-112.13600000000001,6537,2017-11-24
9018879,23808777,"4021 W Roosevelt St, Phoenix, AZ 85009 ",85009,0.5829752087593079,0.8126304745674133,0.4737434205551132,179990,https://www.zillow.com/homedetails/4021-W-Roosevelt-St-Phoenix-AZ-85009/2092569655_zpid/,33.4585,-112.147,6508,2017-10-26
330099,22738563,"3820 N 23rd Ave, Phoenix, AZ 85015 ",85015,0.6212880313396454,0.7620824873447418,0.47347272828083486,245000,https://www.zillow.com/homedetails/3820-N-23rd-Ave-Phoenix-AZ-85015/7516043_zpid/,33.4921,-112.10799999999999,6487,2017-10-05
8996162,23865480,"8420 W Butler Dr, Peoria, AZ 85345 ",85345,0.5247006267309189,0.901519775390625,0.47302799115777816,219900,https://www.zillow.com/homedetails/8420-W-Butler-Dr-Peoria-AZ-85345/7683722_zpid/,33.5593,-112.241,6586,2018-01-12
9022258,23835030,"3023 W Krall St, Phoenix, AZ 85017 ",85017,0.5782559812068939,0.8179073631763458,0.4729598248298812,249900,https://www.zillow.com/homedetails/3023-W-Krall-St-Phoenix-AZ-85017/7759497_zpid/,33.534,-112.125,6530,2017-11-17
326266,22680508,"1747 W Colter St, Phoenix, AZ 85015 ",85015,0.6539570689201355,0.7228356003761292,0.4727034505330998,249900,https://www.zillow.com/homedetails/1747-W-Colter-St-Phoenix-AZ-85015/7775943_zpid/,33.5127,-112.098,6466,2017-09-14
329473,23888921,"2430 W Luke Ave, Phoenix, AZ 85015 ",85015,0.6196828782558441,0.7627723813056946,0.47267698470157704,140000,https://www.zillow.com/homedetails/2430-W-Luke-Ave-Phoenix-AZ-85015/7763699_zpid/,33.5189,-112.11200000000001,6563,2017-12-20
9012224,23885680,"9301 W Glen Oaks Cir N, Sun City, AZ 85351 ",85351,0.5364235639572144,0.8811314404010773,0.4726596675746997,244900,https://www.zillow.com/homedetails/9301-W-Glen-Oaks-Cir-N-Sun-City-AZ-85351/7923234_zpid/,33.6338,-112.26,6583,2018-01-09
483351,23877718,"2627 N 59th Ln, Phoenix, AZ 85035 ",85035,0.5253495573997498,0.8991976678371429,0.47239309681313024,154000,https://www.zillow.com/homedetails/2627-N-59th-Ln-Phoenix-AZ-85035/7491738_zpid/,33.4778,-112.18799999999999,6591,2018-01-17
556266,23783983,"2325 N 28th Pl, Phoenix, AZ 85008 ",85008,0.5873603820800781,0.8041343092918396,0.4723166351493546,144000,https://www.zillow.com/homedetails/2325-N-28th-Pl-Phoenix-AZ-85008/7542977_zpid/,33.4742,-112.02,6305,2017-04-06
258476,23717515,"614 W Rosemonte Dr, Phoenix, AZ 85027 ",85027,0.5968933701515198,0.790682315826416,0.4719530322128378,234900,https://www.zillow.com/homedetails/614-W-Rosemonte-Dr-Phoenix-AZ-85027/7968459_zpid/,33.657,-112.08200000000001,6494,2017-10-12
502071,22116293,"3625 N 48th Ave, Phoenix, AZ 85031 ",85031,0.6164149641990662,0.7648547887802124,0.47146793724343894,158000,https://www.zillow.com/homedetails/3625-N-48th-Ave-Phoenix-AZ-85031/7508647_zpid/,33.4911,-112.163,6338,2017-05-09
455626,23813601,"4732 N 54th Dr, Phoenix, AZ 85031 ",85031,0.6135016083717346,0.7682472765445709,0.47132093978729905,169000,https://www.zillow.com/homedetails/4732-N-54th-Dr-Phoenix-AZ-85031/7713824_zpid/,33.5068,-112.177,6509,2017-10-27
9019399,23864514,"15032 N 26th St, Phoenix, AZ 85032 ",85032,0.5513608455657959,0.8543046116828918,0.47103011306823817,238000,https://www.zillow.com/homedetails/15032-N-26th-St-Phoenix-AZ-85032/8013907_zpid/,33.6237,-112.027,6584,2018-01-10
328960,22284604,"2322 W Cheery Lynn Rd, Phoenix, AZ 85015 ",85015,0.6278275847434998,0.7495056390762329,0.47056031513286456,249900,https://www.zillow.com/homedetails/2322-W-Cheery-Lynn-Rd-Phoenix-AZ-85015/7517610_zpid/,33.4857,-112.109,6398,2017-07-08
7546896,22096492,"6102 W Mulberry Dr, Phoenix, AZ 85033 ",85033,0.6227676868438721,0.7549593150615692,0.4701642663021275,165000,https://www.zillow.com/homedetails/6102-W-Mulberry-Dr-Phoenix-AZ-85033/7498385_zpid/,33.4872,-112.19200000000001,6321,2017-04-22
8962279,23869441,"3802 N 63rd Dr, Phoenix, AZ 85033 ",85033,0.533268928527832,0.8811385333538055,0.46988380156616927,160000,https://www.zillow.com/homedetails/3802-N-63rd-Dr-Phoenix-AZ-85033/2142041157_zpid/,33.491,-112.196,6584,2018-01-10
9013905,22694429,"2418 E Dahlia Dr, Phoenix, AZ 85032 ",85032,0.6164894700050354,0.7617625892162323,0.46961861489557855,225000,https://www.zillow.com/homedetails/2418-E-Dahlia-Dr-Phoenix-AZ-85032/7820474_zpid/,33.6034,-112.03,6470,2017-09-18
1346962,23823701,"4935 W Lamar Rd, Glendale, AZ 85301 ",85301,0.6267890334129333,0.7489897310733795,0.46945854957569644,149900,https://www.zillow.com/homedetails/4935-W-Lamar-Rd-Glendale-AZ-85301/7722382_zpid/,33.5365,-112.166,6520,2017-11-07
402356,23882339,"11811 N 51ST Dr, Glendale, AZ 85304 ",85304,0.5230199694633484,0.8957756757736206,0.4685085665891293,189500,https://www.zillow.com/homedetails/11811-N-51ST-Dr-Glendale-AZ-85304/60978616_zpid/,33.5933,-112.169,6583,2018-01-09
393008,23866403,"3333 W Columbine Dr, Phoenix, AZ 85029 ",85029,0.5329749584197998,0.8788942694664001,0.46842863672425494,169900,https://www.zillow.com/homedetails/3333-W-Columbine-Dr-Phoenix-AZ-85029/7747780_zpid/,33.5991,-112.131,6588,2018-01-14
394581,23831766,"3626 W Rue De Lamour Ave, Phoenix, AZ 85029 ",85029,0.6004111468791962,0.7801211178302765,0.46839341506115684,199900,https://www.zillow.com/homedetails/3626-W-Rue-De-Lamour-Ave-Phoenix-AZ-85029/7741437_zpid/,33.6102,-112.137,6522,2017-11-09
696959,23846396,"2938 W Almeria Rd, Phoenix, AZ 85009 ",85009,0.6063408553600311,0.7713232636451721,0.46768480743770446,129900,https://www.zillow.com/homedetails/2938-W-Almeria-Rd-Phoenix-AZ-85009/7512219_zpid/,33.4672,-112.12299999999999,6543,2017-11-30
224193,23881963,"14214 N 27th Dr, Phoenix, AZ 85053 ",85053,0.5301238894462585,0.8821398317813873,0.4676433986594173,247000,https://www.zillow.com/homedetails/14214-N-27th-Dr-Phoenix-AZ-85053/7942965_zpid/,33.6147,-112.118,6591,2018-01-17
325706,23869796,"1718 W Indian School Rd, Phoenix, AZ 85015 ",85015,0.5548157393932343,0.8407398760318756,0.46645571595800117,239000,https://www.zillow.com/homedetails/1718-W-Indian-School-Rd-Phoenix-AZ-85015/7772146_zpid/,33.4953,-112.09700000000001,6589,2018-01-15
9026060,23865849,"8807 W Mercer Ln, Peoria, AZ 85345 ",85345,0.5341896861791611,0.8728459775447845,0.46626531882739153,163000,https://www.zillow.com/homedetails/8807-W-Mercer-Ln-Peoria-AZ-85345/64429237_zpid/,33.5836,-112.249,6586,2018-01-12
243119,22391945,"18226 N 10th Dr, Phoenix, AZ 85023 ",85023,0.5916160941123962,0.7880223095417023,0.46620668084449157,225000,https://www.zillow.com/homedetails/18226-N-10th-Dr-Phoenix-AZ-85023/7956715_zpid/,33.652,-112.086,6401,2017-07-11
231237,23886980,"18621 N 5th Dr, Phoenix, AZ 85027 ",85027,0.5221731066703796,0.8926909565925598,0.46613921010049,225000,https://www.zillow.com/homedetails/18621-N-5th-Dr-Phoenix-AZ-85027/50183691_zpid/,33.6555,-112.081,6585,2018-01-11
258179,23864232,"417 W Renee Dr, Phoenix, AZ 85027 ",85027,0.5202831327915192,0.8959070444107056,0.4661253237559926,205000,https://www.zillow.com/homedetails/417-W-Renee-Dr-Phoenix-AZ-85027/7972590_zpid/,33.6551,-112.08,6583,2018-01-09
381684,22380395,"3111 W Laurie Ln, Phoenix, AZ 85051 ",85051,0.6050482094287872,0.7703870236873627,0.4661212892492115,229900,https://www.zillow.com/homedetails/3111-W-Laurie-Ln-Phoenix-AZ-85051/7754882_zpid/,33.5587,-112.126,6403,2017-07-13
458973,22036993,"5608 W Heatherbrae Dr, Phoenix, AZ 85031 ",85031,0.6141831278800964,0.758335143327713,0.465756650310416,165000,https://www.zillow.com/homedetails/5608-W-Heatherbrae-Dr-Phoenix-AZ-85031/7713127_zpid/,33.4974,-112.181,6348,2017-05-19
250623,23869041,"510 E Topeka Dr, Phoenix, AZ 85024 ",85024,0.5221731066703796,0.8904629647731781,0.46497581269052723,209900,https://www.zillow.com/homedetails/510-E-Topeka-Dr-Phoenix-AZ-85024/7972420_zpid/,33.6601,-112.06700000000001,6585,2018-01-11
460480,23866544,"5823 W Pierson St, Phoenix, AZ 85031 ",85031,0.5291775315999985,0.8785288631916046,0.4648977352630861,204900,https://www.zillow.com/homedetails/5823-W-Pierson-St-Phoenix-AZ-85031/7713410_zpid/,33.5086,-112.185,6585,2018-01-11
1094985,23886129,"825 W Temple St, Chandler, AZ 85225 ",85225,0.5082016289234161,0.9143555164337158,0.4646769628667258,230000,https://www.zillow.com/homedetails/825-W-Temple-St-Chandler-AZ-85225/8183622_zpid/,33.3326,-111.85700000000001,6591,2018-01-17
422985,23883576,"8419 N 58th Dr, Glendale, AZ 85302 ",85302,0.5263351202011108,0.8828237950801849,0.46466116829993,225000,https://www.zillow.com/homedetails/8419-N-58th-Dr-Glendale-AZ-85302/7733078_zpid/,33.559,-112.185,6583,2018-01-09
468466,23862527,"3238 W Montecito Ave, Phoenix, AZ 85017 ",85017,0.570037454366684,0.8144907057285309,0.46429020849881564,151000,https://www.zillow.com/homedetails/3238-W-Montecito-Ave-Phoenix-AZ-85017/7768109_zpid/,33.4995,-112.12899999999999,6577,2018-01-03
9026458,23868219,"3016 E Dahlia Dr, Phoenix, AZ 85032 ",85032,0.5228185951709747,0.8879567980766296,0.4642403257429404,239900,https://www.zillow.com/homedetails/3016-E-Dahlia-Dr-Phoenix-AZ-85032/7815219_zpid/,33.6034,-112.01700000000001,6591,2018-01-17
9025461,23852787,"2114 W Monroe St, Phoenix, AZ 85009 ",85009,0.6282033622264862,0.7385675609111786,0.46397062499581754,229900,https://www.zillow.com/homedetails/2114-W-Monroe-St-Phoenix-AZ-85009/7514471_zpid/,33.4505,-112.105,6550,2017-12-07
7564801,23760240,"9711 W Alabama Ave, Sun City, AZ 85351 ",85351,0.6198892593383789,0.7484560012817383,0.4639598362819015,199900,https://www.zillow.com/homedetails/9711-W-Alabama-Ave-Sun-City-AZ-85351/7685981_zpid/,33.5933,-112.266,6502,2017-10-20
9023846,23854245,"3711 W Catalina Dr, Phoenix, AZ 85019 ",85019,0.570037454366684,0.8124651610851288,0.46313557218658463,168900,https://www.zillow.com/homedetails/3711-W-Catalina-Dr-Phoenix-AZ-85019/7507461_zpid/,33.4821,-112.139,6556,2017-12-13
419756,23870015,"5532 W Loma Ln, Glendale, AZ 85302 ",85302,0.5292221903800964,0.8750455975532532,0.463093547819593,185000,https://www.zillow.com/homedetails/5532-W-Loma-Ln-Glendale-AZ-85302/7737959_zpid/,33.5541,-112.179,6583,2018-01-09
381842,23829311,"12409 N 36th Dr, Phoenix, AZ 85029 ",85029,0.5731889307498932,0.8078595995903015,0.4630561800852018,174900,https://www.zillow.com/homedetails/12409-N-36th-Dr-Phoenix-AZ-85029/7743051_zpid/,33.5986,-112.13600000000001,6424,2017-08-03
9020422,23864586,"4227 N 11th Pl, Phoenix, AZ 85014 ",85014,0.5611178278923035,0.8250257968902588,0.46293668310617875,232900,https://www.zillow.com/homedetails/4227-N-11th-Pl-Phoenix-AZ-85014/7769603_zpid/,33.4974,-112.057,6584,2018-01-10
9029837,23905016,"8053 W Caron Dr, Peoria, AZ 85345 ",85345,0.5032729804515839,0.919815182685852,0.46291812845492686,169000,https://www.zillow.com/homedetails/8053-W-Caron-Dr-Peoria-AZ-85345/50187192_zpid/,33.5672,-112.23200000000001,6583,2018-01-09
8950822,21960213,"7406 W Eva St, Peoria, AZ 85345 ",85345,0.5829752087593079,0.7934327721595764,0.4625516359862054,185000,https://www.zillow.com/homedetails/7406-W-Eva-St-Peoria-AZ-85345/7702481_zpid/,33.5683,-112.21799999999999,6346,2017-05-17
459700,22721620,"5715 W Roma Ave, Phoenix, AZ 85031 ",85031,0.6141831278800964,0.7522655725479126,0.46202882234398857,139900,https://www.zillow.com/homedetails/5715-W-Roma-Ave-Phoenix-AZ-85031/7712868_zpid/,33.4993,-112.18299999999999,6478,2017-09-26
1126602,23890192,"2807 N Central Dr, Chandler, AZ 85224 ",85224,0.49741610884666443,0.9274270236492157,0.4613171413428363,180000,https://www.zillow.com/homedetails/2807-N-Central-Dr-Chandler-AZ-85224/8199127_zpid/,33.3475,-111.866,6625,2018-02-20
501018,22711998,"7420 W Alvarado Rd, Phoenix, AZ 85035 ",85035,0.5873603820800781,0.7852352559566498,0.46121607996144576,119900,https://www.zillow.com/homedetails/7420-W-Alvarado-Rd-Phoenix-AZ-85035/7474905_zpid/,33.4717,-112.22,6475,2017-09-23
409836,23788987,"4544 W Cholla St, Glendale, AZ 85304 ",85304,0.5885837376117706,0.7834259867668152,0.46111179543340164,230000,https://www.zillow.com/homedetails/4544-W-Cholla-St-Glendale-AZ-85304/7727053_zpid/,33.5891,-112.15700000000001,6319,2017-04-20
467212,23884496,"3119 W Citrus Way, Phoenix, AZ 85017 ",85017,0.5251898467540741,0.8772587478160858,0.46072738732920104,220000,https://www.zillow.com/homedetails/3119-W-Citrus-Way-Phoenix-AZ-85017/7760912_zpid/,33.5296,-112.12700000000001,6583,2018-01-09
425566,23374604,"3339 N 80th Dr, Phoenix, AZ 85033 ",85033,0.578497052192688,0.796128660440445,0.46055808323091085,179500,http://www.zillow.com/homedetails/3339-N-80th-Dr-Phoenix-AZ-85033/7479414_zpid,33.4867,-112.23200000000001,6369,2017-06-09
9016481,23867228,"7401 W Jenan Dr, Peoria, AZ 85345 ",85345,0.5052331984043121,0.9106772243976593,0.4601043667963909,240000,https://www.zillow.com/homedetails/7401-W-Jenan-Dr-Peoria-AZ-85345/7700306_zpid/,33.5916,-112.21799999999999,6589,2018-01-15
415471,23882330,"10237 N 66th Ave, Glendale, AZ 85302 ",85302,0.5125519335269928,0.8973002731800079,0.4599129899727119,150000,https://www.zillow.com/homedetails/10237-N-66th-Ave-Glendale-AZ-85302/7706350_zpid/,33.5795,-112.2,6583,2018-01-09
330587,22131299,"4508 N 17th Ave, Phoenix, AZ 85015 ",85015,0.6196828782558441,0.7412861287593842,0.45936232188074744,185000,https://www.zillow.com/homedetails/4508-N-17th-Ave-Phoenix-AZ-85015/7772361_zpid/,33.5027,-112.096,6321,2017-04-22
390056,23864177,"2917 W Aster Dr, Phoenix, AZ 85029 ",85029,0.5542291104793549,0.8287688493728638,0.4593278221809207,199700,https://www.zillow.com/homedetails/2917-W-Aster-Dr-Phoenix-AZ-85029/7741102_zpid/,33.6021,-112.12200000000001,6582,2018-01-08
407695,23882690,"5912 W Evans Dr, Glendale, AZ 85306 ",85306,0.516479104757309,0.8884871006011963,0.45888502230692296,217000,https://www.zillow.com/homedetails/5912-W-Evans-Dr-Glendale-AZ-85306/8098897_zpid/,33.6173,-112.18700000000001,6586,2018-01-12
9023068,23823620,"15224 N 30TH St, Phoenix, AZ 85032 ",85032,0.6140288412570953,0.7470708787441254,0.4587230660121753,229000,https://www.zillow.com/homedetails/15224-N-30th-St-Phoenix-AZ-85032/8011594_zpid/,33.6253,-112.01799999999999,6520,2017-11-07
9026282,23865594,"9621 N 82nd Ln, Peoria, AZ 85345 ",85345,0.49958114326000214,0.9170341491699219,0.4581329686507729,205000,https://www.zillow.com/homedetails/9621-N-82nd-Ln-Peoria-AZ-85345/67710601_zpid/,33.5723,-112.236,6585,2018-01-11
22930,21627869,"5725 W Highland Ave, Phoenix, AZ 85031 ",85031,0.6141831278800964,0.7453310489654541,0.4577697549597559,175000,https://www.zillow.com/homedetails/5725-W-Highland-Ave-Phoenix-AZ-85031/7713313_zpid/,33.5057,-112.18299999999999,6328,2017-04-29
8981328,22485420,"1411 E Whitton Ave, Phoenix, AZ 85014 ",85014,0.6220980882644653,0.7357528209686279,0.45771042335977086,160000,https://www.zillow.com/homedetails/1411-E-Whitton-Ave-Phoenix-AZ-85014/7534776_zpid/,33.4887,-112.051,6421,2017-07-31
331776,22565895,"10418 N 18TH Ave, Phoenix, AZ 85021 ",85021,0.5738943815231323,0.7965839803218842,0.4571550707180627,199000,https://www.zillow.com/homedetails/10418-N-18th-Ave-Phoenix-AZ-85021/7781375_zpid/,33.5813,-112.098,6444,2017-08-23
241374,23867942,"3135 W Acapulco Ln, Phoenix, AZ 85053 ",85053,0.5140018910169601,0.8887480199337006,0.4568181628835011,154500,https://www.zillow.com/homedetails/3135-W-Acapulco-Ln-Phoenix-AZ-85053/7953111_zpid/,33.6236,-112.12700000000001,6591,2018-01-17
1112872,23885785,"1482 W Orchid Ln, Chandler, AZ 85224 ",85224,0.48189690709114075,0.9467926323413849,0.45625644118199293,249900,https://www.zillow.com/homedetails/1482-W-Orchid-Ln-Chandler-AZ-85224/8203452_zpid/,33.3237,-111.867,6614,2018-02-09
486164,22539632,"4802 W Encanto Blvd, Phoenix, AZ 85035 ",85035,0.570037454366684,0.79902383685112,0.45547351393691304,148000,https://www.zillow.com/homedetails/4802-W-Encanto-Blvd-Phoenix-AZ-85035/7499173_zpid/,33.4734,-112.163,6437,2017-08-16
459441,22441396,"5651 W Sells Dr, Phoenix, AZ 85031 ",85031,0.6141831278800964,0.7398499548435211,0.4544033594277419,191000,https://www.zillow.com/homedetails/5651-W-Sells-Dr-Phoenix-AZ-85031/7712751_zpid/,33.4999,-112.182,6333,2017-05-04
467648,23865040,"3143 W Marlette Ave, Phoenix, AZ 85017 ",85017,0.5215538740158081,0.8708521723747253,0.4541963241971203,204000,https://www.zillow.com/homedetails/3143-W-Marlette-Ave-Phoenix-AZ-85017/7760936_zpid/,33.5289,-112.12799999999999,6585,2018-01-11
8979893,23865842,"7619 W Brown St, Peoria, AZ 85345 ",85345,0.5002015084028244,0.9074990451335907,0.4539323912499449,230000,https://www.zillow.com/homedetails/7619-W-Brown-St-Peoria-AZ-85345/7682142_zpid/,33.5769,-112.223,6586,2018-01-12
8959309,23803780,"4201 W Mission Ln, Phoenix, AZ 85051 ",85051,0.6134054660797119,0.7394992411136627,0.45361287666091954,219000,https://www.zillow.com/homedetails/4201-W-Mission-Ln-Phoenix-AZ-85051/7746195_zpid/,33.5703,-112.149,6501,2017-10-19
354030,23866666,"8023 W Brill St, Phoenix, AZ 85043 ",85043,0.5017131119966507,0.9036396741867065,0.45336787305985204,210000,https://www.zillow.com/homedetails/8023-W-Brill-St-Phoenix-AZ-85043/81990661_zpid/,33.4639,-112.23200000000001,6587,2018-01-13
1672854,23885683,"9702 W Cottonwood Dr, Sun City, AZ 85373 ",85373,0.5110657513141632,0.8861081600189209,0.45285953254568057,179000,https://www.zillow.com/homedetails/9702-W-Cottonwood-Dr-Sun-City-AZ-85373/8095213_zpid/,33.6447,-112.27,6591,2018-01-17
481368,23814944,"2346 N 47TH Ln, Phoenix, AZ 85035 ",85035,0.570037454366684,0.7936775088310242,0.45242590672212835,174900,https://www.zillow.com/homedetails/2346-N-47th-Ln-Phoenix-AZ-85035/7499146_zpid/,33.4749,-112.162,6511,2017-10-29
227332,23881178,"1516 W Kristal Way, Phoenix, AZ 85027 ",85027,0.5221731066703796,0.8660824596881866,0.45224496860810426,175000,https://www.zillow.com/homedetails/1516-W-Kristal-Way-Phoenix-AZ-85027/7969631_zpid/,33.6613,-112.09200000000001,6589,2018-01-15
434653,23866644,"7715 W Elm St, Phoenix, AZ 85033 ",85033,0.5050143450498581,0.8951226472854614,0.45204977745816244,175000,https://www.zillow.com/homedetails/7715-W-Elm-St-Phoenix-AZ-85033/7468202_zpid/,33.506,-112.226,6582,2018-01-08
827683,22544155,"3017 N 40th Dr, Phoenix, AZ 85019 ",85019,0.570037454366684,0.7924119532108307,0.4517044926180338,140000,https://www.zillow.com/homedetails/3017-N-40th-Dr-Phoenix-AZ-85019/7509168_zpid/,33.483000000000004,-112.146,6437,2017-08-16
9017497,23847149,"3044 E Roosevelt St, Phoenix, AZ 85008 ",85008,0.5753580629825592,0.7845499813556671,0.45139715758579957,239900,https://www.zillow.com/homedetails/3044-E-Roosevelt-St-Phoenix-AZ-85008/2098123425_zpid/,33.4588,-112.015,6546,2017-12-03
454952,23752844,"4630 W Indianola Ave, Phoenix, AZ 85031 ",85031,0.5982884168624878,0.7544263899326324,0.45136457047207657,159000,https://www.zillow.com/homedetails/4630-W-Indianola-Ave-Phoenix-AZ-85031/7508079_zpid/,33.4927,-112.15899999999999,6497,2017-10-15
9029090,23901746,"2331 W Comstock Dr, Chandler, AZ 85224 ",85224,0.48326486349105835,0.9331037998199463,0.4509362804429742,245000,https://www.zillow.com/homedetails/2331-W-Comstock-Dr-Chandler-AZ-85224/8201985_zpid/,33.3471,-111.882,6625,2018-02-20
9019232,23843081,"3428 E Sheridan St, Phoenix, AZ 85008 ",85008,0.592502236366272,0.7610153257846832,0.45090328243643185,240000,https://www.zillow.com/homedetails/3428-E-Sheridan-St-Phoenix-AZ-85008/7541233_zpid/,33.4752,-112.007,6540,2017-11-27
9026868,23897793,"1302 W Cortez Ct, Chandler, AZ 85224 ",85224,0.48319530487060547,0.9330119490623474,0.4508269931750988,249500,https://www.zillow.com/homedetails/1302-W-Cortez-Ct-Chandler-AZ-85224/8172446_zpid/,33.3554,-111.86399999999999,6624,2018-02-19
342822,22678663,"1925 W Holly St, Phoenix, AZ 85009 ",85009,0.6112392842769623,0.7371750175952911,0.45059033014180283,160000,https://www.zillow.com/homedetails/1925-W-Holly-St-Phoenix-AZ-85009/7519786_zpid/,33.4699,-112.102,6467,2017-09-15
1121899,23885878,"2404 W Chilton St, Chandler, AZ 85224 ",85224,0.4967018663883209,0.9064750373363495,0.4502478428793877,209000,https://www.zillow.com/homedetails/2404-W-Chilton-St-Chandler-AZ-85224/8196978_zpid/,33.3522,-111.884,6608,2018-02-03
9029937,23905387,"9053 N 84th Ln, Peoria, AZ 85345 ",85345,0.49958114326000214,0.9005090594291687,0.4498773454256133,212000,https://www.zillow.com/homedetails/9053-N-84th-Ln-Peoria-AZ-85345/7696834_zpid/,33.5673,-112.242,6586,2018-01-12
413085,21986995,"5754 W Shangri La Rd, Glendale, AZ 85304 ",85304,0.5914808809757233,0.760542094707489,0.44984610819670756,227500,https://www.zillow.com/homedetails/5754-W-Shangri-La-Rd-Glendale-AZ-85304/7736186_zpid/,33.586999999999996,-112.18299999999999,6311,2017-04-12
9206,23840092,"1220 W Ironwood Dr, Phoenix, AZ 85021 ",85021,0.5922894775867462,0.7593279778957367,0.44974197134486626,169000,https://www.zillow.com/homedetails/1220-W-Ironwood-Dr-Phoenix-AZ-85021/7781692_zpid/,33.576,-112.089,6534,2017-11-21
9011933,22678376,"7934 W Mitchell Dr, Phoenix, AZ 85033 ",85033,0.573855072259903,0.7832328975200653,0.44946217100271024,155000,https://www.zillow.com/homedetails/7934-W-Mitchell-Dr-Phoenix-AZ-85033/7478637_zpid/,33.4893,-112.23,6464,2017-09-12
331783,22651353,"10428 N 13TH Ave, Phoenix, AZ 85021 ",85021,0.5970578789710999,0.7521043717861176,0.44904984098351086,195000,https://www.zillow.com/homedetails/10428-N-13th-Ave-Phoenix-AZ-85021/7781474_zpid/,33.5811,-112.089,6463,2017-09-11
836722,23830966,"5221 N 41st Dr, Phoenix, AZ 85019 ",85019,0.565253496170044,0.7939022481441498,0.44875602138073845,179000,https://www.zillow.com/homedetails/5221-N-41st-Dr-Phoenix-AZ-85019/67083438_zpid/,33.5124,-112.148,6526,2017-11-13
9026899,23893911,"1318 W Boxelder Ct, Chandler, AZ 85224 ",85224,0.48319530487060547,0.9282571375370026,0.4485294905705075,239900,https://www.zillow.com/homedetails/1318-W-Boxelder-Ct-Chandler-AZ-85224/8172413_zpid/,33.3542,-111.865,6604,2018-01-30
451525,21618159,"4229 N 51st Ave, Phoenix, AZ 85031 ",85031,0.6267890334129333,0.7152642905712128,0.44831981332191795,165000,https://www.zillow.com/homedetails/4229-N-51st-Ave-Phoenix-AZ-85031/7721281_zpid/,33.4982,-112.169,6355,2017-05-26
556883,23809047,"2529 N 40th Ave, Phoenix, AZ 85009 ",85009,0.570037454366684,0.7850258052349091,0.4474941116282638,149899,https://www.zillow.com/homedetails/2529-N-40th-Ave-Phoenix-AZ-85009/88889007_zpid/,33.4758,-112.146,6508,2017-10-26
1126522,23920569,"2802 N Pennington Dr, Chandler, AZ 85224 ",85224,0.4898342192173004,0.9118423759937286,0.44665159829413614,249000,https://www.zillow.com/homedetails/2802-N-Pennington-Dr-Chandler-AZ-85224/8176474_zpid/,33.3465,-111.87100000000001,6634,2018-03-01
9015572,23864377,"9416 W Madison St, Tolleson, AZ 85353 ",85353,0.500743567943573,0.8913570642471313,0.4463413166628172,149000,https://www.zillow.com/homedetails/9416-W-Madison-St-Tolleson-AZ-85353/7460136_zpid/,33.4454,-112.264,6582,2018-01-08
327950,23884388,"2118 W Montebello Ave, Phoenix, AZ 85015 ",85015,0.5345918238162994,0.8340509831905365,0.4458768362596066,239000,https://www.zillow.com/homedetails/2118-W-Montebello-Ave-Phoenix-AZ-85015/7763188_zpid/,33.5211,-112.105,6591,2018-01-17
9025490,23867634,"4202 N 63rd Dr, Phoenix, AZ 85033 ",85033,0.5092291831970215,0.8749302625656128,0.44554002296064255,189900,https://www.zillow.com/homedetails/4202-N-63rd-Dr-Phoenix-AZ-85033/7717363_zpid/,33.4975,-112.196,6590,2018-01-16
389263,23864217,"3907 W Davidson Ln, Phoenix, AZ 85051 ",85051,0.5107870250940323,0.8710812628269196,0.4449370068545151,238995,https://www.zillow.com/homedetails/3907-W-Davidson-Ln-Phoenix-AZ-85051/7746545_zpid/,33.5698,-112.14299999999999,6582,2018-01-08
1111311,23885718,"1319 W Straford Dr, Chandler, AZ 85224 ",85224,0.48319530487060547,0.9204581379890442,0.44476105060624604,209000,https://www.zillow.com/homedetails/1319-W-Straford-Dr-Chandler-AZ-85224/8172355_zpid/,33.353,-111.865,6618,2018-02-13
334027,23820917,"6217 N 25th Ave, Phoenix, AZ 85015 ",85015,0.63236865401268,0.7030688524246216,0.44459870388599754,186500,https://www.zillow.com/homedetails/6217-N-25th-Ave-Phoenix-AZ-85015/7772678_zpid/,33.5283,-112.11200000000001,6516,2017-11-03
9027960,23897448,"2739 E Schiliro Cir, Phoenix, AZ 85032 ",85032,0.4854494482278824,0.9148808121681213,0.4441283854612914,230000,https://www.zillow.com/homedetails/2739-E-Schiliro-Cir-Phoenix-AZ-85032/88787626_zpid/,33.641999999999996,-112.024,6612,2018-02-07
316565,23865348,"1845 E Almeria Rd, Phoenix, AZ 85006 ",85006,0.5628417432308197,0.7882223427295685,0.44364443743539095,224900,https://www.zillow.com/homedetails/1845-E-Almeria-Rd-Phoenix-AZ-85006/7531838_zpid/,33.4664,-112.041,6586,2018-01-12
1122798,23892196,"256 S Dobson Rd, Chandler, AZ 85224 ",85224,0.49383141100406647,0.8983608484268188,0.44363880536942624,199000,https://www.zillow.com/homedetails/256-S-Dobson-Rd-Chandler-AZ-85224/8207976_zpid/,33.2994,-111.87700000000001,6627,2018-02-22
9026756,23893480,"1033 W Orchid Ln, Chandler, AZ 85224 ",85224,0.4699110686779022,0.9440446496009827,0.4436170301736535,249900,https://www.zillow.com/homedetails/1033-W-Orchid-Ln-Chandler-AZ-85224/8203649_zpid/,33.3236,-111.86,6619,2018-02-14
233478,23794869,"19046 N 15TH Ave, Phoenix, AZ 85027 ",85027,0.5916160941123962,0.7495071291923523,0.4434204802821746,229900,https://www.zillow.com/homedetails/19046-N-15th-Ave-Phoenix-AZ-85027/7969522_zpid/,33.6598,-112.09200000000001,6504,2017-10-22
1108948,23885722,"1169 W Nopal Pl, Chandler, AZ 85224 ",85224,0.48326486349105835,0.9169879853725433,0.44314807357400277,244900,https://www.zillow.com/homedetails/1169-W-Nopal-Pl-Chandler-AZ-85224/8175911_zpid/,33.341,-111.86200000000001,6602,2018-01-28
470861,22224283,"4135 N 29th Dr, Phoenix, AZ 85017 ",85017,0.5982884168624878,0.7389345765113831,0.4420959979459482,125000,https://www.zillow.com/homedetails/4135-N-29th-Dr-Phoenix-AZ-85017/64623257_zpid/,33.4965,-112.12200000000001,6321,2017-04-22
329444,22745740,"2423 W San Miguel Ave, Phoenix, AZ 85015 ",85015,0.6196828782558441,0.7132663130760193,0.44199892184988165,178800,https://www.zillow.com/homedetails/2423-W-San-Miguel-Ave-Phoenix-AZ-85015/7763696_zpid/,33.5193,-112.11200000000001,6488,2017-10-06
397462,23865059,"4040 W Desert Cove Ave, Phoenix, AZ 85029 ",85029,0.4965129643678665,0.8897809088230133,0.4417877566776487,224900,https://www.zillow.com/homedetails/4040-W-Desert-Cove-Ave-Phoenix-AZ-85029/7744743_zpid/,33.5857,-112.146,6585,2018-01-11
402883,23865219,"12215 N 47TH Ln, Glendale, AZ 85304 ",85304,0.5107870250940323,0.86442831158638,0.44153876568226424,249900,https://www.zillow.com/homedetails/12215-N-47th-Ln-Glendale-AZ-85304/7954296_zpid/,33.597,-112.161,6582,2018-01-08
428369,23828377,"6211 W Clarendon Ave, Phoenix, AZ 85033 ",85033,0.6227676868438721,0.7083938717842102,0.4411648129054271,219000,https://www.zillow.com/homedetails/6211-W-Clarendon-Ave-Phoenix-AZ-85033/7496532_zpid/,33.4914,-112.193,6513,2017-10-31
1094758,23892220,"818 W Nopal Pl, Chandler, AZ 85225 ",85225,0.4742138236761093,0.9302821457386017,0.4411526534283179,249990,https://www.zillow.com/homedetails/818-W-Nopal-Pl-Chandler-AZ-85225/8177792_zpid/,33.3423,-111.85799999999999,6627,2018-02-22
1097216,23886156,"901 W Cheyenne Dr, Chandler, AZ 85225 ",85225,0.4742138236761093,0.9302135407924652,0.4411201200144874,240000,https://www.zillow.com/homedetails/901-W-Cheyenne-Dr-Chandler-AZ-85225/8176783_zpid/,33.3463,-111.85600000000001,6618,2018-02-13
834955,22429468,"3614 W Sierra Vista Dr, Phoenix, AZ 85019",85019,0.578497052192688,0.7612554728984833,0.44038404703732326,175000,"https://mcassessor.maricopa.gov/mcs.php?q=3614 W Sierra Vista Dr, Phoenix, AZ 85019",33.5322,-112.137,6327,2017-04-28
440994,23821180,"8228 W Fairmount Ave, Phoenix, AZ 85033 ",85033,0.569007396697998,0.7733010649681091,0.44001402584129323,167000,https://www.zillow.com/homedetails/8228-W-Fairmount-Ave-Phoenix-AZ-85033/7478785_zpid/,33.4907,-112.23700000000001,6517,2017-11-04
9024203,23844470,"3326 W Roanoke Ave, Phoenix, AZ 85009 ",85009,0.565253496170044,0.7782349288463593,0.43990001437204995,172500,https://www.zillow.com/homedetails/3326-W-Roanoke-Ave-Phoenix-AZ-85009/7510426_zpid/,33.4791,-112.131,6543,2017-11-30
637717,23877260,"1942 W Portobello Ave, Mesa, AZ 85202 ",85202,0.48248106241226196,0.9113044142723083,0.43968712197908744,232500,https://www.zillow.com/homedetails/1942-W-Portobello-Ave-Mesa-AZ-85202/8191364_zpid/,33.3598,-111.876,6617,2018-02-12
2044790,23879407,"15613 N 33RD Pl, Phoenix, AZ 85032 ",85032,0.4854494482278824,0.9053263962268829,0.43949019951447754,225000,https://www.zillow.com/homedetails/15613-N-33RD-Pl-Phoenix-AZ-85032/55267922_zpid/,33.6291,-112.01,6607,2018-02-02
220949,23862962,"9206 N 14th St, Phoenix, AZ 85020 ",85020,0.5738943815231323,0.7657310664653778,0.4394487568021965,214700,https://www.zillow.com/homedetails/9206-N-14th-St-Phoenix-AZ-85020/7787080_zpid/,33.5698,-112.053,6550,2017-12-07
650458,23872026,"2419 W Naranja Ave, Mesa, AZ 85202 ",85202,0.48248106241226196,0.9104872345924377,0.43929284825896175,218000,https://www.zillow.com/homedetails/2419-W-Naranja-Ave-Mesa-AZ-85202/8251330_zpid/,33.3643,-111.88600000000001,6603,2018-01-29
13979,23887011,"2235 W Danbury Rd, Phoenix, AZ 85023 ",85023,0.48831990361213684,0.8993068039417267,0.4391494118185628,200000,https://www.zillow.com/homedetails/2235-W-Danbury-Rd-Phoenix-AZ-85023/7958239_zpid/,33.6411,-112.109,6620,2018-02-15
9008440,23873693,"2627 E Wallace Ave, Phoenix, AZ 85032 ",85032,0.4861624389886856,0.9030764400959015,0.4390418447102431,220000,https://www.zillow.com/homedetails/2627-E-Wallace-Ave-Phoenix-AZ-85032/95164807_zpid/,33.6398,-112.02600000000001,6606,2018-02-01
475131,23865464,"6801 N 30th Ave, Phoenix, AZ 85017 ",85017,0.5091429948806763,0.8615142703056335,0.43863395571585073,199900,https://www.zillow.com/homedetails/6801-N-30th-Ave-Phoenix-AZ-85017/7758750_zpid/,33.5364,-112.124,6586,2018-01-12
465370,23866376,"2933 W Bethany Home Rd, Phoenix, AZ 85017 ",85017,0.5261189341545105,0.8335649967193604,0.4385543276224979,170000,https://www.zillow.com/homedetails/2933-W-Bethany-Home-Rd-Phoenix-AZ-85017/7762760_zpid/,33.5238,-112.12299999999999,6585,2018-01-11
8946570,21960648,"7614 W Turquoise Ave, Peoria, AZ 85345 ",85345,0.5829752087593079,0.7516328394412994,0.43818331148364287,219000,https://www.zillow.com/homedetails/7614-W-Turquoise-Ave-Peoria-AZ-85345/7682180_zpid/,33.5747,-112.223,6339,2017-05-10
9029712,23904484,"3407 E Le Marche Ave, Phoenix, AZ 85032 ",85032,0.4854494482278824,0.9017864167690277,0.4377717184399237,248000,https://www.zillow.com/homedetails/3407-E-Le-Marche-Ave-Phoenix-AZ-85032/8007155_zpid/,33.6324,-112.009,6614,2018-02-09
220490,23862951,"8815 N 6th St, Phoenix, AZ 85020 ",85020,0.5792618989944458,0.755402535200119,0.43757590704523963,200000,https://www.zillow.com/homedetails/8815-N-6th-St-Phoenix-AZ-85020/7793860_zpid/,33.5647,-112.06700000000001,6551,2017-12-08
469895,23526992,"3401 W Tuckey Ln, Phoenix, AZ 85017 ",85017,0.577838271856308,0.7572547197341919,0.4375707586062383,169000,https://www.zillow.com/homedetails/3401-W-Tuckey-Ln-Phoenix-AZ-85017/7760733_zpid/,33.5332,-112.132,6493,2017-10-11
1933748,23915060,"7145 W Mulberry Dr, Phoenix, AZ 85033 ",85033,0.4761553555727005,0.9187133014202118,0.4374502587071105,185000,https://www.zillow.com/homedetails/7145-W-Mulberry-Dr-Phoenix-AZ-85033/7485834_zpid/,33.4866,-112.214,6628,2018-02-23
470656,22708029,"3446 W Montebello Ave, Phoenix, AZ 85017 ",85017,0.578919529914856,0.7552808523178101,0.43724683597751834,169800,https://www.zillow.com/homedetails/3446-W-Montebello-Ave-Phoenix-AZ-85017/7762454_zpid/,33.5205,-112.134,6472,2017-09-20
254794,23872042,"306 W Kings Ave, Phoenix, AZ 85023 ",85023,0.474801704287529,0.9203445613384247,0.4369811662552423,219900,https://www.zillow.com/homedetails/306-W-Kings-Ave-Phoenix-AZ-85023/7965343_zpid/,33.6358,-112.079,6603,2018-01-29
8975236,23887133,"3643 N 73rd Ave, Phoenix, AZ 85033 ",85033,0.4761553555727005,0.9175696074962616,0.4369056827200857,184000,https://www.zillow.com/homedetails/3643-N-73rd-Ave-Phoenix-AZ-85033/7468824_zpid/,33.4911,-112.21600000000001,6621,2018-02-16
476829,23864061,"1614 N 53rd Dr, Phoenix, AZ 85035 ",85035,0.5057757496833801,0.8634524643421173,0.43671331746859643,159000,https://www.zillow.com/homedetails/1614-N-53rd-Dr-Phoenix-AZ-85035/7493815_zpid/,33.4668,-112.175,6582,2018-01-08
233636,23869963,"19201 N 21ST Ave, Phoenix, AZ 85027 ",85027,0.5037816315889359,0.8665867447853088,0.43657048420128763,220000,https://www.zillow.com/homedetails/19201-N-21st-Ave-Phoenix-AZ-85027/7970134_zpid/,33.6596,-112.105,6585,2018-01-11
446948,23914963,"4832 N 84TH Dr, Phoenix, AZ 85037 ",85037,0.4761553555727005,0.9166389107704163,0.43646252648966044,155000,https://www.zillow.com/homedetails/4832-N-84TH-Dr-Phoenix-AZ-85037/7481144_zpid/,33.508,-112.241,6633,2018-02-28
341987,23888290,"16633 N 19th Pl, Phoenix, AZ 85022 ",85022,0.47271302342414856,0.9217737913131714,0.4357344758047894,244900,https://www.zillow.com/homedetails/16633-N-19th-Pl-Phoenix-AZ-85022/55267888_zpid/,33.6381,-112.04,6621,2018-02-16
449872,23877880,"8625 W Mariposa Dr, Phoenix, AZ 85037 ",85037,0.4761553555727005,0.914953738451004,0.43566012266470944,158000,https://www.zillow.com/homedetails/8625-W-Mariposa-Dr-Phoenix-AZ-85037/7483575_zpid/,33.5073,-112.245,6599,2018-01-25
1113596,23885766,"1567 W Kesler Ln, Chandler, AZ 85224 ",85224,0.4676985442638397,0.9313030242919922,0.4355690687298761,245000,https://www.zillow.com/homedetails/1567-W-Kesler-Ln-Chandler-AZ-85224/8226104_zpid/,33.2918,-111.869,6596,2018-01-22
1416563,23872427,"7608 W Peck Dr, Glendale, AZ 85303 ",85303,0.46682579815387726,0.9318592846393585,0.43501595431886964,249900,https://www.zillow.com/homedetails/7608-W-Peck-Dr-Glendale-AZ-85303/95094058_zpid/,33.5268,-112.22399999999999,6605,2018-01-31
831473,23884701,"4018 W Solano Dr N, Phoenix, AZ 85019 ",85019,0.4852854758501053,0.8963415324687958,0.43498152710833216,199900,https://www.zillow.com/homedetails/4018-W-Solano-Dr-N-Phoenix-AZ-85019/7718599_zpid/,33.5218,-112.145,6583,2018-01-09
212762,23873366,"5130 E Windsor Ave, Phoenix, AZ 85008 ",85008,0.48248106241226196,0.9013229012489319,0.43487123097108693,240000,https://www.zillow.com/homedetails/5130-E-Windsor-Ave-Phoenix-AZ-85008/7561690_zpid/,33.4786,-111.97,6609,2018-02-04
1851930,23885755,"1315 W Manor St, Chandler, AZ 85224 ",85224,0.46845024824142456,0.9277381002902985,0.43459914338401795,247500,https://www.zillow.com/homedetails/1315-W-Manor-St-Chandler-AZ-85224/8194266_zpid/,33.328,-111.86399999999999,6605,2018-01-31
423622,23892126,"8816 N 44TH Ln, Glendale, AZ 85302 ",85302,0.4684017300605774,0.9276066422462463,0.43449255604382486,209000,https://www.zillow.com/homedetails/8816-N-44TH-Ln-Glendale-AZ-85302/7731485_zpid/,33.565,-112.155,6627,2018-02-22
235711,23887043,"2881 W Muriel Dr, Phoenix, AZ 85053 ",85053,0.4748704880475998,0.9149699509143829,0.43449222713960145,222900,https://www.zillow.com/homedetails/2881-W-Muriel-Dr-Phoenix-AZ-85053/7942467_zpid/,33.646,-112.12100000000001,6613,2018-02-08
2066173,23881213,"17427 N 16th Ln, Phoenix, AZ 85023 ",85023,0.48122438788414,0.9025104939937592,0.4343100600311596,210000,https://www.zillow.com/homedetails/17427-N-16th-Ln-Phoenix-AZ-85023/7958487_zpid/,33.6447,-112.095,6618,2018-02-13
225987,23864034,"1415 W Renee Dr, Phoenix, AZ 85027 ",85027,0.5136144906282425,0.8440341055393219,0.4335081471894431,239999,https://www.zillow.com/homedetails/1415-W-Renee-Dr-Phoenix-AZ-85027/7969101_zpid/,33.6549,-112.09,6582,2018-01-08
