property_id,transaction_id,address,zipcode,any_sell,good_sell,bayesian,list,url,lat,long,date_listed,transaction_date
350177,22541766,"6408 W Cordes Rd, Phoenix, AZ 85043 ",85043,0.8355405032634735,0.8585596680641174,0.7173613771360134,169900,https://www.zillow.com/homedetails/6408-W-Cordes-Rd-Phoenix-AZ-85043/49641248_zpid/,33.4216,-112.197,6442,2017-08-21
5088735,23778838,"1314 W Cortez Ct, Chandler, AZ 85224 ",85224,0.8311775386333465,0.8604270637035369,0.7151676489826235,239900,https://www.zillow.com/homedetails/1314-W-Cortez-Ct-Chandler-AZ-85224/8172443_zpid/,33.3557,-111.865,6270,2017-03-02
350131,22705127,"6405 W Preston Ln, Phoenix, AZ 85043 ",85043,0.8328560769557953,0.8567811787128449,0.7135754113123421,187000,https://www.zillow.com/homedetails/6405-W-Preston-Ln-Phoenix-AZ-85043/55257428_zpid/,33.4235,-112.198,6474,2017-09-22
42777,23846103,"7112 W Watkins St, Phoenix, AZ 85043 ",85043,0.8263577997684479,0.862289035320282,0.7125592699917257,205000,https://www.zillow.com/homedetails/7112-W-Watkins-St-Phoenix-AZ-85043/52424087_zpid/,33.4264,-112.213,6543,2017-11-30
359352,23850241,"2036 S 86th Ln, Tolleson, AZ 85353 ",85353,0.8262551605701447,0.8614256501197814,0.7117573888589613,164900,https://www.zillow.com/homedetails/2036-S-86th-Ln-Tolleson-AZ-85353/59271477_zpid/,33.4275,-112.24700000000001,6552,2017-12-09
43841,22301783,"8133 W Pima St, Phoenix, AZ 85043 ",85043,0.8368751108646393,0.849404799938202,0.7108457361172396,180000,https://www.zillow.com/homedetails/8133-W-Pima-St-Phoenix-AZ-85043/60047272_zpid/,33.4329,-112.236,6401,2017-07-11
359281,23846977,"2013 S 86th Ave, Tolleson, AZ 85353 ",85353,0.8199784636497498,0.8637872874736786,0.7082869729028518,215000,https://www.zillow.com/homedetails/2013-S-86th-Ave-Tolleson-AZ-85353/59271375_zpid/,33.4287,-112.244,6546,2017-12-03
362517,23822656,"8838 W Hilton Ave, Tolleson, AZ 85353 ",85353,0.8200451970100403,0.8607713878154755,0.7058714423017474,184900,https://www.zillow.com/homedetails/8838-W-Hilton-Ave-Tolleson-AZ-85353/62726881_zpid/,33.4279,-112.251,6519,2017-11-06
43124,23755414,"7301 W Payson Rd, Phoenix, AZ 85043 ",85043,0.8143816351890564,0.8658020198345184,0.705093264662823,195000,https://www.zillow.com/homedetails/7301-W-Payson-Rd-Phoenix-AZ-85043/60975135_zpid/,33.4225,-112.21700000000001,6500,2017-10-18
43395,23752723,"7911 W Hilton Ave, Phoenix, AZ 85043 ",85043,0.820406574010849,0.8549349963665008,0.7013942913710186,232000,https://www.zillow.com/homedetails/7911-W-Hilton-Ave-Phoenix-AZ-85043/50893343_zpid/,33.4289,-112.23,6497,2017-10-15
1090459,23810641,"631 W Caroline Ln, Chandler, AZ 85225 ",85225,0.8243378460407257,0.8506897389888763,0.7012557470870374,230000,https://www.zillow.com/homedetails/631-W-Caroline-Ln-Chandler-AZ-85225/8183658_zpid/,33.3304,-111.851,6509,2017-10-27
9022216,23813716,"8333 W Watkins St, Tolleson, AZ 85353 ",85353,0.8122943341732025,0.8630287826061249,0.7010333903393517,194900,https://www.zillow.com/homedetails/8333-W-Watkins-St-Tolleson-AZ-85353/54886336_zpid/,33.4265,-112.24,6510,2017-10-28
359603,23858625,"2538 S 88th Ln, Tolleson, AZ 85353 ",85353,0.8082789778709412,0.8670466780662537,0.7008156027137865,205000,https://www.zillow.com/homedetails/2538-S-88th-Ln-Tolleson-AZ-85353/67772866_zpid/,33.4242,-112.251,6566,2017-12-23
361380,23818137,"8601 W Flavia Hvn, Tolleson, AZ 85353 ",85353,0.8167268633842468,0.8577660322189331,0.70056056101172,245000,https://www.zillow.com/homedetails/8601-W-Flavia-Hvn-Tolleson-AZ-85353/59271170_zpid/,33.4241,-112.245,6515,2017-11-02
359302,23814410,"2021 S 83RD Dr, Tolleson, AZ 85353 ",85353,0.8122943341732025,0.8611810505390167,0.6995324880501697,197900,https://www.zillow.com/homedetails/2021-S-83rd-Dr-Tolleson-AZ-85353/59271300_zpid/,33.4288,-112.23899999999999,6511,2017-10-29
8964694,23800320,"9084 N 80th Ln, Peoria, AZ 85345 ",85345,0.8369367182254791,0.8350942254066467,0.6989210204208874,170000,https://www.zillow.com/homedetails/9084-N-80th-Ln-Peoria-AZ-85345/50187199_zpid/,33.5677,-112.23299999999999,6422,2017-08-01
9021527,23824183,"7384 W Greer Ave, Peoria, AZ 85345 ",85345,0.8258235514163971,0.8460908830165863,0.6987217778337926,209900,https://www.zillow.com/homedetails/7384-W-Greer-Ave-Peoria-AZ-85345/7701234_zpid/,33.5882,-112.21799999999999,6522,2017-11-09
9024556,23846751,"8422 W Sonora St, Tolleson, AZ 85353 ",85353,0.8307051539421082,0.8403201401233673,0.6980582713618357,183000,https://www.zillow.com/homedetails/8422-W-Sonora-St-Tolleson-AZ-85353/57688731_zpid/,33.4336,-112.243,6545,2017-12-02
420568,22722083,"5807 W Puget Ave, Glendale, AZ 85302 ",85302,0.8272749304771423,0.8409055888652801,0.695660112566365,200000,https://www.zillow.com/homedetails/5807-W-Puget-Ave-Glendale-AZ-85302/7733279_zpid/,33.5668,-112.185,6477,2017-09-25
9025868,23860038,"11642 N 76th Ln, Peoria, AZ 85345 ",85345,0.8346117615699769,0.832732355594635,0.6950082182191547,204900,https://www.zillow.com/homedetails/11642-N-76th-Ln-Peoria-AZ-85345/7681994_zpid/,33.5912,-112.22399999999999,6539,2017-11-26
9024040,23847794,"2215 S 99th Ln, Tolleson, AZ 85353 ",85353,0.8056757092475891,0.8624863624572754,0.6948843117891386,224000,https://www.zillow.com/homedetails/2215-S-99th-Ln-Tolleson-AZ-85353/95076703_zpid/,33.4261,-112.273,6547,2017-12-04
444887,22730839,"4607 N 92nd Ln, Phoenix, AZ 85037 ",85037,0.8282034456729889,0.838971096277237,0.6948387527568526,214900,https://www.zillow.com/homedetails/4607-N-92nd-Ln-Phoenix-AZ-85037/7466411_zpid/,33.5044,-112.259,6480,2017-09-28
9018003,23819878,"1842 W Alamo Dr, Chandler, AZ 85224 ",85224,0.8229035615921021,0.8422390997409821,0.6930815548889799,244500,https://www.zillow.com/homedetails/1842-W-Alamo-Dr-Chandler-AZ-85224/8199834_zpid/,33.3482,-111.875,6516,2017-11-03
9025884,23860106,"7932 W Wethersfield Rd, Peoria, AZ 85381 ",85381,0.8346117615699769,0.8298225462436676,0.692579657110911,228888,https://www.zillow.com/homedetails/7932-W-Wethersfield-Rd-Peoria-AZ-85381/8100789_zpid/,33.5962,-112.23,6566,2017-12-23
342960,23847789,"1722 S 64th Ave, Phoenix, AZ 85043 ",85043,0.8282751202583313,0.8360843241214753,0.6925078441078205,175000,https://www.zillow.com/homedetails/1722-S-64th-Ave-Phoenix-AZ-85043/55257220_zpid/,33.4323,-112.198,6548,2017-12-05
973060,23854336,"600 N Aspen Dr, Chandler, AZ 85226 ",85226,0.8209946990013123,0.8429834842681885,0.6920849719298389,239900,https://www.zillow.com/homedetails/600-N-Aspen-Dr-Chandler-AZ-85226/8262023_zpid/,33.3128,-111.945,6556,2017-12-13
8989020,22594955,"2518 N 73rd Dr, Phoenix, AZ 85035 ",85035,0.8288320481777192,0.83453409075737,0.6916885997165615,180500,https://www.zillow.com/homedetails/2518-N-73rd-Dr-Phoenix-AZ-85035/95083161_zpid/,33.4754,-112.21700000000001,6449,2017-08-28
342843,23840815,"1701 S 65th Dr, Phoenix, AZ 85043 ",85043,0.8282751202583313,0.8349989473819732,0.6916088535583839,176000,https://www.zillow.com/homedetails/1701-S-65th-Dr-Phoenix-AZ-85043/52621334_zpid/,33.4331,-112.2,6537,2017-11-24
8967048,23839808,"8213 W Osborn Rd, Phoenix, AZ 85033 ",85033,0.8384035468101502,0.824449235200882,0.6912211629573352,136500,https://www.zillow.com/homedetails/8213-W-Osborn-Rd-Phoenix-AZ-85033/7479277_zpid/,33.4871,-112.236,6401,2017-07-11
43503,23828145,"7939 W Lumbee St, Phoenix, AZ 85043 ",85043,0.823526793718338,0.8390162110328674,0.6909523301496058,178900,https://www.zillow.com/homedetails/7939-W-Lumbee-St-Phoenix-AZ-85043/59271818_zpid/,33.434,-112.23100000000001,6526,2017-11-13
432541,22734473,"7113 W Sheila Ln, Phoenix, AZ 85033 ",85033,0.8284974932670593,0.8333459079265595,0.6904249957415162,189000,https://www.zillow.com/homedetails/7113-W-Sheila-Ln-Phoenix-AZ-85033/55257199_zpid/,33.4878,-112.213,6485,2017-10-03
1885528,22710615,"8223 W Carol Ave, Peoria, AZ 85345 ",85345,0.8297624349594116,0.8317561089992523,0.6901599742955854,205000,https://www.zillow.com/homedetails/8223-W-Carol-Ave-Peoria-AZ-85345/60978276_zpid/,33.5706,-112.236,6473,2017-09-21
424652,22494705,"9451 N 65th Ave, Glendale, AZ 85302 ",85302,0.8333759605884552,0.8277723670005799,0.6898455914976875,179999,https://www.zillow.com/homedetails/9451-N-65th-Ave-Glendale-AZ-85302/7703396_zpid/,33.573,-112.199,6426,2017-08-05
9005657,23842655,"10439 W Papago St, Tolleson, AZ 85353 ",85353,0.8307051539421082,0.8304170489311218,0.6898317224684787,229900,https://www.zillow.com/homedetails/10439-W-Papago-St-Tolleson-AZ-85353/125986296_zpid/,33.4338,-112.24600000000001,6540,2017-11-27
7520977,22428537,"7562 W Turquoise Ave, Peoria, AZ 85345 ",85345,0.8314329147338867,0.8296186566352844,0.6897722578038861,189900,https://www.zillow.com/homedetails/7562-W-Turquoise-Ave-Peoria-AZ-85345/7682178_zpid/,33.5747,-112.223,6327,2017-04-28
503618,23782296,"2007 N 78th Ave, Phoenix, AZ 85035 ",85035,0.8368936002254486,0.8240063309669494,0.6896056249314928,170000,https://www.zillow.com/homedetails/2007-N-78th-Ave-Phoenix-AZ-85035/82823153_zpid/,33.4698,-112.227,6256,2017-02-16
1121709,23858141,"2370 W Orchid Ln, Chandler, AZ 85224 ",85224,0.8084772109985352,0.8507175087928772,0.6877857188564872,223000,https://www.zillow.com/homedetails/2370-W-Orchid-Ln-Chandler-AZ-85224/8201830_zpid/,33.324,-111.883,6564,2017-12-21
222617,22606562,"1010 W Renee Dr, Phoenix, AZ 85027 ",85027,0.8329382836818695,0.8252946197986603,0.6874194841469771,245000,https://www.zillow.com/homedetails/1010-W-Renee-Dr-Phoenix-AZ-85027/7971269_zpid/,33.6551,-112.085,6451,2017-08-30
702422,23836601,"3144 S Rogers, Mesa, AZ 85202 ",85202,0.8150446474552154,0.8432549118995667,0.6872904023840611,244000,https://www.zillow.com/homedetails/3144-S-Rogers-Mesa-AZ-85202/8171993_zpid/,33.3577,-111.86399999999999,6529,2017-11-16
483971,22688771,"2734 N 73rd Gln, Phoenix, AZ 85035 ",85035,0.822344571352005,0.8353664755821228,0.6869590862844159,209900,https://www.zillow.com/homedetails/2734-N-73rd-Gln-Phoenix-AZ-85035/95167972_zpid/,33.4783,-112.21799999999999,6470,2017-09-18
243287,22690475,"3218 W Angela Dr, Phoenix, AZ 85053 ",85053,0.8333427727222442,0.8242435157299042,0.686877376796689,209000,https://www.zillow.com/homedetails/3218-W-Angela-Dr-Phoenix-AZ-85053/7942085_zpid/,33.6461,-112.12899999999999,6470,2017-09-18
1119338,23856054,"2144 N College Ct, Chandler, AZ 85224 ",85224,0.8136565566062928,0.8441465973854065,0.6868454136995285,240000,https://www.zillow.com/homedetails/2144-N-College-Ct-Chandler-AZ-85224/8199700_zpid/,33.3387,-111.874,6557,2017-12-14
1409899,23830486,"7018 N 77th Dr, Glendale, AZ 85303 ",85303,0.8131126582622528,0.8440060913562775,0.6862720365322366,215000,https://www.zillow.com/homedetails/7018-N-77th-Dr-Glendale-AZ-85303/55260188_zpid/,33.5385,-112.226,6514,2017-11-01
223014,23858249,"107 W Piute Ave, Phoenix, AZ 85027 ",85027,0.8294379115104675,0.8273325741291047,0.6862210024102237,220000,https://www.zillow.com/homedetails/107-W-Piute-Ave-Phoenix-AZ-85027/7972231_zpid/,33.6628,-112.07600000000001,6563,2017-12-20
1091154,23858452,"668 W Shawnee Dr, Chandler, AZ 85225 ",85225,0.8150446474552154,0.8414732933044433,0.6858383036842991,239900,https://www.zillow.com/homedetails/668-W-Shawnee-Dr-Chandler-AZ-85225/8200509_zpid/,33.3448,-111.852,6535,2017-11-22
1864574,23822334,"9873 W Escuda Dr, Peoria, AZ 85382 ",85382,0.8329618871212006,0.8230718016624451,0.6855874411489967,245000,https://www.zillow.com/homedetails/9873-W-Escuda-Dr-Peoria-AZ-85382/7896125_zpid/,33.6652,-112.271,6519,2017-11-06
9021813,23820289,"8528 W Eva St, Peoria, AZ 85345 ",85345,0.8285643577575683,0.8271662056446075,0.6853604359386889,186000,https://www.zillow.com/homedetails/8528-W-Eva-St-Peoria-AZ-85345/7696910_zpid/,33.5674,-112.243,6516,2017-11-03
650458,23850182,"2419 W Naranja Ave, Mesa, AZ 85202 ",85202,0.814822655916214,0.8405878424644471,0.6849300183277608,235000,https://www.zillow.com/homedetails/2419-W-Naranja-Ave-Mesa-AZ-85202/8251330_zpid/,33.3643,-111.88600000000001,6551,2017-12-08
1416084,23849882,"7583 W Krall St, Glendale, AZ 85303 ",85303,0.8171847999095917,0.8379125714302063,0.6847294170259246,220000,https://www.zillow.com/homedetails/7583-W-Krall-St-Glendale-AZ-85303/7463213_zpid/,33.5346,-112.22200000000001,6550,2017-12-07
9021795,23854390,"747 W Rosal Pl, Chandler, AZ 85225 ",85225,0.8150446474552154,0.8396439015865326,0.684347267756517,244800,https://www.zillow.com/homedetails/747-W-Rosal-Pl-Chandler-AZ-85225/8177685_zpid/,33.3412,-111.855,6551,2017-12-08
9025707,23857419,"7108 W Palo Verde Ave, Peoria, AZ 85345 ",85345,0.8238508701324463,0.8304676711559296,0.6841815134986788,215000,https://www.zillow.com/homedetails/7108-W-Palo-Verde-Ave-Peoria-AZ-85345/7702387_zpid/,33.5728,-112.212,6546,2017-12-03
8987452,23806670,"13360 N 79th Ave, Peoria, AZ 85381 ",85381,0.8143816351890564,0.8401160418987275,0.6841750759500435,219000,https://www.zillow.com/homedetails/13360-N-79th-Ave-Peoria-AZ-85381/8100973_zpid/,33.6063,-112.229,6507,2017-10-25
401493,23754956,"11221 N 58th Ave, Glendale, AZ 85304 ",85304,0.8288922548294068,0.8248694658279419,0.683727911470051,209000,https://www.zillow.com/homedetails/11221-N-58th-Ave-Glendale-AZ-85304/7736227_zpid/,33.588,-112.184,6499,2017-10-17
9025888,23860118,"8567 W Eva St, Peoria, AZ 85345 ",85345,0.8346117615699769,0.8191166162490845,0.6836443620188871,215000,https://www.zillow.com/homedetails/8567-W-Eva-St-Peoria-AZ-85345/7696902_zpid/,33.5674,-112.244,6538,2017-11-25
8988163,23818314,"2650 E Hartford Ave, Phoenix, AZ 85032 ",85032,0.8284910678863525,0.8245919167995452,0.6831670377197095,249500,https://www.zillow.com/homedetails/2650-E-Hartford-Ave-Phoenix-AZ-85032/59266670_zpid/,33.6425,-112.025,6515,2017-11-02
1411087,23857976,"7130 N 82nd Ln, Glendale, AZ 85303 ",85303,0.8217031121253967,0.8312070369720459,0.6830054091004598,209900,https://www.zillow.com/homedetails/7130-N-82nd-Ln-Glendale-AZ-85303/7682942_zpid/,33.5392,-112.23700000000001,6564,2017-12-21
9022078,23810726,"1132 E Villa Maria Dr, Phoenix, AZ 85022 ",85022,0.8194681584835053,0.8330139517784119,0.6826284090549226,215000,https://www.zillow.com/homedetails/1132-E-Villa-Maria-Dr-Phoenix-AZ-85022/8002438_zpid/,33.6518,-112.057,6509,2017-10-27
1673062,23857297,"9729 W Hassayampa Dr, Sun City, AZ 85373 ",85373,0.8235825359821319,0.8288506448268891,0.6826269160169547,154900,https://www.zillow.com/homedetails/9729-W-Hassayampa-Dr-Sun-City-AZ-85373/7924400_zpid/,33.6645,-112.274,6544,2017-12-01
22933,22734467,"8739 W Fairmount Ave, Phoenix, AZ 85037 ",85037,0.832102382183075,0.8202183723449707,0.6825056615385745,170000,https://www.zillow.com/homedetails/8739-W-Fairmount-Ave-Phoenix-AZ-85037/7471067_zpid/,33.492,-112.24799999999999,6485,2017-10-03
249880,23855701,"429 E Kristal Way, Phoenix, AZ 85024 ",85024,0.8278722286224365,0.8243960320949555,0.6824945803579445,239000,https://www.zillow.com/homedetails/429-E-Kristal-Way-Phoenix-AZ-85024/7972535_zpid/,33.6609,-112.068,6547,2017-12-04
8923062,23858948,"1402 E Charleston Ave, Phoenix, AZ 85022 ",85022,0.8206920027732849,0.8312591850757599,0.6822077654235141,244900,https://www.zillow.com/homedetails/1402-E-Charleston-Ave-Phoenix-AZ-85022/8001924_zpid/,33.6491,-112.052,6564,2017-12-21
226007,23837043,"1415 W Topeka Dr, Phoenix, AZ 85027 ",85027,0.831238466501236,0.8203659534454346,0.6819197371118074,248000,https://www.zillow.com/homedetails/1415-W-Topeka-Dr-Phoenix-AZ-85027/7971784_zpid/,33.6594,-112.089,6529,2017-11-16
1859,23650472,"9128 W Alvarado St, Phoenix, AZ 85037 ",85037,0.817765337228775,0.833849436044693,0.6818931652651122,214000,https://www.zillow.com/homedetails/9128-W-Alvarado-St-Phoenix-AZ-85037/60047210_zpid/,33.4712,-112.257,6494,2017-10-12
526828,22737450,"9418 W Sheridan St, Phoenix, AZ 85037 ",85037,0.8282034456729889,0.8232335805892944,0.6818048880377658,214500,https://www.zillow.com/homedetails/9418-W-Sheridan-St-Phoenix-AZ-85037/67773035_zpid/,33.475,-112.262,6480,2017-09-28
9023161,23824406,"18235 N 39th Dr, Glendale, AZ 85308 ",85308,0.8299736380577087,0.8213687062263488,0.6817143732934361,229900,https://www.zillow.com/homedetails/18235-N-39th-Dr-Glendale-AZ-85308/2126416075_zpid/,33.6523,-112.14399999999999,6522,2017-11-09
7445518,23781525,"18009 N 89th Dr, Peoria, AZ 85382 ",85382,0.8292634129524231,0.8220538139343262,0.6816991513737355,240000,https://www.zillow.com/homedetails/18009-N-89th-Dr-Peoria-AZ-85382/8105128_zpid/,33.6473,-112.251,6280,2017-03-12
8945113,23759637,"7920 W Sweetwater Ave, Peoria, AZ 85381 ",85381,0.8143816351890564,0.8366748869419098,0.6813726625493715,229900,https://www.zillow.com/homedetails/7920-W-Sweetwater-Ave-Peoria-AZ-85381/8100881_zpid/,33.6029,-112.23,6501,2017-10-19
9025882,23860074,"7140 W Desert Cove Ave, Peoria, AZ 85345 ",85345,0.8356781780719758,0.8153105616569519,0.6813372447283208,247500,https://www.zillow.com/homedetails/7140-W-Desert-Cove-Ave-Peoria-AZ-85345/7701093_zpid/,33.585,-112.213,6562,2017-12-19
359220,23854837,"1816 S 84th Dr, Tolleson, AZ 85353 ",85353,0.8140253067016602,0.8368401169776917,0.6812090328830186,225000,https://www.zillow.com/homedetails/1816-S-84th-Dr-Tolleson-AZ-85353/59249294_zpid/,33.4304,-112.241,6557,2017-12-14
436097,23857124,"2311 N 91st Gln, Phoenix, AZ 85037 ",85037,0.8098502457141876,0.8408582210540771,0.6809692369314391,224650,https://www.zillow.com/homedetails/2311-N-91st-Gln-Phoenix-AZ-85037/60974969_zpid/,33.4747,-112.257,6563,2017-12-20
448988,23831998,"8504 W College Dr, Phoenix, AZ 85037 ",85037,0.8207230389118194,0.8295878648757935,0.6808618735052291,184900,https://www.zillow.com/homedetails/8504-W-College-Dr-Phoenix-AZ-85037/7483600_zpid/,33.5084,-112.243,6526,2017-11-13
43818,23819082,"8128 W Papago St, Phoenix, AZ 85043 ",85043,0.8159094274044036,0.8343768060207367,0.6807759020398945,199900,https://www.zillow.com/homedetails/8128-W-Papago-St-Phoenix-AZ-85043/60047290_zpid/,33.4345,-112.235,6515,2017-11-02
1092802,23820224,"731 W Palomino Dr, Chandler, AZ 85225 ",85225,0.8117183983325958,0.8385204195976257,0.680642451964961,245900,https://www.zillow.com/homedetails/731-W-Palomino-Dr-Chandler-AZ-85225/8177603_zpid/,33.3404,-111.855,6516,2017-11-03
1409866,23835277,"7017 N 77th Dr, Glendale, AZ 85303 ",85303,0.8206576943397522,0.8292541861534118,0.6805338284302467,215000,https://www.zillow.com/homedetails/7017-N-77th-Dr-Glendale-AZ-85303/55260208_zpid/,33.5385,-112.225,6529,2017-11-16
8969477,23756066,"9324 W Mountain View Rd, Peoria, AZ 85345 ",85345,0.8143816351890564,0.8356384098529815,0.680528574642854,214000,https://www.zillow.com/homedetails/9324-W-Mountain-View-Rd-Peoria-AZ-85345/7697441_zpid/,33.5733,-112.26100000000001,6500,2017-10-18
972401,23856826,"5810 W Frye Rd, Chandler, AZ 85226 ",85226,0.8149994969367981,0.8349076926708221,0.6804493495153828,207000,https://www.zillow.com/homedetails/5810-W-Frye-Rd-Chandler-AZ-85226/8262620_zpid/,33.2971,-111.943,6561,2017-12-18
1407463,23859178,"6826 N 77th Ln, Glendale, AZ 85303 ",85303,0.8254905045032501,0.8242813467979431,0.6804364248208525,214500,https://www.zillow.com/homedetails/6826-N-77th-Ln-Glendale-AZ-85303/7463040_zpid/,33.5363,-112.227,6544,2017-12-01
1114416,23820184,"1617 W Stottler Dr, Chandler, AZ 85224 ",85224,0.8131126582622528,0.8366350710391999,0.6802785666081125,229900,https://www.zillow.com/homedetails/1617-W-Stottler-Dr-Chandler-AZ-85224/8193816_zpid/,33.3325,-111.87,6516,2017-11-03
450552,22126108,"8733 W Indianola Ave, Phoenix, AZ 85037 ",85037,0.8355405032634735,0.8141183853149414,0.6802288853820926,169900,https://www.zillow.com/homedetails/8733-W-Indianola-Ave-Phoenix-AZ-85037/7470962_zpid/,33.4911,-112.24799999999999,6325,2017-04-26
242590,22686911,"3202 W Angela Dr, Phoenix, AZ 85053 ",85053,0.8326335310935974,0.8167468667030334,0.6800508276325784,234900,https://www.zillow.com/homedetails/3202-W-Angela-Dr-Phoenix-AZ-85053/7942083_zpid/,33.6461,-112.12799999999999,6464,2017-09-12
1113142,23855230,"1515 W El Monte Pl, Chandler, AZ 85224 ",85224,0.8084772109985352,0.8410173773765564,0.6799433836627009,225000,https://www.zillow.com/homedetails/1515-W-El-Monte-Pl-Chandler-AZ-85224/8199632_zpid/,33.3377,-111.869,6552,2017-12-09
350009,23781671,"18518 N 20th Pl, Phoenix, AZ 85022 ",85022,0.8333427727222442,0.8158714652061463,0.67990058899985,225000,https://www.zillow.com/homedetails/18518-N-20th-Pl-Phoenix-AZ-85022/61629214_zpid/,33.6544,-112.038,6286,2017-03-18
9025869,23860030,"11848 N 79th Dr, Peoria, AZ 85345 ",85345,0.8320786356925964,0.8166885673999786,0.6795491089479153,215000,https://www.zillow.com/homedetails/11848-N-79th-Dr-Peoria-AZ-85345/2091778016_zpid/,33.5928,-112.23,6557,2017-12-14
629569,23853723,"1645 W Peralta Ave, Mesa, AZ 85202 ",85202,0.8149994969367981,0.8336258351802825,0.6794046363054485,222900,https://www.zillow.com/homedetails/1645-W-Peralta-Ave-Mesa-AZ-85202/8191627_zpid/,33.3572,-111.87,6553,2017-12-10
629600,23810385,"1646 W Pecos Ave, Mesa, AZ 85202 ",85202,0.8209988474845886,0.8275245070457459,0.6793966665498097,214900,https://www.zillow.com/homedetails/1646-W-Pecos-Ave-Mesa-AZ-85202/8191480_zpid/,33.3602,-111.87,6509,2017-10-27
345142,23753531,"1739 E Bluefield Ave, Phoenix, AZ 85022 ",85022,0.8281338095664978,0.8203552782535553,0.6793639417781011,224900,https://www.zillow.com/homedetails/1739-E-Bluefield-Ave-Phoenix-AZ-85022/8001407_zpid/,33.6526,-112.044,6498,2017-10-16
9025872,23860172,"15168 N 90th Ln, Peoria, AZ 85381 ",85381,0.8346117615699769,0.8138683378696442,0.6792640871554129,218700,https://www.zillow.com/homedetails/15168-N-90th-Ln-Peoria-AZ-85381/7908827_zpid/,33.6229,-112.25399999999999,6546,2017-12-03
7450963,23779216,"13854 N 91st Dr, Peoria, AZ 85381 ",85381,0.8366122364997863,0.8118709862232208,0.679221201533496,225000,https://www.zillow.com/homedetails/13854-N-91st-Dr-Peoria-AZ-85381/7908457_zpid/,33.6103,-112.256,6284,2017-03-16
9021871,23807926,"12120 N 89th Dr, Peoria, AZ 85345 ",85345,0.8227482199668884,0.8254330158233643,0.6791235444705733,249900,https://www.zillow.com/homedetails/12120-N-89th-Dr-Peoria-AZ-85345/7685583_zpid/,33.5947,-112.25200000000001,6507,2017-10-25
9024365,23853286,"7311 W Coolidge St, Phoenix, AZ 85033 ",85033,0.8267878472805024,0.8213024735450745,0.6790429040684839,187000,https://www.zillow.com/homedetails/7311-W-Coolidge-St-Phoenix-AZ-85033/7710938_zpid/,33.5038,-112.21600000000001,6535,2017-11-22
445188,23853143,"4627 N 91st Dr, Phoenix, AZ 85037 ",85037,0.8162627458572388,0.8317099571228027,0.6788938533578652,240000,https://www.zillow.com/homedetails/4627-N-91st-Dr-Phoenix-AZ-85037/7466477_zpid/,33.5051,-112.256,6551,2017-12-08
1406612,23791492,"6765 N 74th Dr, Glendale, AZ 85303 ",85303,0.8335554957389831,0.8143863618373871,0.6788362275644301,210000,https://www.zillow.com/homedetails/6765-N-74th-Dr-Glendale-AZ-85303/14094753_zpid/,33.5349,-112.22,6283,2017-03-15
527415,23853531,"9437 W Terri Lee Dr, Phoenix, AZ 85037 ",85037,0.8098502457141876,0.8381815016269684,0.6788014950456871,205000,https://www.zillow.com/homedetails/9437-W-Terri-Lee-Dr-Phoenix-AZ-85037/67764458_zpid/,33.4667,-112.264,6539,2017-11-26
976591,23840164,"803 N Laveen Dr, Chandler, AZ 85226 ",85226,0.806977492570877,0.8410431265830993,0.6787028734340003,240000,https://www.zillow.com/homedetails/803-N-Laveen-Dr-Chandler-AZ-85226/8264997_zpid/,33.3165,-111.91,6535,2017-11-22
8958977,23756263,"2545 E Piute Ave, Phoenix, AZ 85050 ",85050,0.8310515403747558,0.8166346073150634,0.6786654483325173,159000,https://www.zillow.com/homedetails/2545-E-Piute-Ave-Phoenix-AZ-85050/7994601_zpid/,33.6629,-112.027,6495,2017-10-13
448364,23512346,"8402 W Fairmount Ave, Phoenix, AZ 85037 ",85037,0.8274226725101471,0.8201023578643799,0.6785712846760182,170000,https://www.zillow.com/homedetails/8402-W-Fairmount-Ave-Phoenix-AZ-85037/7470144_zpid/,33.4902,-112.24,6492,2017-10-10
1421999,23820040,"8134 W Mclellan Rd, Glendale, AZ 85303 ",85303,0.8143816351890564,0.8331106603145599,0.6784700218404058,222500,https://www.zillow.com/homedetails/8134-W-Mclellan-Rd-Glendale-AZ-85303/7462575_zpid/,33.5326,-112.235,6516,2017-11-03
9019224,23831968,"8005 W Shaw Butte Dr, Peoria, AZ 85345 ",85345,0.817255687713623,0.830081582069397,0.6783888942125372,225500,https://www.zillow.com/homedetails/8005-W-Shaw-Butte-Dr-Peoria-AZ-85345/7680677_zpid/,33.5951,-112.23100000000001,6527,2017-11-14
237449,23848566,"1633 W Michigan Ave, Phoenix, AZ 85023 ",85023,0.8267409563064575,0.8203780174255371,0.6782401066591842,202900,https://www.zillow.com/homedetails/1633-W-Michigan-Ave-Phoenix-AZ-85023/7957245_zpid/,33.6508,-112.095,6548,2017-12-05
9025900,23860183,"7635 W Desert Cove Ave, Peoria, AZ 85345 ",85345,0.8346117615699769,0.8126292049884796,0.6782298922786447,178000,https://www.zillow.com/homedetails/7635-W-Desert-Cove-Ave-Peoria-AZ-85345/7681678_zpid/,33.5849,-112.22399999999999,6537,2017-11-24
1075269,23849641,"1803 N Cheri Lynn Dr, Chandler, AZ 85225 ",85225,0.8149994969367981,0.8321189880371094,0.6781765566418017,229900,https://www.zillow.com/homedetails/1803-N-Cheri-Lynn-Dr-Chandler-AZ-85225/8183501_zpid/,33.3321,-111.853,6550,2017-12-07
1415032,23792388,"7420 N 69th Ln, Glendale, AZ 85303 ",85303,0.8368751108646393,0.8102173030376434,0.6780506953040768,185000,https://www.zillow.com/homedetails/7420-N-69th-Ln-Glendale-AZ-85303/7704959_zpid/,33.5444,-112.21,6235,2017-01-26
1960784,22678331,"7424 W Minnezona Ave, Phoenix, AZ 85033 ",85033,0.8353853762149811,0.8115608096122742,0.6779660322592843,175000,https://www.zillow.com/homedetails/7424-W-Minnezona-Ave-Phoenix-AZ-85033/7710976_zpid/,33.5028,-112.219,6467,2017-09-15
1421352,23835289,"8016 W Sierra Vista Dr, Glendale, AZ 85303 ",85303,0.8143816351890564,0.8324644029140472,0.6779437216818233,235000,https://www.zillow.com/homedetails/8016-W-Sierra-Vista-Dr-Glendale-AZ-85303/7462651_zpid/,33.5314,-112.23299999999999,6528,2017-11-15
353592,23843404,"7913 W Whyman Ave, Phoenix, AZ 85043 ",85043,0.8140253067016602,0.8326437532901764,0.6777930866452573,229900,https://www.zillow.com/homedetails/7913-W-Whyman-Ave-Phoenix-AZ-85043/23725365_zpid/,33.4271,-112.23100000000001,6542,2017-11-29
524930,22304530,"9134 W Vernon Ave, Phoenix, AZ 85037 ",85037,0.8118776619434357,0.834779703617096,0.6777389940104821,249000,https://www.zillow.com/homedetails/9134-W-Vernon-Ave-Phoenix-AZ-85037/67764424_zpid/,33.473,-112.257,6401,2017-07-11
9025891,23860135,"8837 W Paradise Dr, Peoria, AZ 85345 ",85345,0.8346117615699769,0.81188183426857,0.6776061278855552,229950,https://www.zillow.com/homedetails/8837-W-Paradise-Dr-Peoria-AZ-85345/7685700_zpid/,33.5941,-112.25,6558,2017-12-15
9023033,23823351,"437 E Wescott Dr, Phoenix, AZ 85024 ",85024,0.8299736380577087,0.8163759350776673,0.6775705048591754,225000,https://www.zillow.com/homedetails/437-E-Wescott-Dr-Phoenix-AZ-85024/2092120604_zpid/,33.6585,-112.068,6521,2017-11-08
446554,23770921,"4817 N 92nd Dr, Phoenix, AZ 85037 ",85037,0.8282034456729889,0.8180938541889191,0.6775481489231585,218000,http://www.zillow.com/homedetails/4817-N-92nd-Dr-Phoenix-AZ-85037/7466453_zpid,33.5076,-112.258,6266,2017-02-26
1374907,23793911,"9008 W Nicolet Ave, Glendale, AZ 85305 ",85305,0.8290620923042298,0.8172054648399353,0.6775140725226474,231798,https://www.zillow.com/homedetails/9008-W-Nicolet-Ave-Glendale-AZ-85305/95082341_zpid/,33.5415,-112.25299999999999,6263,2017-02-23
9019482,23822508,"8505 W Oraibi Dr, Peoria, AZ 85382 ",85382,0.8298892319202423,0.8162530720233917,0.6773996349940308,240000,https://www.zillow.com/homedetails/8505-W-Oraibi-Dr-Peoria-AZ-85382/8105887_zpid/,33.6616,-112.242,6518,2017-11-05
9022833,23859108,"8602 W Roma Ave, Phoenix, AZ 85037 ",85037,0.8162188351154327,0.8297187030315399,0.6772320332618912,235000,https://www.zillow.com/homedetails/8602-W-Roma-Ave-Phoenix-AZ-85037/7480533_zpid/,33.5006,-112.245,6569,2017-12-26
8976262,22541368,"2918 E Nisbet Ct, Phoenix, AZ 85032 ",85032,0.8326335310935974,0.8132583379745484,0.6771461616390585,219500,https://www.zillow.com/homedetails/2918-E-Nisbet-Ct-Phoenix-AZ-85032/8011642_zpid/,33.6234,-112.01899999999999,6440,2017-08-19
255668,23837407,"412 W Sandra Ter, Phoenix, AZ 85023 ",85023,0.8140113830566407,0.8314449310302734,0.676805638243386,229999,https://www.zillow.com/homedetails/412-W-Sandra-Ter-Phoenix-AZ-85023/7965434_zpid/,33.6344,-112.08,6533,2017-11-20
2193730,23774667,"8021 W Roma Ave, Phoenix, AZ 85033 ",85033,0.8384035468101502,0.8071133553981781,0.6766866998436738,151000,http://www.zillow.com/homedetails/8021-W-Roma-Ave-Phoenix-AZ-85033/7481703_zpid/,33.5004,-112.23200000000001,6278,2017-03-10
451535,23821794,"8801 W Mariposa St, Phoenix, AZ 85037 ",85037,0.8207230389118194,0.824447774887085,0.676643283229416,179900,https://www.zillow.com/homedetails/8801-W-Mariposa-St-Phoenix-AZ-85037/7483286_zpid/,33.5074,-112.249,6514,2017-11-01
9022117,23811077,"15145 N 86th Dr, Peoria, AZ 85381 ",85381,0.8131126582622528,0.8320807933807373,0.6765754257947756,209900,https://www.zillow.com/homedetails/15145-N-86th-Dr-Peoria-AZ-85381/7908510_zpid/,33.6217,-112.245,6509,2017-10-27
9006564,23814082,"16612 N 28th Way, Phoenix, AZ 85032 ",85032,0.8285830020904541,0.8164339661598206,0.6764833066893203,194900,https://www.zillow.com/homedetails/16612-N-28th-Way-Phoenix-AZ-85032/8005824_zpid/,33.6376,-112.021,6511,2017-10-29
422412,23760087,"6622 W Golden Ln, Glendale, AZ 85302 ",85302,0.8309532642364502,0.8140177130699158,0.6764106758217366,190000,https://www.zillow.com/homedetails/6622-W-Golden-Ln-Glendale-AZ-85302/50187805_zpid/,33.5652,-112.20200000000001,6502,2017-10-20
8991893,23837557,"9352 W Jefferson St, Tolleson, AZ 85353 ",85353,0.8299018442630768,0.81503546833992,0.6763994383151202,229900,https://www.zillow.com/homedetails/9352-W-Jefferson-St-Tolleson-AZ-85353/7460100_zpid/,33.4464,-112.26100000000001,6533,2017-11-20
9023660,23829074,"3140 E Michigan Ave, Phoenix, AZ 85032 ",85032,0.8285830020904541,0.8161463022232056,0.6762449532411268,205000,https://www.zillow.com/homedetails/3140-E-Michigan-Ave-Phoenix-AZ-85032/7999282_zpid/,33.652,-112.014,6523,2017-11-10
447418,23856851,"8311 W Coolidge St, Phoenix, AZ 85037 ",85037,0.8254905045032501,0.8191873967647553,0.6762314174380419,189900,https://www.zillow.com/homedetails/8311-W-Coolidge-St-Phoenix-AZ-85037/7480994_zpid/,33.5048,-112.238,6560,2017-12-17
8985924,22488235,"7609 W Avalon Dr, Phoenix, AZ 85033 ",85033,0.8333759605884552,0.8113914787769317,0.6761941530390126,190000,https://www.zillow.com/homedetails/7609-W-Avalon-Dr-Phoenix-AZ-85033/7469546_zpid/,33.4829,-112.223,6426,2017-08-05
8989019,22747254,"2049 N 77th Gln, Phoenix, AZ 85035 ",85035,0.8304616808891296,0.8140975594520569,0.6760768276302933,168250,https://www.zillow.com/homedetails/2049-N-77th-Gln-Phoenix-AZ-85035/95149994_zpid/,33.4706,-112.226,6487,2017-10-05
9023241,23843236,"7710 W Cheryl Dr, Peoria, AZ 85345 ",85345,0.8186689972877502,0.8258003294467926,0.6760571276680994,194900,https://www.zillow.com/homedetails/7710-W-Cheryl-Dr-Peoria-AZ-85345/7682371_zpid/,33.5776,-112.225,6539,2017-11-26
8944889,23859969,"8231 W Westview Dr, Phoenix, AZ 85033 ",85033,0.8171847999095917,0.8272619545459747,0.6760258947984701,219900,https://www.zillow.com/homedetails/8231-W-Westview-Dr-Phoenix-AZ-85033/7481828_zpid/,33.4965,-112.238,6566,2017-12-23
1412890,23846613,"7253 W Aurelius Ave, Glendale, AZ 85303 ",85303,0.8189701974391937,0.8252244472503663,0.6758342284962819,219900,https://www.zillow.com/homedetails/7253-W-Aurelius-Ave-Glendale-AZ-85303/95170805_zpid/,33.5399,-112.214,6543,2017-11-30
422454,22731449,"6652 W Delmonico Ln, Glendale, AZ 85302 ",85302,0.8393074214458466,0.8050227105617523,0.6756615354069304,235000,https://www.zillow.com/homedetails/6652-W-Delmonico-Ln-Glendale-AZ-85302/50187742_zpid/,33.5645,-112.20200000000001,6481,2017-09-29
9018704,22731861,"13229 N 99th Dr, Sun City, AZ 85351 ",85351,0.843378072977066,0.801048630475998,0.675586850331765,152500,https://www.zillow.com/homedetails/13229-N-99th-Dr-Sun-City-AZ-85351/7914996_zpid/,33.6055,-112.27,6481,2017-09-29
446458,23845609,"4811 N 84th Ln, Phoenix, AZ 85037 ",85037,0.8267878472805024,0.8170959055423737,0.6755649647650919,155000,https://www.zillow.com/homedetails/4811-N-84th-Ln-Phoenix-AZ-85037/7481137_zpid/,33.5075,-112.242,6543,2017-11-30
484854,23817893,"2833 N 73rd Dr, Phoenix, AZ 85035 ",85035,0.8155699849128724,0.8283064603805542,0.6755418873958033,190000,https://www.zillow.com/homedetails/2833-N-73rd-Dr-Phoenix-AZ-85035/92692586_zpid/,33.4796,-112.21600000000001,6514,2017-11-01
7381600,22218425,"4317 N 72nd Dr, Phoenix, AZ 85033 ",85033,0.8333759605884552,0.8105521261692047,0.6754946567532757,190000,https://www.zillow.com/homedetails/4317-N-72nd-Dr-Phoenix-AZ-85033/7711467_zpid/,33.4989,-112.214,6377,2017-06-17
433071,23853324,"7217 W Sunderland Ave, Phoenix, AZ 85033 ",85033,0.8267878472805024,0.8169048964977265,0.6754070408082569,182000,https://www.zillow.com/homedetails/7217-W-Sunderland-Ave-Phoenix-AZ-85033/55257159_zpid/,33.4887,-112.215,6551,2017-12-08
8970849,23830064,"3715 E Delcoa Dr, Phoenix, AZ 85032 ",85032,0.8285830020904541,0.8150385975837707,0.6753271280055543,220000,https://www.zillow.com/homedetails/3715-E-Delcoa-Dr-Phoenix-AZ-85032/7813615_zpid/,33.6109,-112.00200000000001,6507,2017-10-25
225855,23847348,"1461 E Renee Dr, Phoenix, AZ 85024 ",85024,0.806977492570877,0.8368330359458923,0.6753054250480908,249000,https://www.zillow.com/homedetails/1461-E-Renee-Dr-Phoenix-AZ-85024/7996071_zpid/,33.6554,-112.05,6545,2017-12-02
8982670,23842974,"1934 N Iowa St, Chandler, AZ 85225 ",85225,0.8180262506008148,0.8255100429058075,0.6752888852315555,212500,https://www.zillow.com/homedetails/1934-N-Iowa-St-Chandler-AZ-85225/8182675_zpid/,33.3331,-111.85,6540,2017-11-27
483296,23753434,"2625 N 73rd Dr, Phoenix, AZ 85035 ",85035,0.822344571352005,0.8209516167640686,0.6751051053885835,225000,https://www.zillow.com/homedetails/2625-N-73rd-Dr-Phoenix-AZ-85035/95093273_zpid/,33.4771,-112.21600000000001,6459,2017-09-07
1372616,23837733,"8549 W Tuckey Ln, Glendale, AZ 85305 ",85305,0.8084772109985352,0.8347339928150177,0.6748634104367568,206000,https://www.zillow.com/homedetails/8549-W-Tuckey-Ln-Glendale-AZ-85305/7461499_zpid/,33.533,-112.245,6532,2017-11-19
450692,23753402,"8742 W Edgemont Ave, Phoenix, AZ 85037 ",85037,0.824741518497467,0.8180881917476654,0.6747112975268166,190000,https://www.zillow.com/homedetails/8742-W-Edgemont-Ave-Phoenix-AZ-85037/7473770_zpid/,33.4794,-112.249,6494,2017-10-12
9023485,23827312,"9509 W Greenway Rd, Sun City, AZ 85351 ",85351,0.8281830608844757,0.8146730124950409,0.6746983891081196,244900,https://www.zillow.com/homedetails/9509-W-Greenway-Rd-Sun-City-AZ-85351/7921752_zpid/,33.6226,-112.264,6524,2017-11-11
640835,22743106,"622 W Portobello Ave, Mesa, AZ 85210 ",85210,0.8139293015003204,0.8288999557495117,0.6746659619968466,240000,https://www.zillow.com/homedetails/622-W-Portobello-Ave-Mesa-AZ-85210/8190949_zpid/,33.3608,-111.84700000000001,6488,2017-10-06
1413516,22924606,"7311 N 73rd Dr, Glendale, AZ 85303 ",85303,0.823321133852005,0.8191091477870941,0.6743898723046199,248700,https://www.zillow.com/homedetails/7311-N-73rd-Dr-Glendale-AZ-85303/59270763_zpid/,33.5425,-112.21600000000001,6489,2017-10-07
251306,23858190,"533 E Taro Ln, Phoenix, AZ 85024 ",85024,0.8278722286224365,0.8145992398262024,0.6743840881090608,239000,https://www.zillow.com/homedetails/533-E-Taro-Ln-Phoenix-AZ-85024/7972372_zpid/,33.6591,-112.066,6564,2017-12-21
1957660,22533361,"3809 W Hartford Ave, Glendale, AZ 85308 ",85308,0.8326335310935974,0.8098494350910187,0.67430779479399,189900,https://www.zillow.com/homedetails/3809-W-Hartford-Ave-Glendale-AZ-85308/7947331_zpid/,33.641999999999996,-112.141,6220,2017-01-11
423456,22436549,"8633 N 55th Ave, Glendale, AZ 85302 ",85302,0.8353853762149811,0.8069973766803742,0.6741538071226372,174000,https://www.zillow.com/homedetails/8633-N-55th-Ave-Glendale-AZ-85302/7733817_zpid/,33.5637,-112.178,6419,2017-07-29
640201,23837467,"613 W Peralta Ave, Mesa, AZ 85210 ",85210,0.8180262506008148,0.8240598440170288,0.6741025844719424,229000,https://www.zillow.com/homedetails/613-W-Peralta-Ave-Mesa-AZ-85210/8190639_zpid/,33.3572,-111.84700000000001,6533,2017-11-20
244295,23848574,"1923 W Faria Ln, Phoenix, AZ 85023 ",85023,0.8248736381530761,0.817188972234726,0.6740776405858315,219900,https://www.zillow.com/homedetails/1923-W-Faria-Ln-Phoenix-AZ-85023/81954539_zpid/,33.6313,-112.101,6548,2017-12-05
9025886,23860116,"8342 W Dreyfus Dr, Peoria, AZ 85381 ",85381,0.8360818743705749,0.805940967798233,0.6738326349887818,239500,https://www.zillow.com/homedetails/8342-W-Dreyfus-Dr-Peoria-AZ-85381/7914250_zpid/,33.6034,-112.23899999999999,6537,2017-11-24
9025883,23860108,"7436 W Beryl Ave, Peoria, AZ 85345 ",85345,0.8346117615699769,0.8071367561817169,0.6736458299046997,198900,https://www.zillow.com/homedetails/7436-W-Beryl-Ave-Peoria-AZ-85345/7705847_zpid/,33.5785,-112.219,6557,2017-12-14
450270,23853373,"8713 W Wilshire Dr, Phoenix, AZ 85037 ",85037,0.8131126582622528,0.8283806145191193,0.6735667635245596,200000,https://www.zillow.com/homedetails/8713-W-Wilshire-Dr-Phoenix-AZ-85037/7473941_zpid/,33.4756,-112.24700000000001,6526,2017-11-13
1412767,23846610,"7238 W Ocotillo Rd, Glendale, AZ 85303 ",85303,0.8162627458572388,0.8250137031078338,0.6734279506686492,245000,https://www.zillow.com/homedetails/7238-W-Ocotillo-Rd-Glendale-AZ-85303/67800379_zpid/,33.5344,-112.215,6543,2017-11-30
976127,23846057,"734 N Tangerine Dr, Chandler, AZ 85226 ",85226,0.8068759381771088,0.8345458984375,0.673375004753616,204900,https://www.zillow.com/homedetails/734-N-Tangerine-Dr-Chandler-AZ-85226/8156625_zpid/,33.3162,-111.928,6544,2017-12-01
9020875,23856264,"319 W Utopia Rd, Phoenix, AZ 85027 ",85027,0.8301396906375885,0.8109896004199981,0.6732346560029587,229900,https://www.zillow.com/homedetails/319-W-Utopia-Rd-Phoenix-AZ-85027/7968688_zpid/,33.6617,-112.079,6558,2017-12-15
233618,23858614,"18243 N 31st Ave, Phoenix, AZ 85053 ",85053,0.8258895814418793,0.8151362478733063,0.673212534574189,210776,https://www.zillow.com/homedetails/18243-N-31st-Ave-Phoenix-AZ-85053/7940528_zpid/,33.6526,-112.126,6566,2017-12-23
1096718,23832148,"884 W Dublin St, Chandler, AZ 85225 ",85225,0.8143816351890564,0.8266406178474426,0.6732009380762921,235000,https://www.zillow.com/homedetails/884-W-Dublin-St-Chandler-AZ-85225/8186411_zpid/,33.3188,-111.85799999999999,6526,2017-11-13
400927,23856414,"11014 N 59th Ln, Glendale, AZ 85304 ",85304,0.8109457194805145,0.8301056623458862,0.6731706335959338,230000,https://www.zillow.com/homedetails/11014-N-59th-Ln-Glendale-AZ-85304/7698599_zpid/,33.5861,-112.18799999999999,6555,2017-12-12
9023482,23827286,"15606 N 99th Dr, Sun City, AZ 85351 ",85351,0.8297061681747436,0.8108859181404113,0.6727970479671396,192500,https://www.zillow.com/homedetails/15606-N-99th-Dr-Sun-City-AZ-85351/2092083796_zpid/,33.6257,-112.271,6526,2017-11-13
1109968,23827087,"1231 W Tulsa St, Chandler, AZ 85224 ",85224,0.8191185474395752,0.8213124752044678,0.6727522816834859,245000,https://www.zillow.com/homedetails/1231-W-Tulsa-St-Chandler-AZ-85224/8185626_zpid/,33.3123,-111.865,6524,2017-11-11
445578,23843131,"4653 N 99th Dr, Phoenix, AZ 85037 ",85037,0.8082789778709412,0.8322834253311158,0.67271719632556,200000,https://www.zillow.com/homedetails/4653-N-99th-Dr-Phoenix-AZ-85037/7484444_zpid/,33.5037,-112.273,6534,2017-11-21
449920,23845945,"8630 W Osborn Rd, Phoenix, AZ 85037 ",85037,0.8162188351154327,0.8237884223461152,0.6723916264689263,194900,https://www.zillow.com/homedetails/8630-W-Osborn-Rd-Phoenix-AZ-85037/7469964_zpid/,33.4873,-112.245,6538,2017-11-25
449130,23853327,"8517 W Fairmount Ave, Phoenix, AZ 85037 ",85037,0.8162188351154327,0.8237884223461152,0.6723916264689263,198500,https://www.zillow.com/homedetails/8517-W-Fairmount-Ave-Phoenix-AZ-85037/7469756_zpid/,33.4915,-112.243,6543,2017-11-30
9021086,23815044,"8137 W Aster Dr, Peoria, AZ 85381 ",85381,0.8202149868011475,0.8196710824966431,0.6723065061112664,239000,https://www.zillow.com/homedetails/8137-W-Aster-Dr-Peoria-AZ-85381/8100990_zpid/,33.6013,-112.235,6512,2017-10-30
9023487,23827316,"9924 W Pleasant Valley Rd, Sun City, AZ 85351 ",85351,0.8289844632148743,0.8109388291835785,0.6722556900108475,185400,https://www.zillow.com/homedetails/9924-W-Pleasant-Valley-Rd-Sun-City-AZ-85351/7905882_zpid/,33.6249,-112.273,6526,2017-11-13
244488,23837399,"1935 W Davis Rd, Phoenix, AZ 85023 ",85023,0.8248736381530761,0.8141782879829407,0.6715942065137313,199500,https://www.zillow.com/homedetails/1935-W-Davis-Rd-Phoenix-AZ-85023/81978440_zpid/,33.632,-112.101,6533,2017-11-20
244592,23844425,"1941 W Faria Ln, Phoenix, AZ 85023 ",85023,0.8248736381530761,0.8141782879829407,0.6715942065137313,194998,https://www.zillow.com/homedetails/1941-W-Faria-Ln-Phoenix-AZ-85023/81954546_zpid/,33.6312,-112.101,6543,2017-11-30
451862,23853443,"8820 W Heatherbrae Dr, Phoenix, AZ 85037 ",85037,0.8149994969367981,0.8238509953022003,0.6714381467221736,197900,https://www.zillow.com/homedetails/8820-W-Heatherbrae-Dr-Phoenix-AZ-85037/7467138_zpid/,33.4973,-112.25,6552,2017-12-09
8984109,23843223,"7426 W Carol Ave, Peoria, AZ 85345 ",85345,0.8186689972877502,0.8199551463127136,0.6712718574527597,195000,https://www.zillow.com/homedetails/7426-W-Carol-Ave-Peoria-AZ-85345/7702134_zpid/,33.5726,-112.219,6537,2017-11-24
261479,23789366,"4757 W Topeka Dr, Glendale, AZ 85308 ",85308,0.8326335310935974,0.8059708595275878,0.6710783627269973,225000,https://www.zillow.com/homedetails/4757-W-Topeka-Dr-Glendale-AZ-85308/7939742_zpid/,33.6603,-112.164,6302,2017-04-03
501018,22711998,"7420 W Alvarado Rd, Phoenix, AZ 85035 ",85035,0.8403640389442444,0.7985257267951965,0.6710523049704996,119900,https://www.zillow.com/homedetails/7420-W-Alvarado-Rd-Phoenix-AZ-85035/7474905_zpid/,33.4717,-112.22,6475,2017-09-23
452056,23828606,"8831 W Mariposa St, Phoenix, AZ 85037 ",85037,0.8131126582622528,0.825204050540924,0.6709838591441092,214900,https://www.zillow.com/homedetails/8831-W-Mariposa-St-Phoenix-AZ-85037/7483281_zpid/,33.5074,-112.25,6516,2017-11-03
523313,23853404,"9025 W Mulberry Dr, Phoenix, AZ 85037 ",85037,0.8149994969367981,0.823245745897293,0.6709448687616529,185000,https://www.zillow.com/homedetails/9025-W-Mulberry-Dr-Phoenix-AZ-85037/92351474_zpid/,33.486,-112.25399999999999,6530,2017-11-17
230822,23837058,"19206 N 4th St, Phoenix, AZ 85024 ",85024,0.8294379115104675,0.8088782370090485,0.6709142755710541,225000,https://www.zillow.com/homedetails/19206-N-4th-St-Phoenix-AZ-85024/7972304_zpid/,33.6605,-112.07,6529,2017-11-16
243119,22391945,"18226 N 10th Dr, Phoenix, AZ 85023 ",85023,0.8228399097919464,0.8150345742702484,0.6706429755698486,225000,https://www.zillow.com/homedetails/18226-N-10th-Dr-Phoenix-AZ-85023/7956715_zpid/,33.652,-112.086,6401,2017-07-11
1665023,22711430,"17403 N Hitching Post Dr, Sun City, AZ 85373 ",85373,0.8381095349788665,0.7999659061431885,0.6704590535966153,243000,https://www.zillow.com/homedetails/17403-N-Hitching-Post-Dr-Sun-City-AZ-85373/7898070_zpid/,33.6412,-112.266,6474,2017-09-22
413653,23822290,"6114 W Shaw Butte Dr, Glendale, AZ 85304 ",85304,0.8284595668315887,0.8091939628124237,0.6703844799143173,249999,https://www.zillow.com/homedetails/6114-W-Shaw-Butte-Dr-Glendale-AZ-85304/7698065_zpid/,33.596,-112.191,6519,2017-11-06
244451,23841407,"1933 W Davis Rd, Phoenix, AZ 85023 ",85023,0.8257651686668396,0.8117692291736602,0.6703307544471379,200000,https://www.zillow.com/homedetails/1933-W-Davis-Rd-Phoenix-AZ-85023/81995109_zpid/,33.6318,-112.101,6537,2017-11-24
1406108,23854359,"6734 N 77th Dr, Glendale, AZ 85303 ",85303,0.8109457194805145,0.8264070093631745,0.6701712267917598,233000,https://www.zillow.com/homedetails/6734-N-77th-Dr-Glendale-AZ-85303/7463022_zpid/,33.5345,-112.226,6555,2017-12-12
450658,23828592,"8740 W Earll Dr, Phoenix, AZ 85037 ",85037,0.8221491873264313,0.8147265434265136,0.6698267655713805,129999,https://www.zillow.com/homedetails/8740-W-Earll-Dr-Phoenix-AZ-85037/7479995_zpid/,33.4838,-112.249,6509,2017-10-27
8988814,23756130,"14221 N Bolivar Dr, Sun City, AZ 85351 ",85351,0.8290450751781464,0.8077468276023865,0.6696585294145297,235000,https://www.zillow.com/homedetails/14221-N-Bolivar-Dr-Sun-City-AZ-85351/7908141_zpid/,33.6128,-112.26,6495,2017-10-13
225687,23849553,"1306 W Charleston Ave, Phoenix, AZ 85023 ",85023,0.826770955324173,0.80991889834404,0.6696174213190037,245000,https://www.zillow.com/homedetails/1306-W-Charleston-Ave-Phoenix-AZ-85023/7956977_zpid/,33.6491,-112.09,6550,2017-12-07
225614,23844378,"1303 W Michelle Dr, Phoenix, AZ 85023 ",85023,0.826770955324173,0.80991889834404,0.6696174213190037,249900,https://www.zillow.com/homedetails/1303-W-Michelle-Dr-Phoenix-AZ-85023/7956957_zpid/,33.6494,-112.09,6543,2017-11-30
139877,23857282,"9806 W Wrangler Dr, Sun City, AZ 85373 ",85373,0.8235825359821319,0.8128313302993775,0.6694336883336912,184900,https://www.zillow.com/homedetails/9806-W-Wrangler-Dr-Sun-City-AZ-85373/8095456_zpid/,33.6403,-112.271,6544,2017-12-01
1093584,23859955,"781 W Del Rio St, Chandler, AZ 85225 ",85225,0.8207459568977356,0.8152662456035614,0.6691264748743193,248900,https://www.zillow.com/homedetails/781-W-Del-Rio-St-Chandler-AZ-85225/8186554_zpid/,33.3158,-111.854,6565,2017-12-22
352271,23842122,"6938 W Villa St, Phoenix, AZ 85043 ",85043,0.8189701974391937,0.8169672846794128,0.6690718584352607,165000,https://www.zillow.com/homedetails/6938-W-Villa-St-Phoenix-AZ-85043/7476296_zpid/,33.455999999999996,-112.209,6540,2017-11-27
8977160,23825434,"16231 N 91st Dr, Peoria, AZ 85382 ",85382,0.8131126582622528,0.8226059794425964,0.6688713346469936,233000,https://www.zillow.com/homedetails/16231-N-91st-Dr-Peoria-AZ-85382/2123153916_zpid/,33.6316,-112.25200000000001,6526,2017-11-13
9023869,23833553,"3749 W Angela Dr, Glendale, AZ 85308 ",85308,0.8281830608844757,0.8076113343238831,0.6688500268653491,249900,https://www.zillow.com/homedetails/3749-W-Angela-Dr-Glendale-AZ-85308/7947470_zpid/,33.6455,-112.14,6528,2017-11-15
8975652,23829621,"18232 N 26th Pl, Phoenix, AZ 85032 ",85032,0.8285830020904541,0.807185971736908,0.6688205757070677,190000,https://www.zillow.com/homedetails/18232-N-26th-Pl-Phoenix-AZ-85032/8000048_zpid/,33.6526,-112.025,6524,2017-11-11
380868,23801450,"12018 N 42nd Dr, Phoenix, AZ 85029 ",85029,0.8217662155628205,0.8137243866920472,0.6686912097631007,189000,https://www.zillow.com/homedetails/12018-N-42nd-Dr-Phoenix-AZ-85029/7744164_zpid/,33.595,-112.15100000000001,6503,2017-10-21
253328,23841415,"2435 W Paradise Ln, Phoenix, AZ 85023 ",85023,0.8335932850837707,0.8020614087581635,0.6685930045656345,225000,https://www.zillow.com/homedetails/2435-W-Paradise-Ln-Phoenix-AZ-85023/7961316_zpid/,33.6323,-112.113,6535,2017-11-22
9023962,23859982,"8819 N 67th Ln, Peoria, AZ 85345 ",85345,0.8344447910785675,0.8012200117111206,0.6685738652802534,244900,https://www.zillow.com/homedetails/8819-N-67th-Ln-Peoria-AZ-85345/50187857_zpid/,33.5661,-112.205,6569,2017-12-26
1410407,23835273,"7080 W Glenn Dr, Glendale, AZ 85303 ",85303,0.817255687713623,0.8178615152835846,0.6684019751275918,234900,https://www.zillow.com/homedetails/7080-W-Glenn-Dr-Glendale-AZ-85303/55173602_zpid/,33.5399,-112.211,6528,2017-11-15
484005,23821708,"2696 N 73rd Gln, Phoenix, AZ 85035 ",85035,0.8066416680812836,0.8283064603805542,0.6681465048838738,210000,https://www.zillow.com/homedetails/2696-N-73rd-Gln-Phoenix-AZ-85035/95155175_zpid/,33.4779,-112.21799999999999,6513,2017-10-31
440456,23828490,"8111 W College Dr, Phoenix, AZ 85033 ",85033,0.8221491873264313,0.8126510858535767,0.6681204298144601,153000,https://www.zillow.com/homedetails/8111-W-College-Dr-Phoenix-AZ-85033/7482592_zpid/,33.5078,-112.234,6507,2017-10-25
5187848,21947200,"16030 N Lakeforest Dr, Sun City, AZ 85351 ",85351,0.8395217955112457,0.7958233296871186,0.6681110306486678,239900,https://www.zillow.com/homedetails/16030-N-Lakeforest-Dr-Sun-City-AZ-85351/7923097_zpid/,33.6324,-112.272,6375,2017-06-15
228141,22578193,"1602 W Morrow Dr, Phoenix, AZ 85027 ",85027,0.8304089844226837,0.8043528497219086,0.6679418330550616,239900,https://www.zillow.com/homedetails/1602-W-Morrow-Dr-Phoenix-AZ-85027/7968856_zpid/,33.6572,-112.094,6445,2017-08-24
1665351,23819526,"17415 N Country Club Dr, Sun City, AZ 85373 ",85373,0.8303498327732086,0.8042855679988861,0.6678383868897801,235000,https://www.zillow.com/homedetails/17415-N-Country-Club-Dr-Sun-City-AZ-85373/7897399_zpid/,33.6428,-112.26,6515,2017-11-02
9025497,23853537,"8040 W Hazelwood St, Phoenix, AZ 85033 ",85033,0.8254905045032501,0.8088943183422088,0.6677345789381226,160000,https://www.zillow.com/homedetails/8040-W-Hazelwood-St-Phoenix-AZ-85033/7482724_zpid/,33.5042,-112.23299999999999,6552,2017-12-09
23626,23858260,"19237 N 4th St, Phoenix, AZ 85024 ",85024,0.8294379115104675,0.8050165712833405,0.6677112636165713,235000,https://www.zillow.com/homedetails/19237-N-4th-St-Phoenix-AZ-85024/7972456_zpid/,33.6614,-112.069,6558,2017-12-15
258179,23843719,"417 W Renee Dr, Phoenix, AZ 85027 ",85027,0.8255684673786163,0.8087758839130401,0.6676998669348743,212500,https://www.zillow.com/homedetails/417-W-Renee-Dr-Phoenix-AZ-85027/7972590_zpid/,33.6551,-112.08,6542,2017-11-29
9015636,23825624,"7118 W Sells Dr, Phoenix, AZ 85033 ",85033,0.8207230389118194,0.813536524772644,0.6676881688771651,182900,https://www.zillow.com/homedetails/7118-W-Sells-Dr-Phoenix-AZ-85033/88889219_zpid/,33.5022,-112.213,6523,2017-11-10
525075,23853525,"9142 W Palm Ln, Phoenix, AZ 85037 ",85037,0.8084772109985352,0.8254391491413117,0.6673487411467716,204000,https://www.zillow.com/homedetails/9142-W-Palm-Ln-Phoenix-AZ-85037/60047154_zpid/,33.4689,-112.257,6548,2017-12-05
9021767,23840851,"1139 W Auburn St, Mesa, AZ 85201 ",85201,0.8317436516284943,0.8022886097431183,0.6672984579276893,215000,https://www.zillow.com/homedetails/1139-W-Auburn-St-Mesa-AZ-85201/81997574_zpid/,33.4176,-111.85600000000001,6536,2017-11-23
450133,23853376,"8659 W Palm Ln, Phoenix, AZ 85037 ",85037,0.8168292224407196,0.8168433129787445,0.6672214881963292,179900,https://www.zillow.com/homedetails/8659-W-Palm-Ln-Phoenix-AZ-85037/7487502_zpid/,33.47,-112.244,6552,2017-12-09
1373435,23850162,"8759 W Peppertree Ln, Glendale, AZ 85305 ",85305,0.8087884724140167,0.8249342441558838,0.6671973071728488,249850,https://www.zillow.com/homedetails/8759-W-Peppertree-Ln-Glendale-AZ-85305/95158696_zpid/,33.5368,-112.24700000000001,6551,2017-12-08
441880,23831779,"3901 N 84th Ln, Phoenix, AZ 85037 ",85037,0.8209988474845886,0.8124543726444244,0.667024103574887,174000,https://www.zillow.com/homedetails/3901-N-84th-Ln-Phoenix-AZ-85037/67081706_zpid/,33.4925,-112.241,6526,2017-11-13
827683,22544155,"3017 N 40th Dr, Phoenix, AZ 85019 ",85019,0.8401067376136779,0.7938800692558289,0.6669439950390351,140000,https://www.zillow.com/homedetails/3017-N-40th-Dr-Phoenix-AZ-85019/7509168_zpid/,33.483000000000004,-112.146,6437,2017-08-16
633870,23848061,"1763 W Natal Ave, Mesa, AZ 85202 ",85202,0.8208001852035522,0.8125292241573334,0.6669241376716379,245000,https://www.zillow.com/homedetails/1763-W-Natal-Ave-Mesa-AZ-85202/8251610_zpid/,33.3665,-111.87200000000001,6544,2017-12-01
23746,23858679,"9447 W Virginia Ave, Phoenix, AZ 85037 ",85037,0.8179964244365692,0.8151639342308045,0.6668011835304447,189000,https://www.zillow.com/homedetails/9447-W-Virginia-Ave-Phoenix-AZ-85037/62727172_zpid/,33.4763,-112.262,6565,2017-12-22
1118623,23834612,"2101 N Tamarisk St, Chandler, AZ 85224 ",85224,0.8136565566062928,0.819497925043106,0.6667898598365755,249900,https://www.zillow.com/homedetails/2101-N-Tamarisk-St-Chandler-AZ-85224/8192386_zpid/,33.3365,-111.881,6530,2017-11-17
9021585,23824122,"12612 N 79th Ave, Peoria, AZ 85381 ",85381,0.8131126582622528,0.8200291991233826,0.6667761219518797,225000,https://www.zillow.com/homedetails/12612-N-79th-Ave-Peoria-AZ-85381/8101178_zpid/,33.5997,-112.229,6522,2017-11-09
9022517,23843319,"9918 W Oakstone Dr, Sun City, AZ 85351 ",85351,0.8206156432628632,0.812323272228241,0.6666051845769719,205000,https://www.zillow.com/homedetails/9918-W-Oakstone-Dr-Sun-City-AZ-85351/7907984_zpid/,33.6152,-112.26899999999999,6541,2017-11-28
9022548,23847697,"6803 W Cherry Hills Dr, Peoria, AZ 85345 ",85345,0.8217031121253967,0.8112410545349121,0.666599299195226,220000,https://www.zillow.com/homedetails/6803-W-Cherry-Hills-Dr-Peoria-AZ-85345/7700208_zpid/,33.5936,-112.205,6547,2017-12-04
450526,23793670,"8731 W Earll Dr, Phoenix, AZ 85037 ",85037,0.8384035468101502,0.7949450790882111,0.6664847738268316,149000,https://www.zillow.com/homedetails/8731-W-Earll-Dr-Phoenix-AZ-85037/7479986_zpid/,33.4833,-112.24799999999999,6284,2017-03-16
7513271,22492993,"9830 W Emberwood Dr, Sun City, AZ 85351 ",85351,0.8389666318893433,0.7943952083587646,0.6664710723457858,179900,https://www.zillow.com/homedetails/9830-W-Emberwood-Dr-Sun-City-AZ-85351/8096028_zpid/,33.6026,-112.26700000000001,6425,2017-08-04
9023484,23827307,"9501 W Hidden Valley Cir N, Sun City, AZ 85351 ",85351,0.8289844632148743,0.8039068937301636,0.6664263247736366,200000,https://www.zillow.com/homedetails/9501-W-Hidden-Valley-Cir-N-Sun-City-AZ-85351/7904887_zpid/,33.6359,-112.264,6522,2017-11-09
402515,23808878,"15205 N 51st Dr, Glendale, AZ 85306 ",85306,0.8217662155628205,0.8108837485313416,0.6663568692919943,189900,https://www.zillow.com/homedetails/15205-N-51st-Dr-Glendale-AZ-85306/7910980_zpid/,33.6226,-112.169,6508,2017-10-26
1373662,23843286,"8771 W Ocotillo Rd, Glendale, AZ 85305 ",85305,0.8162188351154327,0.8161956369876862,0.6661942520483878,185000,https://www.zillow.com/homedetails/8771-W-Ocotillo-Rd-Glendale-AZ-85305/7461673_zpid/,33.5332,-112.25,6540,2017-11-27
435965,23838336,"2237 N 94th Ave, Phoenix, AZ 85037 ",85037,0.8098502457141876,0.8225918471813202,0.6661762095622796,229900,https://www.zillow.com/homedetails/2237-N-94th-Ave-Phoenix-AZ-85037/67773064_zpid/,33.4752,-112.26100000000001,6534,2017-11-21
355855,23833551,"702 E Rose Marie Ln, Phoenix, AZ 85022 ",85022,0.8158992648124694,0.816337388753891,0.6660490753232307,247000,https://www.zillow.com/homedetails/702-E-Rose-Marie-Ln-Phoenix-AZ-85022/49942677_zpid/,33.6527,-112.065,6527,2017-11-14
9011928,23753384,"7411 W Wolf St, Phoenix, AZ 85033 ",85033,0.8105255782604217,0.821693617105484,0.66600369415732,229900,https://www.zillow.com/homedetails/7411-W-Wolf-St-Phoenix-AZ-85033/95184996_zpid/,33.5059,-112.219,6494,2017-10-12
639679,23857945,"606 W Laguna Azul Ave, Mesa, AZ 85210 ",85210,0.8189701974391937,0.8131213903427124,0.6659221855910029,234900,https://www.zillow.com/homedetails/606-W-Laguna-Azul-Ave-Mesa-AZ-85210/8170728_zpid/,33.3729,-111.84700000000001,6553,2017-12-10
8945979,23814510,"9605 W Campana Dr, Sun City, AZ 85351 ",85351,0.8289844632148743,0.8031800091266632,0.6658237487307848,194300,https://www.zillow.com/homedetails/9605-W-Campana-Dr-Sun-City-AZ-85351/7905011_zpid/,33.6372,-112.26700000000001,6512,2017-10-30
1404598,23856830,"6113 N 71st Ln, Glendale, AZ 85303 ",85303,0.8263577997684479,0.8056783735752105,0.6657786081086327,189990,https://www.zillow.com/homedetails/6113-N-71st-Ln-Glendale-AZ-85303/7707065_zpid/,33.5257,-112.214,6561,2017-12-18
440758,23857726,"2526 N 87th Ave, Phoenix, AZ 85037 ",85037,0.8098502457141876,0.8220722734928131,0.6657554326829755,200000,https://www.zillow.com/homedetails/2526-N-87th-Ave-Phoenix-AZ-85037/7473978_zpid/,33.4758,-112.24700000000001,6558,2017-12-15
441680,23855613,"3608 N 90th Dr, Phoenix, AZ 85037 ",85037,0.8162188351154327,0.8155664145946503,0.6656806688797154,169000,https://www.zillow.com/homedetails/3608-N-90th-Dr-Phoenix-AZ-85037/7470495_zpid/,33.4888,-112.255,6556,2017-12-13
7449241,23819586,"11935 N 68th Ave, Peoria, AZ 85345 ",85345,0.8117183983325958,0.8199951231479645,0.6656051280022055,245000,https://www.zillow.com/homedetails/11935-N-68th-Ave-Peoria-AZ-85345/7700139_zpid/,33.594,-112.204,6516,2017-11-03
496469,22536294,"6526 W Holly St, Phoenix, AZ 85035 ",85035,0.8353853762149811,0.7966808199882507,0.6655355065291444,169499,https://www.zillow.com/homedetails/6526-W-Holly-St-Phoenix-AZ-85035/7490333_zpid/,33.471,-112.20100000000001,6408,2017-07-18
1410517,23856547,"7108 N 73rd Dr, Glendale, AZ 85303 ",85303,0.8087380111217499,0.8227025151252747,0.6653507958272761,222000,https://www.zillow.com/homedetails/7108-N-73rd-Dr-Glendale-AZ-85303/82823489_zpid/,33.5387,-112.21700000000001,6532,2017-11-19
1469883,23825764,"8507 W Oraibi Dr, Peoria, AZ 85382 ",85382,0.8298892319202423,0.8017272055149078,0.6653447747943292,237500,https://www.zillow.com/homedetails/8507-W-Oraibi-Dr-Peoria-AZ-85382/8105886_zpid/,33.6613,-112.242,6524,2017-11-11
9005024,23845432,"3522 W Bluefield Ave, Glendale, AZ 85308 ",85308,0.8225448966026306,0.8087896764278412,0.6652658207706137,237500,https://www.zillow.com/homedetails/3522-W-Bluefield-Ave-Glendale-AZ-85308/7947939_zpid/,33.6525,-112.135,6543,2017-11-30
425566,23374604,"3339 N 80th Dr, Phoenix, AZ 85033 ",85033,0.832668250799179,0.7986999452114105,0.6650520862925854,179500,http://www.zillow.com/homedetails/3339-N-80th-Dr-Phoenix-AZ-85033/7479414_zpid,33.4867,-112.23200000000001,6369,2017-06-09
450632,23858033,"8738 W Columbus Ave, Phoenix, AZ 85037 ",85037,0.8149994969367981,0.8159708976745605,0.6650158711198344,164900,https://www.zillow.com/homedetails/8738-W-Columbus-Ave-Phoenix-AZ-85037/7470741_zpid/,33.4894,-112.24799999999999,6562,2017-12-19
450725,23853431,"8746 W Granada Rd, Phoenix, AZ 85037 ",85037,0.8084772109985352,0.8223908007144928,0.6648842209125053,209900,https://www.zillow.com/homedetails/8746-W-Granada-Rd-Phoenix-AZ-85037/7487519_zpid/,33.4683,-112.249,6551,2017-12-08
412062,23570538,"5339 W Cholla St, Glendale, AZ 85304 ",85304,0.8288922548294068,0.8020162045955658,0.6647850202369413,209000,https://www.zillow.com/homedetails/5339-W-Cholla-St-Glendale-AZ-85304/7736846_zpid/,33.5891,-112.175,6494,2017-10-12
9006368,23853155,"4701 N 79TH Dr, Phoenix, AZ 85033 ",85033,0.8254905045032501,0.8053188264369965,0.6647830443214415,189999,https://www.zillow.com/homedetails/4701-N-79TH-Dr-Phoenix-AZ-85033/82779611_zpid/,33.5056,-112.229,6552,2017-12-09
227870,23854036,"1420 W Michelle Dr, Phoenix, AZ 85023 ",85023,0.8275865256786347,0.8032557308673859,0.6647636195399923,247900,https://www.zillow.com/homedetails/1420-W-Michelle-Dr-Phoenix-AZ-85023/7956946_zpid/,33.6498,-112.09100000000001,6551,2017-12-08
9015942,23845571,"4532 N 74th Dr, Phoenix, AZ 85033 ",85033,0.8207230389118194,0.8098212718963623,0.6646389752462173,161000,https://www.zillow.com/homedetails/4532-N-74th-Dr-Phoenix-AZ-85033/7711019_zpid/,33.5031,-112.22,6515,2017-11-02
389970,22302502,"2910 W Altadena Ave, Phoenix, AZ 85029 ",85029,0.8326335310935974,0.7982022762298584,0.664609979784214,220000,https://www.zillow.com/homedetails/2910-W-Altadena-Ave-Phoenix-AZ-85029/7739875_zpid/,33.5927,-112.12200000000001,6401,2017-07-11
222394,23848564,"1010 W Campo Bello Dr, Phoenix, AZ 85023 ",85023,0.8140113830566407,0.8162124752998352,0.664406245886903,199900,https://www.zillow.com/homedetails/1010-W-Campo-Bello-Dr-Phoenix-AZ-85023/7963596_zpid/,33.644,-112.087,6549,2017-12-06
231524,23856223,"17459 N 28th Ave, Phoenix, AZ 85053 ",85053,0.8258895814418793,0.8044677972793579,0.6644015723785195,206995,https://www.zillow.com/homedetails/17459-N-28th-Ave-Phoenix-AZ-85053/7942436_zpid/,33.6449,-112.119,6558,2017-12-15
232170,23847359,"17834 N 33rd Dr, Phoenix, AZ 85053 ",85053,0.82366082072258,0.806330019235611,0.6641424454168571,249999,https://www.zillow.com/homedetails/17834-N-33rd-Dr-Phoenix-AZ-85053/7941287_zpid/,33.6484,-112.131,6543,2017-11-30
522141,23828650,"9008 W Roma Ave, Phoenix, AZ 85037 ",85037,0.8209988474845886,0.8088649988174439,0.6640772317997445,164900,https://www.zillow.com/homedetails/9008-W-Roma-Ave-Phoenix-AZ-85037/7467364_zpid/,33.5003,-112.25299999999999,6515,2017-11-02
9024048,23836145,"9411 W Glen Oaks Cir, Sun City, AZ 85351 ",85351,0.8206830024719238,0.8090719282627106,0.6639915793023903,140000,https://www.zillow.com/homedetails/9411-W-Glen-Oaks-Cir-Sun-City-AZ-85351/7922837_zpid/,33.6297,-112.26299999999999,6530,2017-11-17
1413226,22747483,"7301 W Cavalier Dr, Glendale, AZ 85303 ",85303,0.8238091886043548,0.8059978544712066,0.6639884385087756,179900,https://www.zillow.com/homedetails/7301-W-Cavalier-Dr-Glendale-AZ-85303/7707198_zpid/,33.5243,-112.21600000000001,6492,2017-10-10
8979893,23855921,"7619 W Brown St, Peoria, AZ 85345 ",85345,0.8238508701324463,0.8059131085872651,0.663952215760763,235000,https://www.zillow.com/homedetails/7619-W-Brown-St-Peoria-AZ-85345/7682142_zpid/,33.5769,-112.223,6557,2017-12-14
409111,23815119,"6540 W Phelps Rd, Glendale, AZ 85306 ",85306,0.8258235514163971,0.8037976622581482,0.6637950400662216,209900,https://www.zillow.com/homedetails/6540-W-Phelps-Rd-Glendale-AZ-85306/7901955_zpid/,33.6361,-112.20100000000001,6512,2017-10-30
343597,23846279,"1713 E Aire Libre Ave, Phoenix, AZ 85022 ",85022,0.8328672051429749,0.7969969689846039,0.6637926380656293,226500,https://www.zillow.com/homedetails/1713-E-Aire-Libre-Ave-Phoenix-AZ-85022/8004787_zpid/,33.6363,-112.045,6543,2017-11-30
9012841,23819608,"8121 W Hatcher Rd, Peoria, AZ 85345 ",85345,0.8152529299259186,0.8141952812671661,0.6637750885849145,239000,https://www.zillow.com/homedetails/8121-W-Hatcher-Rd-Peoria-AZ-85345/7682649_zpid/,33.57,-112.234,6515,2017-11-02
9011933,22678376,"7934 W Mitchell Dr, Phoenix, AZ 85033 ",85033,0.8353853762149811,0.7944640517234802,0.6636836507382977,155000,https://www.zillow.com/homedetails/7934-W-Mitchell-Dr-Phoenix-AZ-85033/7478637_zpid/,33.4893,-112.23,6464,2017-09-12
9024435,23852960,"3638 N 72nd Ln, Phoenix, AZ 85033 ",85033,0.8267878472805024,0.8027096271514893,0.6636705646239145,159500,https://www.zillow.com/homedetails/3638-N-72nd-Ln-Phoenix-AZ-85033/7468943_zpid/,33.4909,-112.21600000000001,6541,2017-11-28
420158,23823709,"5666 W Laurie Ln, Glendale, AZ 85302 ",85302,0.8131126582622528,0.816094970703125,0.6635771510228733,209000,https://www.zillow.com/homedetails/5666-W-Laurie-Ln-Glendale-AZ-85302/7732919_zpid/,33.5593,-112.181,6520,2017-11-07
9025735,23858371,"14401 N 34th Way, Phoenix, AZ 85032 ",85032,0.8138944447040558,0.8152403771877289,0.6635196140915316,249900,https://www.zillow.com/homedetails/14401-N-34th-Way-Phoenix-AZ-85032/8012303_zpid/,33.6173,-112.008,6556,2017-12-13
415299,23818783,"10119 N 65th Ln, Glendale, AZ 85302 ",85302,0.8207230389118194,0.8084562659263611,0.663518683398385,179998,https://www.zillow.com/homedetails/10119-N-65th-Ln-Glendale-AZ-85302/65235466_zpid/,33.5779,-112.2,6515,2017-11-02
230962,23796591,"19225 N 13th St, Phoenix, AZ 85024 ",85024,0.8299736380577087,0.7993834435939788,0.6634671848827938,228000,https://www.zillow.com/homedetails/19225-N-13th-St-Phoenix-AZ-85024/7995445_zpid/,33.6614,-112.054,6505,2017-10-23
9020028,23830547,"7509 W Sells Dr, Phoenix, AZ 85033 ",85033,0.8209988474845886,0.8081097424030304,0.6634571671539558,175000,https://www.zillow.com/homedetails/7509-W-Sells-Dr-Phoenix-AZ-85033/67081789_zpid/,33.5016,-112.221,6522,2017-11-09
8988082,23849229,"6914 W Sierra St, Peoria, AZ 85345 ",85345,0.8206576943397522,0.808296412229538,0.6633346700033865,198900,https://www.zillow.com/homedetails/6914-W-Sierra-St-Peoria-AZ-85345/7699742_zpid/,33.5904,-112.208,6548,2017-12-05
9021439,23856224,"17630 N 33rd Ln, Phoenix, AZ 85053 ",85053,0.8267409563064575,0.802222752571106,0.6632304056314348,215000,https://www.zillow.com/homedetails/17630-N-33rd-Ln-Phoenix-AZ-85053/7942069_zpid/,33.6462,-112.131,6558,2017-12-15
9024609,23859299,"18048 N 50th Ave, Glendale, AZ 85308 ",85308,0.8140113830566407,0.8147331774234772,0.6632020805766161,216000,https://www.zillow.com/homedetails/18048-N-50th-Ave-Glendale-AZ-85308/67085136_zpid/,33.6505,-112.169,6570,2017-12-27
7374380,23858603,"13207 N 98th Dr, Sun City, AZ 85351 ",85351,0.8261636853218078,0.8025075733661652,0.6630026143108521,223000,https://www.zillow.com/homedetails/13207-N-98th-Dr-Sun-City-AZ-85351/8095979_zpid/,33.6043,-112.266,6565,2017-12-22
240200,23815565,"17428 N 13th Ave, Phoenix, AZ 85023 ",85023,0.8306515693664551,0.7981063842773437,0.6629483206213627,225000,https://www.zillow.com/homedetails/17428-N-13th-Ave-Phoenix-AZ-85023/7963349_zpid/,33.6448,-112.089,6513,2017-10-31
9001435,23827303,"9401 W Hidden Valley Cir, Sun City, AZ 85351 ",85351,0.8258235514163971,0.8027022302150726,0.6628904064860736,180000,https://www.zillow.com/homedetails/9401-W-Hidden-Valley-Cir-Sun-City-AZ-85351/7922785_zpid/,33.631,-112.262,6525,2017-11-12
8961777,23857496,"11009 N 79th Dr, Peoria, AZ 85345 ",85345,0.8316110014915467,0.7970467448234558,0.6628328416982113,225000,https://www.zillow.com/homedetails/11009-N-79th-Dr-Peoria-AZ-85345/7681573_zpid/,33.5854,-112.23,6564,2017-12-21
8987246,23839497,"5830 E Calle Mexico, Guadalupe, AZ 85283 ",85283,0.8122943341732025,0.8158186912536621,0.6626849006179469,210000,https://www.zillow.com/homedetails/5830-E-Calle-Mexico-Guadalupe-AZ-85283/8138359_zpid/,33.366,-111.959,6522,2017-11-09
230590,23848573,"1832 W Wescott Dr, Phoenix, AZ 85027 ",85027,0.8154324054718017,0.8126647174358368,0.6626731453807665,229000,https://www.zillow.com/homedetails/1832-W-Wescott-Dr-Phoenix-AZ-85027/7969386_zpid/,33.6586,-112.09899999999999,6549,2017-12-06
441326,23650432,"3042 N 87th Ave, Phoenix, AZ 85037 ",85037,0.824741518497467,0.803431510925293,0.6626233243292404,204999,https://www.zillow.com/homedetails/3042-N-87th-Ave-Phoenix-AZ-85037/7479842_zpid/,33.483000000000004,-112.24700000000001,6495,2017-10-13
248492,23858268,"2204 W Le Marche Ave, Phoenix, AZ 85023 ",85023,0.8271926879882813,0.8004446685314178,0.6621219769483924,229000,https://www.zillow.com/homedetails/2204-W-Le-Marche-Ave-Phoenix-AZ-85023/89457012_zpid/,33.632,-112.10600000000001,6558,2017-12-15
1863393,23849248,"8223 W Poinsettia Dr, Peoria, AZ 85345 ",85345,0.8197650194168091,0.8076829731464386,0.6621102481640163,229900,https://www.zillow.com/homedetails/8223-W-Poinsettia-Dr-Peoria-AZ-85345/7680859_zpid/,33.5929,-112.236,6548,2017-12-05
9024049,23836147,"9545 W Briarwood Cir N, Sun City, AZ 85351 ",85351,0.824523389339447,0.802771532535553,0.6619039048714364,210000,https://www.zillow.com/homedetails/9545-W-Briarwood-Cir-N-Sun-City-AZ-85351/7904970_zpid/,33.6371,-112.266,6530,2017-11-17
422357,23752505,"6612 W Brown St, Glendale, AZ 85302 ",85302,0.8165911257266998,0.810560554265976,0.661896555477711,199000,https://www.zillow.com/homedetails/6612-W-Brown-St-Glendale-AZ-85302/7706362_zpid/,33.5783,-112.20100000000001,6496,2017-10-14
246021,23837074,"2211 W Morrow Dr, Phoenix, AZ 85027 ",85027,0.8267409563064575,0.8004843711853027,0.6617932145421105,223500,https://www.zillow.com/homedetails/2211-W-Morrow-Dr-Phoenix-AZ-85027/7969868_zpid/,33.6564,-112.10700000000001,6530,2017-11-17
384323,23859262,"1344 W Joan De Arc Ave, Phoenix, AZ 85029 ",85029,0.8328672051429749,0.7945872843265533,0.6617856907392028,214999,https://www.zillow.com/homedetails/1344-W-Joan-De-Arc-Ave-Phoenix-AZ-85029/7784468_zpid/,33.6078,-112.089,6570,2017-12-27
8990467,22512781,"1711 E Harvard Street Phoenix Az, Phoenix, AZ 85006 ",85006,0.8427274584770202,0.78519127368927,0.6617022464944929,100000,https://www.zillow.com/homedetails/1711-E-Harvard-Street-Phoenix-Az-Phoenix-AZ-85006/2093095994_zpid/,33.4742,-112.04700000000001,6437,2017-08-16
434089,23853304,"7601 W Earll Dr, Phoenix, AZ 85033 ",85033,0.8168292224407196,0.8100818514823913,0.6616985288597003,165000,https://www.zillow.com/homedetails/7601-W-Earll-Dr-Phoenix-AZ-85033/7469553_zpid/,33.4836,-112.22200000000001,6534,2017-11-21
234034,23855362,"18447 N 31st Ave, Phoenix, AZ 85053 ",85053,0.8335932850837707,0.793711256980896,0.661632374114674,209000,https://www.zillow.com/homedetails/18447-N-31st-Ave-Phoenix-AZ-85053/7940519_zpid/,33.6544,-112.126,6551,2017-12-08
419880,23856292,"5616 W Brown St, Glendale, AZ 85302 ",85302,0.8206576943397522,0.8060353696346283,0.661479128000644,196500,https://www.zillow.com/homedetails/5616-W-Brown-St-Glendale-AZ-85302/7735264_zpid/,33.5783,-112.18,6558,2017-12-15
9023831,23848643,"4412 W Morrow Dr, Glendale, AZ 85308 ",85308,0.8166397631168365,0.8099997699260711,0.6614780202371188,215000,https://www.zillow.com/homedetails/4412-W-Morrow-Dr-Glendale-AZ-85308/7938771_zpid/,33.6573,-112.155,6549,2017-12-06
482837,22692547,"2605 N 50th Ave, Phoenix, AZ 85035 ",85035,0.8350898265838623,0.7920464813709259,0.6614299587744049,180000,https://www.zillow.com/homedetails/2605-N-50th-Ave-Phoenix-AZ-85035/7494002_zpid/,33.4773,-112.165,6471,2017-09-19
233458,23847110,"18230 N 33rd Ave, Phoenix, AZ 85053 ",85053,0.8330590665340424,0.7939121723175049,0.6613757331808344,189900,https://www.zillow.com/homedetails/18230-N-33rd-Ave-Phoenix-AZ-85053/7941211_zpid/,33.652,-112.13,6546,2017-12-03
397538,23846476,"4046 W Cactus Rd, Phoenix, AZ 85029 ",85029,0.8206576943397522,0.8058521151542664,0.6613287388013127,215000,https://www.zillow.com/homedetails/4046-W-Cactus-Rd-Phoenix-AZ-85029/7742480_zpid/,33.5968,-112.146,6542,2017-11-29
694777,22426089,"4826 W Charleston Ave, Glendale, AZ 85308 ",85308,0.8217191755771637,0.8048016548156738,0.6613209522982725,234500,https://www.zillow.com/homedetails/4826-W-Charleston-Ave-Glendale-AZ-85308/7949355_zpid/,33.6493,-112.164,6418,2017-07-28
401171,22726857,"14216 N 45th Dr, Glendale, AZ 85306 ",85306,0.8333427727222442,0.793510502576828,0.6612662424015954,199900,https://www.zillow.com/homedetails/14216-N-45th-Dr-Glendale-AZ-85306/7952135_zpid/,33.6149,-112.15700000000001,6478,2017-09-26
264257,23752112,"7723 W Oraibi Dr, Glendale, AZ 85308 ",85308,0.8138459205627442,0.8124342203140259,0.6611962759281438,244995,https://www.zillow.com/homedetails/7723-W-Oraibi-Dr-Glendale-AZ-85308/7891683_zpid/,33.6615,-112.22399999999999,6495,2017-10-13
1466622,23825709,"17462 N 92nd Ave, Peoria, AZ 85382 ",85382,0.8134009540081024,0.8126968383789063,0.661048383656771,245000,https://www.zillow.com/homedetails/17462-N-92nd-Ave-Peoria-AZ-85382/95087683_zpid/,33.6427,-112.258,6526,2017-11-13
1349271,23815006,"5556 W Gardenia Ave, Glendale, AZ 85301 ",85301,0.827086991071701,0.799156266450882,0.6609717518149546,174900,https://www.zillow.com/homedetails/5556-W-Gardenia-Ave-Glendale-AZ-85301/2136646466_zpid/,33.5451,-112.18,6512,2017-10-30
404082,23831516,"16245 N 43rd Dr, Glendale, AZ 85306 ",85306,0.8202149868011475,0.8057549834251404,0.6608923130950103,244900,https://www.zillow.com/homedetails/16245-N-43rd-Dr-Glendale-AZ-85306/7950704_zpid/,33.6339,-112.152,6527,2017-11-14
434776,23840609,"7725 W Clayton Dr, Phoenix, AZ 85033 ",85033,0.8254905045032501,0.8005772590637207,0.66086892547834,177999,https://www.zillow.com/homedetails/7725-W-Clayton-Dr-Phoenix-AZ-85033/7482121_zpid/,33.5014,-112.227,6535,2017-11-22
9021586,23838024,"8142 W Sweetwater Ave, Peoria, AZ 85381 ",85381,0.8162627458572388,0.8096010625362396,0.660847186354769,240000,https://www.zillow.com/homedetails/8142-W-Sweetwater-Ave-Peoria-AZ-85381/7913307_zpid/,33.6028,-112.235,6529,2017-11-16
8954944,23859326,"2414 E Dahlia Dr, Phoenix, AZ 85032 ",85032,0.8241561532020569,0.8018289804458618,0.6608322880501888,225000,https://www.zillow.com/homedetails/2414-E-Dahlia-Dr-Phoenix-AZ-85032/7820475_zpid/,33.6034,-112.03,6564,2017-12-21
354125,22802972,"2231 E Everett Dr, Phoenix, AZ 85022 ",85022,0.8165911257266998,0.8091030895709992,0.6607064027417331,206900,https://www.zillow.com/homedetails/2231-E-Everett-Dr-Phoenix-AZ-85022/8014080_zpid/,33.6195,-112.03399999999999,6492,2017-10-10
9015572,23854445,"9416 W Madison St, Tolleson, AZ 85353 ",85353,0.823796135187149,0.8019892275333405,0.6606756261036929,176995,https://www.zillow.com/homedetails/9416-W-Madison-St-Tolleson-AZ-85353/7460136_zpid/,33.4454,-112.264,6555,2017-12-12
441820,23853006,"3820 N 84th Ln, Phoenix, AZ 85037 ",85037,0.8162188351154327,0.8094100952148438,0.6606557650469312,190000,https://www.zillow.com/homedetails/3820-N-84th-Ln-Phoenix-AZ-85037/7469761_zpid/,33.4916,-112.241,6544,2017-12-01
9023260,23825739,"6913 W Beryl Ave, Peoria, AZ 85345 ",85345,0.8131126582622528,0.8124556601047516,0.6606179815079879,197000,https://www.zillow.com/homedetails/6913-W-Beryl-Ave-Peoria-AZ-85345/7701889_zpid/,33.5787,-112.208,6524,2017-11-11
381684,22380395,"3111 W Laurie Ln, Phoenix, AZ 85051 ",85051,0.8390882432460784,0.787039452791214,0.6603955518079346,229900,https://www.zillow.com/homedetails/3111-W-Laurie-Ln-Phoenix-AZ-85051/7754882_zpid/,33.5587,-112.126,6403,2017-07-13
349598,23800467,"18407 N 16th Pl, Phoenix, AZ 85022 ",85022,0.814006221294403,0.8111336469650269,0.6602678349307498,240000,https://www.zillow.com/homedetails/18407-N-16th-Pl-Phoenix-AZ-85022/8001275_zpid/,33.6534,-112.04700000000001,6506,2017-10-24
7450958,21944041,"12172 N 86th Ln, Peoria, AZ 85345 ",85345,0.825668478012085,0.7995366334915162,0.6601521952898464,215000,https://www.zillow.com/homedetails/12172-N-86th-Ln-Peoria-AZ-85345/7685390_zpid/,33.5947,-112.24600000000001,6289,2017-03-21
234640,23785215,"2751 W Acoma Dr, Phoenix, AZ 85053 ",85053,0.8228399097919464,0.8021545529365539,0.6600447799775131,210000,https://www.zillow.com/homedetails/2751-W-Acoma-Dr-Phoenix-AZ-85053/7942788_zpid/,33.6166,-112.12,6283,2017-03-15
9023077,23849850,"5810 W Saint John Rd, Glendale, AZ 85308 ",85308,0.8162627458572388,0.8084627330303192,0.6599180103865762,238000,https://www.zillow.com/homedetails/5810-W-Saint-John-Rd-Glendale-AZ-85308/8099795_zpid/,33.6464,-112.184,6548,2017-12-05
9023480,23827276,"13854 N Cameo Dr, Sun City, AZ 85351 ",85351,0.8268499374389648,0.7980950057506562,0.6599048055752803,229900,https://www.zillow.com/homedetails/13854-N-Cameo-Dr-Sun-City-AZ-85351/7922140_zpid/,33.6128,-112.265,6521,2017-11-08
647631,23846351,"2312 W Plata Ave, Mesa, AZ 85202 ",85202,0.8068759381771088,0.8177448213100433,0.6598186198840134,214900,https://www.zillow.com/homedetails/2312-W-Plata-Ave-Mesa-AZ-85202/8170881_zpid/,33.3605,-111.883,6544,2017-12-01
9020195,23820290,"8638 W Laurel Ln, Peoria, AZ 85345 ",85345,0.8153567135334014,0.8092229783535003,0.6598053881460209,247700,https://www.zillow.com/homedetails/8638-W-Laurel-Ln-Peoria-AZ-85345/7685468_zpid/,33.5934,-112.245,6516,2017-11-03
9025718,23858301,"2944 W Villa Theresa Dr, Phoenix, AZ 85053 ",85053,0.8258895814418793,0.7988381028175354,0.6597520663757993,225000,https://www.zillow.com/homedetails/2944-W-Villa-Theresa-Dr-Phoenix-AZ-85053/7940561_zpid/,33.6541,-112.12299999999999,6556,2017-12-13
9024660,23854853,"20 Hillside Dr, Saint Johns, AZ 85936 ",85936,0.8308560311794281,0.7939508855342865,0.6596588817064096,64900,https://www.zillow.com/homedetails/20-Hillside-Dr-Saint-Johns-AZ-85936/7354311_zpid/,33.6469,-112.059,6557,2017-12-14
9023959,23850397,"5818 W Muriel Dr, Glendale, AZ 85308 ",85308,0.8162627458572388,0.8081239998340607,0.6596415150976852,245000,https://www.zillow.com/homedetails/5818-W-Muriel-Dr-Glendale-AZ-85308/8099884_zpid/,33.6459,-112.185,6552,2017-12-09
9022735,23856746,"13216 N 31st Way, Phoenix, AZ 85032 ",85032,0.8240893900394439,0.8002594470977783,0.6594853196321108,239900,https://www.zillow.com/homedetails/13216-N-31st-Way-Phoenix-AZ-85032/50188555_zpid/,33.6068,-112.014,6561,2017-12-18
348914,23822646,"3525 W Melvin St, Phoenix, AZ 85009 ",85009,0.8272997677326203,0.797088223695755,0.6594309023259051,159900,https://www.zillow.com/homedetails/3525-W-Melvin-St-Phoenix-AZ-85009/7505973_zpid/,33.4521,-112.13600000000001,6520,2017-11-07
644243,23859318,"2213 W Del Campo Cir, Mesa, AZ 85202 ",85202,0.827297043800354,0.7966373503208161,0.6590557249013581,220000,https://www.zillow.com/homedetails/2213-W-Del-Campo-Cir-Mesa-AZ-85202/7602126_zpid/,33.4009,-111.87899999999999,6565,2017-12-22
1412762,23830526,"7238 W Bethany Home Rd, Glendale, AZ 85303 ",85303,0.8209988474845886,0.8026792824268341,0.6589987657721874,170000,https://www.zillow.com/homedetails/7238-W-Bethany-Home-Rd-Glendale-AZ-85303/7707005_zpid/,33.5235,-112.215,6523,2017-11-10
447466,23853329,"8314 W Avalon Dr, Phoenix, AZ 85037 ",85037,0.8209988474845886,0.8024599075317382,0.6588186592361467,184900,https://www.zillow.com/homedetails/8314-W-Avalon-Dr-Phoenix-AZ-85037/55257045_zpid/,33.4824,-112.23899999999999,6528,2017-11-15
420828,22557561,"5930 W Loma Ln, Glendale, AZ 85302 ",85302,0.8319942712783813,0.791824209690094,0.65879320632169,245000,https://www.zillow.com/homedetails/5930-W-Loma-Ln-Glendale-AZ-85302/7704301_zpid/,33.5544,-112.18799999999999,6443,2017-08-22
499623,23853309,"7113 W Holly St, Phoenix, AZ 85035 ",85035,0.8179795622825623,0.8053522825241088,0.658761707542333,135000,https://www.zillow.com/homedetails/7113-W-Holly-St-Phoenix-AZ-85035/7475387_zpid/,33.4699,-112.213,6548,2017-12-05
5187885,23794657,"9915 W Tarrytown Ave, Sun City, AZ 85351 ",85351,0.8366122364997863,0.787299120426178,0.6586640779340593,179000,https://www.zillow.com/homedetails/9915-W-Tarrytown-Ave-Sun-City-AZ-85351/7688483_zpid/,33.5783,-112.274,6290,2017-03-22
9022874,23843166,"5728 W Villa Maria Dr, Glendale, AZ 85308 ",85308,0.8098502457141876,0.8132527887821197,0.658612970822948,219000,https://www.zillow.com/homedetails/5728-W-Villa-Maria-Dr-Glendale-AZ-85308/7901229_zpid/,33.6509,-112.18299999999999,6536,2017-11-23
450315,23853354,"8717 W Windsor Ave, Phoenix, AZ 85037 ",85037,0.8098502457141876,0.8132372677326203,0.6586004010971971,197000,https://www.zillow.com/homedetails/8717-W-Windsor-Ave-Phoenix-AZ-85037/7473659_zpid/,33.4777,-112.24799999999999,6535,2017-11-22
331152,23847346,"1025 E Annette Dr, Phoenix, AZ 85022 ",85022,0.806977492570877,0.8160131454467774,0.6585042420175148,248000,https://www.zillow.com/homedetails/1025-E-Annette-Dr-Phoenix-AZ-85022/8002681_zpid/,33.6531,-112.059,6545,2017-12-02
354621,23808089,"2310 E Winchcomb Dr, Phoenix, AZ 85022 ",85022,0.8194681584835053,0.8034515380859375,0.6584029523460231,224900,https://www.zillow.com/homedetails/2310-E-Winchcomb-Dr-Phoenix-AZ-85022/8010116_zpid/,33.6168,-112.03399999999999,6507,2017-10-25
332059,23858248,"115 E Hartford Ave, Phoenix, AZ 85022 ",85022,0.8248736381530761,0.7981858074665069,0.6584024309270483,215000,https://www.zillow.com/homedetails/115-E-Hartford-Ave-Phoenix-AZ-85022/79527909_zpid/,33.6426,-112.073,6562,2017-12-19
9025632,23856478,"9514 W Timberline Dr, Sun City, AZ 85351 ",85351,0.8195326626300812,0.8033187091350555,0.6583459206380118,189900,https://www.zillow.com/homedetails/9514-W-Timberline-Dr-Sun-City-AZ-85351/7922220_zpid/,33.6148,-112.264,6547,2017-12-04
255987,23850390,"506 W Beverly Ln, Phoenix, AZ 85023 ",85023,0.8140113830566407,0.8086674749851227,0.6582645297455612,229900,https://www.zillow.com/homedetails/506-W-Beverly-Ln-Phoenix-AZ-85023/7965481_zpid/,33.6337,-112.081,6552,2017-12-09
522232,23840964,"9009 W Windsor Ave, Phoenix, AZ 85037 ",85037,0.8084772109985352,0.8140850067138672,0.6581691757437511,193000,https://www.zillow.com/homedetails/9009-W-Windsor-Ave-Phoenix-AZ-85037/7474216_zpid/,33.4762,-112.25399999999999,6536,2017-11-23
230933,23837060,"18608 N 17th Ave, Phoenix, AZ 85027 ",85027,0.8258895814418793,0.7967542827129364,0.6580310610618118,219900,https://www.zillow.com/homedetails/18608-N-17th-Ave-Phoenix-AZ-85027/7969674_zpid/,33.6552,-112.096,6529,2017-11-16
8950821,23856307,"7245 W Brown St, Peoria, AZ 85345 ",85345,0.8075958728790283,0.8147863686084748,0.658018108566295,197499,https://www.zillow.com/homedetails/7245-W-Brown-St-Peoria-AZ-85345/7701411_zpid/,33.5771,-112.215,6558,2017-12-15
9013787,22693106,"5647 W Villa Theresa Dr, Glendale, AZ 85308 ",85308,0.8228399097919464,0.7996658444404602,0.6579969713030889,210000,https://www.zillow.com/homedetails/5647-W-Villa-Theresa-Dr-Glendale-AZ-85308/7901269_zpid/,33.6537,-112.182,6471,2017-09-19
435667,22734446,"7942 W Verde Ln, Phoenix, AZ 85033 ",85033,0.832102382183075,0.7907345235347748,0.6579720807076849,175000,https://www.zillow.com/homedetails/7942-W-Verde-Ln-Phoenix-AZ-85033/7479526_zpid/,33.4815,-112.23100000000001,6484,2017-10-02
226063,23841398,"1510 E Taro Ln, Phoenix, AZ 85024 ",85024,0.8154324054718017,0.8068407118320465,0.6579240624817865,220000,https://www.zillow.com/homedetails/1510-E-Taro-Ln-Phoenix-AZ-85024/7995792_zpid/,33.6596,-112.04899999999999,6535,2017-11-22
483705,23784850,"2639 N 49th Ave, Phoenix, AZ 85035 ",85035,0.8361169636249542,0.7868738830089569,0.6579186018172265,162499,https://www.zillow.com/homedetails/2639-N-49th-Ave-Phoenix-AZ-85035/7499042_zpid/,33.4778,-112.163,6270,2017-03-02
501671,23853307,"7837 W Palm Ln, Phoenix, AZ 85035 ",85035,0.8198891639709472,0.8023573338985444,0.6578440836960358,179900,https://www.zillow.com/homedetails/7837-W-Palm-Ln-Phoenix-AZ-85035/95089491_zpid/,33.4685,-112.228,6541,2017-11-28
9012842,23849895,"8008 W Corrine Dr, Peoria, AZ 85381 ",85381,0.8098502457141876,0.8122799277305603,0.6578250990612968,210000,https://www.zillow.com/homedetails/8008-W-Corrine-Dr-Peoria-AZ-85381/8101079_zpid/,33.6,-112.23200000000001,6550,2017-12-07
9021584,23849929,"9506 W Briarwood Cir N, Sun City, AZ 85351 ",85351,0.8261881291866302,0.7961412370204926,0.6577624391822903,249999,https://www.zillow.com/homedetails/9506-W-Briarwood-Cir-N-Sun-City-AZ-85351/7904974_zpid/,33.6378,-112.265,6550,2017-12-07
9017511,23846619,"7346 W Coolidge St, Phoenix, AZ 85033 ",85033,0.8206576943397522,0.8014849305152894,0.6577447751247338,199900,https://www.zillow.com/homedetails/7346-W-Coolidge-St-Phoenix-AZ-85033/7710836_zpid/,33.5042,-112.21799999999999,6544,2017-12-01
225959,23779726,"1502 E Taro Ln, Phoenix, AZ 85024 ",85024,0.8217191755771637,0.8003877937793732,0.6576939980464114,208500,https://www.zillow.com/homedetails/1502-E-Taro-Ln-Phoenix-AZ-85024/7995794_zpid/,33.6595,-112.05,6283,2017-03-15
9018879,23808777,"4021 W Roosevelt St, Phoenix, AZ 85009 ",85009,0.8272997677326203,0.7949422657489776,0.657655551814972,179990,https://www.zillow.com/homedetails/4021-W-Roosevelt-St-Phoenix-AZ-85009/2092569655_zpid/,33.4585,-112.147,6508,2017-10-26
450587,23832013,"8735 W Catalina Dr, Phoenix, AZ 85037 ",85037,0.8209988474845886,0.8009189784526825,0.6575535582381864,164000,https://www.zillow.com/homedetails/8735-W-Catalina-Dr-Phoenix-AZ-85037/7479803_zpid/,33.4815,-112.24799999999999,6517,2017-11-04
422210,23835261,"6538 W Vogel Ave, Glendale, AZ 85302 ",85302,0.8098502457141876,0.8119339525699616,0.6575449109924749,209000,https://www.zillow.com/homedetails/6538-W-Vogel-Ave-Glendale-AZ-85302/7703283_zpid/,33.5724,-112.20100000000001,6529,2017-11-16
9206,23840092,"1220 W Ironwood Dr, Phoenix, AZ 85021 ",85021,0.8256958067417145,0.7963305652141571,0.6575268084775889,169000,https://www.zillow.com/homedetails/1220-W-Ironwood-Dr-Phoenix-AZ-85021/7781692_zpid/,33.576,-112.089,6534,2017-11-21
9021889,23808090,"2926 E Charleston Ave, Phoenix, AZ 85032 ",85032,0.8285830020904541,0.7935069501399994,0.657486370926641,175000,https://www.zillow.com/homedetails/2926-E-Charleston-Ave-Phoenix-AZ-85032/7998861_zpid/,33.6495,-112.01899999999999,6507,2017-10-25
644742,23856245,"2222 W Peralta Ave, Mesa, AZ 85202 ",85202,0.8068759381771088,0.8147785663604736,0.6574252201387069,198500,https://www.zillow.com/homedetails/2222-W-Peralta-Ave-Mesa-AZ-85202/8171027_zpid/,33.3578,-111.882,6558,2017-12-15
9018953,23821610,"1515 W Utopia Rd, Phoenix, AZ 85027 ",85027,0.8299736380577087,0.7920791745185852,0.657404834104937,210000,https://www.zillow.com/homedetails/1515-W-Utopia-Rd-Phoenix-AZ-85027/7969635_zpid/,33.6617,-112.09200000000001,6518,2017-11-05
9023267,23849910,"8546 W Caribbean Ln, Peoria, AZ 85381 ",85381,0.8082789778709412,0.8133215069770813,0.6573906763398888,228000,https://www.zillow.com/homedetails/8546-W-Caribbean-Ln-Peoria-AZ-85381/8103097_zpid/,33.624,-112.245,6547,2017-12-04
232395,23858251,"19615 N 6th Pl, Phoenix, AZ 85024 ",85024,0.8294379115104675,0.7925062477588654,0.6573347270001104,179990,https://www.zillow.com/homedetails/19615-N-6th-Pl-Phoenix-AZ-85024/7967758_zpid/,33.6645,-112.066,6553,2017-12-10
224397,23833473,"1244 E Sequoia Dr, Phoenix, AZ 85024 ",85024,0.8299736380577087,0.7919811904430389,0.6573235099052841,228500,https://www.zillow.com/homedetails/1244-E-Sequoia-Dr-Phoenix-AZ-85024/7995359_zpid/,33.6631,-112.055,6523,2017-11-10
258487,23844522,"619 W Wescott Dr, Phoenix, AZ 85027 ",85027,0.8270689606666565,0.7947072923183441,0.6572777342919456,239900,https://www.zillow.com/homedetails/619-W-Wescott-Dr-Phoenix-AZ-85027/7968519_zpid/,33.6581,-112.08200000000001,6543,2017-11-30
415297,23835189,"10114 N 66th Ln, Glendale, AZ 85302 ",85302,0.8131126582622528,0.8083386301994324,0.6572703723775286,197500,https://www.zillow.com/homedetails/10114-N-66th-Ln-Glendale-AZ-85302/67083300_zpid/,33.5779,-112.20299999999999,6528,2017-11-15
253775,23858223,"950 E Piute Ave, Phoenix, AZ 85024 ",85024,0.8294379115104675,0.7923898994922638,0.6572382233368526,204000,https://www.zillow.com/homedetails/950-E-Piute-Ave-Phoenix-AZ-85024/7996577_zpid/,33.6645,-112.06,6564,2017-12-21
250907,23854160,"232 W Michigan Ave, Phoenix, AZ 85023 ",85023,0.8110150337219239,0.8102557003498078,0.6571295541425803,240000,https://www.zillow.com/homedetails/232-W-Michigan-Ave-Phoenix-AZ-85023/7956192_zpid/,33.6511,-112.07799999999999,6551,2017-12-08
435016,22734461,"7750 W Clarendon Ave, Phoenix, AZ 85033 ",85033,0.8319057941436767,0.7897866308689118,0.6570280743570609,167900,https://www.zillow.com/homedetails/7750-W-Clarendon-Ave-Phoenix-AZ-85033/7478454_zpid/,33.4911,-112.227,6485,2017-10-03
9021757,23856999,"9008 W Charleston Ave, Peoria, AZ 85382 ",85382,0.8199996948242188,0.8011683285236358,0.6569577848922108,248900,https://www.zillow.com/homedetails/9008-W-Charleston-Ave-Peoria-AZ-85382/8105059_zpid/,33.6467,-112.25299999999999,6562,2017-12-19
408761,23856425,"6339 W Aire Libre Ave, Glendale, AZ 85306 ",85306,0.8206576943397522,0.8004514455795289,0.6568966377602178,225000,https://www.zillow.com/homedetails/6339-W-Aire-Libre-Ave-Glendale-AZ-85306/7901988_zpid/,33.6361,-112.197,6549,2017-12-06
41734,23815416,"637 N 69th Ave, Phoenix, AZ 85043 ",85043,0.8160743653774262,0.8049226403236389,0.6568767328800359,169900,https://www.zillow.com/homedetails/637-N-69th-Ave-Phoenix-AZ-85043/7476326_zpid/,33.4562,-112.208,6513,2017-10-31
9023645,23828731,"7328 W Heatherbrae Dr, Phoenix, AZ 85033 ",85033,0.8209988474845886,0.8000668704509735,0.6568539785508509,174900,https://www.zillow.com/homedetails/7328-W-Heatherbrae-Dr-Phoenix-AZ-85033/7711026_zpid/,33.4977,-112.21700000000001,6519,2017-11-06
423289,23823760,"8613 N 53rd Ave, Glendale, AZ 85302 ",85302,0.8258235514163971,0.7952195346355438,0.6567110202484194,194900,https://www.zillow.com/homedetails/8613-N-53rd-Ave-Glendale-AZ-85302/7733929_zpid/,33.563,-112.17299999999999,6521,2017-11-08
480272,21729249,"2233 N 61st Dr, Phoenix, AZ 85035 ",85035,0.8359691679477692,0.7855255126953125,0.6566751092496451,168000,http://www.zillow.com/homedetails/2233-N-61st-Dr-Phoenix-AZ-85035/7491088_zpid/,33.4724,-112.191,6220,2017-01-11
258476,23717515,"614 W Rosemonte Dr, Phoenix, AZ 85027 ",85027,0.8281338095664978,0.7929314017295838,0.6566533024392234,234900,https://www.zillow.com/homedetails/614-W-Rosemonte-Dr-Phoenix-AZ-85027/7968459_zpid/,33.657,-112.08200000000001,6494,2017-10-12
9025496,23853492,"8202 W Avalon Dr, Phoenix, AZ 85033 ",85033,0.8206914007663727,0.8000589430332183,0.6566014946535955,120000,https://www.zillow.com/homedetails/8202-W-Avalon-Dr-Phoenix-AZ-85033/7479720_zpid/,33.4825,-112.235,6550,2017-12-07
9025717,23858269,"3333 W Grovers Ave, Phoenix, AZ 85053 ",85053,0.8258895814418793,0.7947934567928314,0.6564116353633759,162000,https://www.zillow.com/homedetails/3333-W-Grovers-Ave-Phoenix-AZ-85053/2091717911_zpid/,33.6474,-112.131,6564,2017-12-21
433199,23828411,"7230 W Turney Ave, Phoenix, AZ 85033 ",85033,0.8207230389118194,0.7997917056083679,0.6564074791233669,178900,https://www.zillow.com/homedetails/7230-W-Turney-Ave-Phoenix-AZ-85033/7711378_zpid/,33.5008,-112.215,6508,2017-10-26
9021915,23857141,"3922 E Willow Ave, Phoenix, AZ 85032 ",85032,0.8241561532020569,0.7964254975318908,0.6563789743579175,230000,https://www.zillow.com/homedetails/3922-E-Willow-Ave-Phoenix-AZ-85032/7813935_zpid/,33.6083,-111.99700000000001,6563,2017-12-20
8996157,23841902,"11202 N 69th Dr, Peoria, AZ 85345 ",85345,0.8098502457141876,0.8104901909828186,0.6563756803163745,208000,https://www.zillow.com/homedetails/11202-N-69th-Dr-Peoria-AZ-85345/7699586_zpid/,33.5869,-112.208,6537,2017-11-24
419794,23856376,"5539 W Hatcher Rd, Glendale, AZ 85302 ",85302,0.8217031121253967,0.7987920463085174,0.6563699103927227,204999,https://www.zillow.com/homedetails/5539-W-Hatcher-Rd-Glendale-AZ-85302/7734771_zpid/,33.5705,-112.179,6559,2017-12-16
9021916,23821887,"5114 W Vogel Ave, Glendale, AZ 85302 ",85302,0.8218733787536621,0.7985731184482574,0.6563259870409177,152000,https://www.zillow.com/homedetails/5114-W-Vogel-Ave-Glendale-AZ-85302/92348849_zpid/,33.5721,-112.17,6518,2017-11-05
256906,23848601,"609 W Beverly Ln, Phoenix, AZ 85023 ",85023,0.8140113830566407,0.8062684953212738,0.6563117329914667,224900,https://www.zillow.com/homedetails/609-W-Beverly-Ln-Phoenix-AZ-85023/7965493_zpid/,33.6333,-112.08200000000001,6547,2017-12-04
486164,22539632,"4802 W Encanto Blvd, Phoenix, AZ 85035 ",85035,0.8401067376136779,0.7809529900550842,0.6560838687048238,148000,https://www.zillow.com/homedetails/4802-W-Encanto-Blvd-Phoenix-AZ-85035/7499173_zpid/,33.4734,-112.163,6437,2017-08-16
561112,23847992,"1043 W Frito Ave, Mesa, AZ 85210 ",85210,0.819769561290741,0.8003146469593048,0.6560735870323835,195000,https://www.zillow.com/homedetails/1043-W-Frito-Ave-Mesa-AZ-85210/7598695_zpid/,33.3951,-111.854,6543,2017-11-30
235380,23850360,"2831 W Grovers Ave, Phoenix, AZ 85053 ",85053,0.8267409563064575,0.7934151470661164,0.6559487974334697,215000,https://www.zillow.com/homedetails/2831-W-Grovers-Ave-Phoenix-AZ-85053/7942333_zpid/,33.6472,-112.12200000000001,6552,2017-12-09
398347,23849790,"4148 W Bloomfield Rd, Phoenix, AZ 85029 ",85029,0.8206576943397522,0.7991857171058655,0.655857907949361,224900,https://www.zillow.com/homedetails/4148-W-Bloomfield-Rd-Phoenix-AZ-85029/7742599_zpid/,33.5988,-112.149,6550,2017-12-07
9022274,23854949,"5736 W Libby St, Glendale, AZ 85308 ",85308,0.8098502457141876,0.8098282814025879,0.6558396326801841,235000,https://www.zillow.com/homedetails/5736-W-Libby-St-Glendale-AZ-85308/7900965_zpid/,33.6479,-112.18299999999999,6551,2017-12-08
479646,23848674,"2215 N 58th Dr, Phoenix, AZ 85035 ",85035,0.8098502457141876,0.8097968637943268,0.6558141891224141,199000,https://www.zillow.com/homedetails/2215-N-58th-Dr-Phoenix-AZ-85035/7492426_zpid/,33.4717,-112.185,6544,2017-12-01
9025721,23858284,"4808 W Michigan Ave, Glendale, AZ 85308 ",85308,0.8140113830566407,0.8055473804473877,0.655724737275632,224000,https://www.zillow.com/homedetails/4808-W-Michigan-Ave-Glendale-AZ-85308/7949548_zpid/,33.6511,-112.163,6563,2017-12-20
9013905,22694429,"2418 E Dahlia Dr, Phoenix, AZ 85032 ",85032,0.8326335310935974,0.7873593151569367,0.6555817668185568,225000,https://www.zillow.com/homedetails/2418-E-Dahlia-Dr-Phoenix-AZ-85032/7820474_zpid/,33.6034,-112.03,6470,2017-09-18
236208,23512189,"2919 W Libby St, Phoenix, AZ 85053 ",85053,0.8288922548294068,0.790852814912796,0.655531772991251,219000,https://www.zillow.com/homedetails/2919-W-Libby-St-Phoenix-AZ-85053/7940817_zpid/,33.6477,-112.12200000000001,6489,2017-10-07
388589,23838914,"2338 W Altadena Ave, Phoenix, AZ 85029 ",85029,0.8257841885089874,0.7937973022460938,0.655505261075914,189900,https://www.zillow.com/homedetails/2338-W-Altadena-Ave-Phoenix-AZ-85029/7749198_zpid/,33.5925,-112.11,6520,2017-11-07
411581,22708161,"5226 W Eugie Ave, Glendale, AZ 85304 ",85304,0.8272749304771423,0.7923184037208557,0.6554651523539312,220000,https://www.zillow.com/homedetails/5226-W-Eugie-Ave-Glendale-AZ-85304/7911821_zpid/,33.608000000000004,-112.17200000000001,6473,2017-09-21
9022649,23849873,"7133 W Mountain View Rd, Peoria, AZ 85345 ",85345,0.8171839237213134,0.8020436108112335,0.6554171448783339,209800,https://www.zillow.com/homedetails/7133-W-Mountain-View-Rd-Peoria-AZ-85345/7702397_zpid/,33.5743,-112.213,6547,2017-12-04
8999939,23837041,"1334 W Utopia Rd, Phoenix, AZ 85027 ",85027,0.8230422139167786,0.7962933480739594,0.6553830401259955,243000,https://www.zillow.com/homedetails/1334-W-Utopia-Rd-Phoenix-AZ-85027/7971426_zpid/,33.6619,-112.089,6530,2017-11-17
413085,21986995,"5754 W Shangri La Rd, Glendale, AZ 85304 ",85304,0.8366122364997863,0.7832310438156128,0.655260675262642,227500,https://www.zillow.com/homedetails/5754-W-Shangri-La-Rd-Glendale-AZ-85304/7736186_zpid/,33.586999999999996,-112.18299999999999,6311,2017-04-12
8850973,23814108,"2525 E Michigan Ave, Phoenix, AZ 85032 ",85032,0.8172845900058746,0.8016606330871582,0.6551848818364879,225000,https://www.zillow.com/homedetails/2525-E-Michigan-Ave-Phoenix-AZ-85032/7999906_zpid/,33.6507,-112.027,6511,2017-10-29
400129,23859177,"13807 N 52nd Ave, Glendale, AZ 85306 ",85306,0.829498690366745,0.7897931337356567,0.6551323700943747,219900,https://www.zillow.com/homedetails/13807-N-52nd-Ave-Glendale-AZ-85306/8097449_zpid/,33.6112,-112.171,6557,2017-12-14
394581,23831766,"3626 W Rue De Lamour Ave, Phoenix, AZ 85029 ",85029,0.8143816351890564,0.8043019235134125,0.6550087156565562,199900,https://www.zillow.com/homedetails/3626-W-Rue-De-Lamour-Ave-Phoenix-AZ-85029/7741437_zpid/,33.6102,-112.137,6522,2017-11-09
484013,23814956,"2801 N 65th Dr, Phoenix, AZ 85035 ",85035,0.8207230389118194,0.7980290532112122,0.6549608296914281,169900,https://www.zillow.com/homedetails/2801-N-65th-Dr-Phoenix-AZ-85035/7490127_zpid/,33.4789,-112.2,6512,2017-10-30
9024363,23841767,"3147 N 77TH Ln, Phoenix, AZ 85033 ",85033,0.8168292224407196,0.8018161714076996,0.654946879831346,154900,https://www.zillow.com/homedetails/3147-N-77th-Ln-Phoenix-AZ-85033/7469330_zpid/,33.4853,-112.226,6535,2017-11-22
836805,23790332,"5534 N 41st Ave, Phoenix, AZ 85019 ",85019,0.8370113253593445,0.7824762165546417,0.6549414550805661,194999,https://www.zillow.com/homedetails/5534-N-41st-Ave-Phoenix-AZ-85019/7718832_zpid/,33.5179,-112.148,6250,2017-02-10
9021060,23754387,"3522 W Michelle Dr, Glendale, AZ 85308 ",85308,0.8288922548294068,0.7900368571281433,0.6548554319032845,232500,https://www.zillow.com/homedetails/3522-W-Michelle-Dr-Glendale-AZ-85308/7947823_zpid/,33.6498,-112.135,6498,2017-10-16
392666,23759961,"4208 W El Camino Dr, Phoenix, AZ 85051 ",85051,0.8131126582622528,0.8052432417869568,0.6547534728771064,215000,https://www.zillow.com/homedetails/4208-W-El-Camino-Dr-Phoenix-AZ-85051/7752812_zpid/,33.5573,-112.15,6503,2017-10-21
423926,23859183,"8921 N 65th Dr, Glendale, AZ 85302 ",85302,0.8241330265998841,0.7943921387195587,0.6546847975901049,229890,https://www.zillow.com/homedetails/8921-N-65th-Dr-Glendale-AZ-85302/50187782_zpid/,33.5665,-112.2,6559,2017-12-16
231458,23841403,"17447 N 28th Ave, Phoenix, AZ 85053 ",85053,0.8258895814418793,0.7925668060779572,0.6545726677364512,179500,https://www.zillow.com/homedetails/17447-N-28th-Ave-Phoenix-AZ-85053/7942439_zpid/,33.6446,-112.119,6537,2017-11-24
9019065,23855951,"8139 W Heatherbrae Dr, Phoenix, AZ 85033 ",85033,0.8254905045032501,0.7927684843540191,0.6544228561036762,185000,https://www.zillow.com/homedetails/8139-W-Heatherbrae-Dr-Phoenix-AZ-85033/7481875_zpid/,33.4976,-112.236,6548,2017-12-05
9024615,23850383,"4345 W Morrow Dr, Glendale, AZ 85308 ",85308,0.8150446474552154,0.8028668224811554,0.6543723062826423,245000,https://www.zillow.com/homedetails/4345-W-Morrow-Dr-Glendale-AZ-85308/7938791_zpid/,33.6569,-112.154,6552,2017-12-09
249634,23819195,"2238 W Village Dr, Phoenix, AZ 85023 ",85023,0.8306515693664551,0.7876968622207642,0.6543016347887102,224900,https://www.zillow.com/homedetails/2238-W-Village-Dr-Phoenix-AZ-85023/7963982_zpid/,33.6458,-112.10799999999999,6516,2017-11-03
646338,23847131,"2249 W Portobello Ave, Mesa, AZ 85202 ",85202,0.8068759381771088,0.8106914043426514,0.6541273874510947,215000,https://www.zillow.com/homedetails/2249-W-Portobello-Ave-Mesa-AZ-85202/8170991_zpid/,33.3591,-111.882,6546,2017-12-03
9023830,23833574,"4019 W Woodridge Dr, Glendale, AZ 85308 ",85308,0.8299736380577087,0.78810915350914,0.6541098213245622,217500,https://www.zillow.com/homedetails/4019-W-Woodridge-Dr-Glendale-AZ-85308/7946693_zpid/,33.64,-112.146,6524,2017-11-11
9023081,23823763,"7727 W Julie Dr, Glendale, AZ 85308 ",85308,0.8206246495246887,0.7970154404640197,0.6540505164965515,185000,https://www.zillow.com/homedetails/7727-W-Julie-Dr-Glendale-AZ-85308/7891914_zpid/,33.6539,-112.226,6519,2017-11-06
7428103,23779456,"14238 N Lakeforest Dr, Sun City, AZ 85351 ",85351,0.8381665527820588,0.7802073419094085,0.6539436982234621,169900,https://www.zillow.com/homedetails/14238-N-Lakeforest-Dr-Sun-City-AZ-85351/7922322_zpid/,33.6141,-112.26700000000001,6265,2017-02-25
9024164,23837246,"4664 N 77th Ave, Phoenix, AZ 85033 ",85033,0.8263577997684479,0.791317754983902,0.653911598926205,175000,https://www.zillow.com/homedetails/4664-N-77th-Ave-Phoenix-AZ-85033/7482279_zpid/,33.505,-112.226,6529,2017-11-16
434601,23841755,"1838 N 83rd Ln, Phoenix, AZ 85037 ",85037,0.8084772109985352,0.8087702691555023,0.6538723315453752,195000,https://www.zillow.com/homedetails/1838-N-83rd-Ln-Phoenix-AZ-85037/7487940_zpid/,33.4683,-112.24,6536,2017-11-23
8977168,23856014,"8979 W Bremen St, Peoria, AZ 85382 ",85382,0.8068759381771088,0.8103334367275238,0.6538385519958015,220000,https://www.zillow.com/homedetails/8979-W-Bremen-St-Peoria-AZ-85382/67802266_zpid/,33.6443,-112.25200000000001,6554,2017-12-11
9016577,23857292,"9709 W Oak Ridge Dr, Sun City, AZ 85351 ",85351,0.831139475107193,0.7865602552890778,0.6537412777211439,125000,https://www.zillow.com/homedetails/9709-W-Oak-Ridge-Dr-Sun-City-AZ-85351/7904524_zpid/,33.6274,-112.26799999999999,6564,2017-12-21
233478,23794869,"19046 N 15th Ave, Phoenix, AZ 85027 ",85027,0.8299736380577087,0.7872997999191285,0.6534380791809853,229900,https://www.zillow.com/homedetails/19046-N-15th-Ave-Phoenix-AZ-85027/7969522_zpid/,33.6598,-112.09200000000001,6504,2017-10-22
412045,23859398,"5337 W Mercer Ln, Glendale, AZ 85304 ",85304,0.8314226567745209,0.7858926892280579,0.6534089876176647,238819,https://www.zillow.com/homedetails/5337-W-Mercer-Ln-Glendale-AZ-85304/92352572_zpid/,33.5846,-112.175,6570,2017-12-27
413890,23856832,"6209 W Bloomfield Rd, Glendale, AZ 85304 ",85304,0.8082789778709412,0.8083524286746979,0.6533742748086777,225000,https://www.zillow.com/homedetails/6209-W-Bloomfield-Rd-Glendale-AZ-85304/7912238_zpid/,33.5984,-112.19200000000001,6561,2017-12-18
259474,23856235,"19668 N 48th Ln, Glendale, AZ 85308 ",85308,0.8248736381530761,0.791706246137619,0.6530576116000525,214000,https://www.zillow.com/homedetails/19668-N-48th-Ln-Glendale-AZ-85308/7937775_zpid/,33.6642,-112.165,6558,2017-12-15
1466624,23831203,"17462 N 92nd Gln, Peoria, AZ 85382 ",85382,0.8212555885314942,0.7951542556285858,0.6530248761795764,228000,https://www.zillow.com/homedetails/17462-N-92nd-Gln-Peoria-AZ-85382/95103614_zpid/,33.6425,-112.259,6527,2017-11-14
406281,23859189,"5202 W Banff Ln, Glendale, AZ 85306 ",85306,0.8206576943397522,0.7955412864685059,0.6528670779053244,208000,https://www.zillow.com/homedetails/5202-W-Banff-Ln-Glendale-AZ-85306/7911062_zpid/,33.6195,-112.171,6548,2017-12-05
632732,23848063,"1735 S Henkel Cir, Mesa, AZ 85202 ",85202,0.814822655916214,0.801154512166977,0.652798847403155,225000,https://www.zillow.com/homedetails/1735-S-Henkel-Cir-Mesa-AZ-85202/8250788_zpid/,33.3833,-111.865,6547,2017-12-04
1130028,23855813,"586 N Apache Dr, Chandler, AZ 85224 ",85224,0.8084772109985352,0.8074419617652893,0.6527984252911869,199900,https://www.zillow.com/homedetails/586-N-Apache-Dr-Chandler-AZ-85224/8185828_zpid/,33.3129,-111.86200000000001,6551,2017-12-08
416225,23831022,"4436 W Palo Verde Ave, Glendale, AZ 85302 ",85302,0.8143816351890564,0.8014471590518951,0.6526838479063061,219000,https://www.zillow.com/homedetails/4436-W-Palo-Verde-Ave-Glendale-AZ-85302/7729529_zpid/,33.5732,-112.156,6523,2017-11-10
246567,22745687,"3407 W Port Au Prince Ln, Phoenix, AZ 85053 ",85053,0.8272112488746644,0.788994038105011,0.6526647436155106,175000,https://www.zillow.com/homedetails/3407-W-Port-Au-Prince-Ln-Phoenix-AZ-85053/7943671_zpid/,33.6229,-112.132,6491,2017-10-09
