property_id,transaction_id,address,zipcode,ypred,list,url,lat,long,date_listed,transaction_date
43124,23755414,"7301 W Payson Rd, Phoenix, AZ 85043 ",85043,0.7620637357234955,195000,https://www.zillow.com/homedetails/7301-W-Payson-Rd-Phoenix-AZ-85043/60975135_zpid/,33.4225,-112.21700000000001,2017-10-18,2017-10-18
359488,23526402,"2409 S 90th Gln, Tolleson, AZ 85353 ",85353,0.7499785721302032,204900,https://www.zillow.com/homedetails/2409-S-90th-Gln-Tolleson-AZ-85353/67772730_zpid/,33.425,-112.25399999999999,2017-10-11,2017-10-11
345142,23753531,"1739 E Bluefield Ave, Phoenix, AZ 85022 ",85022,0.7425822794437409,224900,https://www.zillow.com/homedetails/1739-E-Bluefield-Ave-Phoenix-AZ-85022/8001407_zpid/,33.6526,-112.044,2017-10-16,2017-10-16
424819,23757935,"9632 N 53rd Ave, Glendale, AZ 85302 ",85302,0.7333121299743652,195000,https://www.zillow.com/homedetails/9632-N-53rd-Ave-Glendale-AZ-85302/7734288_zpid/,33.5739,-112.17399999999999,2017-10-20,2017-10-20
240420,23756210,"3114 W Lisbon Ln, Phoenix, AZ 85053 ",85053,0.731340354681015,209999,https://www.zillow.com/homedetails/3114-W-Lisbon-Ln-Phoenix-AZ-85053/7953236_zpid/,33.6198,-112.125,2017-10-18,2017-10-18
501566,23807411,"7828 W Bonitos Dr, Phoenix, AZ 85035 ",85035,0.7307410895824432,162999,https://www.zillow.com/homedetails/7828-W-Bonitos-Dr-Phoenix-AZ-85035/82823203_zpid/,33.4717,-112.228,2017-10-19,2017-10-19
1131996,23755340,"982 N Los Altos Dr, Chandler, AZ 85224 ",85224,0.7292600810527802,195000,https://www.zillow.com/homedetails/982-N-Los-Altos-Dr-Chandler-AZ-85224/8184826_zpid/,33.3198,-111.881,2017-10-18,2017-10-18
420568,22722083,"5807 W Puget Ave, Glendale, AZ 85302 ",85302,0.7236936390399933,200000,https://www.zillow.com/homedetails/5807-W-Puget-Ave-Glendale-AZ-85302/7733279_zpid/,33.5668,-112.185,2017-09-25,2017-09-25
8958977,23756263,"2545 E Piute Ave, Phoenix, AZ 85050 ",85050,0.7227463722229004,159000,https://www.zillow.com/homedetails/2545-E-Piute-Ave-Phoenix-AZ-85050/7994601_zpid/,33.6629,-112.027,2017-10-13,2017-10-13
380868,23801450,"12018 N 42nd Dr, Phoenix, AZ 85029 ",85029,0.7181345999240876,189000,https://www.zillow.com/homedetails/12018-N-42nd-Dr-Phoenix-AZ-85029/7744164_zpid/,33.595,-112.15100000000001,2017-10-21,2017-10-21
43395,23752723,"7911 W Hilton Ave, Phoenix, AZ 85043 ",85043,0.716820240020752,232000,https://www.zillow.com/homedetails/7911-W-Hilton-Ave-Phoenix-AZ-85043/50893343_zpid/,33.4289,-112.23,2017-10-15,2017-10-15
9012587,22734105,"4946 W Charleston Ave, Glendale, AZ 85308 ",85308,0.7151412546634675,245000,https://www.zillow.com/homedetails/4946-W-Charleston-Ave-Glendale-AZ-85308/7949618_zpid/,33.6487,-112.167,2017-10-02,2017-10-02
401493,23754956,"11221 N 58th Ave, Glendale, AZ 85304 ",85304,0.7142606556415558,209000,https://www.zillow.com/homedetails/11221-N-58th-Ave-Glendale-AZ-85304/7736227_zpid/,33.588,-112.184,2017-10-17,2017-10-17
409540,23803892,"4430 W Poinsettia Dr, Glendale, AZ 85304 ",85304,0.714052814245224,214900,https://www.zillow.com/homedetails/4430-W-Poinsettia-Dr-Glendale-AZ-85304/7727257_zpid/,33.5933,-112.154,2017-10-24,2017-10-24
359160,23759845,"15 N 86th Ln, Tolleson, AZ 85353 ",85353,0.7135316967964173,219000,https://www.zillow.com/homedetails/15-N-86th-Ln-Tolleson-AZ-85353/95078499_zpid/,33.4485,-112.24600000000001,2017-10-21,2017-10-21
354125,22802972,"2231 E Everett Dr, Phoenix, AZ 85022 ",85022,0.7115128040313721,206900,https://www.zillow.com/homedetails/2231-E-Everett-Dr-Phoenix-AZ-85022/8014080_zpid/,33.6195,-112.03399999999999,2017-10-10,2017-10-10
353672,22728286,"2201 E Nisbet Rd, Phoenix, AZ 85022 ",85022,0.7110991299152374,199900,https://www.zillow.com/homedetails/2201-E-Nisbet-Rd-Phoenix-AZ-85022/8010593_zpid/,33.6231,-112.035,2017-09-28,2017-09-28
8987452,23806670,"13360 N 79th Ave, Peoria, AZ 85381 ",85381,0.7104051887989045,219000,https://www.zillow.com/homedetails/13360-N-79th-Ave-Peoria-AZ-85381/8100973_zpid/,33.6063,-112.229,2017-10-25,2017-10-25
8959592,22744660,"8143 W Windrose Dr, Peoria, AZ 85381 ",85381,0.709756588935852,237500,https://www.zillow.com/homedetails/8143-W-Windrose-Dr-Peoria-AZ-85381/8101003_zpid/,33.6006,-112.235,2017-10-07,2017-10-07
8945113,23759637,"7920 W Sweetwater Ave, Peoria, AZ 85381 ",85381,0.7088449776172638,229900,https://www.zillow.com/homedetails/7920-W-Sweetwater-Ave-Peoria-AZ-85381/8100881_zpid/,33.6029,-112.23,2017-10-19,2017-10-19
394541,22734836,"3622 W Charter Oak Rd, Phoenix, AZ 85029 ",85029,0.7070856332778931,223000,https://www.zillow.com/homedetails/3622-W-Charter-Oak-Rd-Phoenix-AZ-85029/7742894_zpid/,33.5978,-112.137,2017-10-03,2017-10-03
1859,23650472,"9128 W Alvarado St, Phoenix, AZ 85037 ",85037,0.7062269985675812,214000,https://www.zillow.com/homedetails/9128-W-Alvarado-St-Phoenix-AZ-85037/60047210_zpid/,33.4712,-112.257,2017-10-12,2017-10-12
422815,22722094,"8324 N 56th Ln, Glendale, AZ 85302 ",85302,0.7056864440441132,215000,https://www.zillow.com/homedetails/8324-N-56th-Ln-Glendale-AZ-85302/7732897_zpid/,33.5576,-112.181,2017-09-26,2017-09-26
231524,23650293,"17459 N 28th Ave, Phoenix, AZ 85053 ",85053,0.7051398932933808,199000,https://www.zillow.com/homedetails/17459-N-28th-Ave-Phoenix-AZ-85053/7942436_zpid/,33.6449,-112.119,2017-10-14,2017-10-14
640835,22743106,"622 W Portobello Ave, Mesa, AZ 85210 ",85210,0.703888988494873,240000,https://www.zillow.com/homedetails/622-W-Portobello-Ave-Mesa-AZ-85210/8190949_zpid/,33.3608,-111.84700000000001,2017-10-06,2017-10-06
412062,23570538,"5339 W Cholla St, Glendale, AZ 85304 ",85304,0.703166800737381,209000,https://www.zillow.com/homedetails/5339-W-Cholla-St-Glendale-AZ-85304/7736846_zpid/,33.5891,-112.175,2017-10-12,2017-10-12
253112,22738546,"3806 W Mauna Loa Ln, Phoenix, AZ 85053 ",85053,0.7004318952560424,234500,https://www.zillow.com/homedetails/3806-W-Mauna-Loa-Ln-Phoenix-AZ-85053/7943940_zpid/,33.6207,-112.14,2017-10-05,2017-10-05
1413516,22924606,"7311 N 73rd Dr, Glendale, AZ 85303 ",85303,0.6992433965206146,248700,https://www.zillow.com/homedetails/7311-N-73rd-Dr-Glendale-AZ-85303/59270763_zpid/,33.5425,-112.21600000000001,2017-10-07,2017-10-07
9019405,22734801,"12802 N 21st Ave, Phoenix, AZ 85029 ",85029,0.6990175187587738,219900,https://www.zillow.com/homedetails/12802-N-21st-Ave-Phoenix-AZ-85029/7739025_zpid/,33.6019,-112.104,2017-10-03,2017-10-03
330786,22738433,"1001 E Bluefield Ave, Phoenix, AZ 85022 ",85022,0.698677909374237,207500,https://www.zillow.com/homedetails/1001-E-Bluefield-Ave-Phoenix-AZ-85022/8002596_zpid/,33.6522,-112.06,2017-10-04,2017-10-04
352598,23759699,"7130 W Whyman Ave, Phoenix, AZ 85043 ",85043,0.6974608182907105,184900,https://www.zillow.com/homedetails/7130-W-Whyman-Ave-Phoenix-AZ-85043/50186003_zpid/,33.428000000000004,-112.214,2017-10-21,2017-10-21
246567,22745687,"3407 W Port Au Prince Ln, Phoenix, AZ 85053 ",85053,0.6966602802276611,175000,https://www.zillow.com/homedetails/3407-W-Port-Au-Prince-Ln-Phoenix-AZ-85053/7943671_zpid/,33.6229,-112.132,2017-10-09,2017-10-09
9019690,23756231,"3644 W Libby St, Glendale, AZ 85308 ",85308,0.6963867902755737,175000,https://www.zillow.com/homedetails/3644-W-Libby-St-Glendale-AZ-85308/7948081_zpid/,33.6483,-112.13799999999999,2017-10-19,2017-10-19
350131,22705127,"6405 W Preston Ln, Phoenix, AZ 85043 ",85043,0.6960535168647766,187000,https://www.zillow.com/homedetails/6405-W-Preston-Ln-Phoenix-AZ-85043/55257428_zpid/,33.4235,-112.198,2017-09-22,2017-09-22
9016917,22713964,"16415 N 29th Pl, Phoenix, AZ 85032 ",85032,0.6951462745666503,239000,https://www.zillow.com/homedetails/16415-N-29th-Pl-Phoenix-AZ-85032/8005881_zpid/,33.6358,-112.01899999999999,2017-09-24,2017-09-24
448390,23828570,"8403 W Lewis Ave, Phoenix, AZ 85037 ",85037,0.6939500987529754,160000,https://www.zillow.com/homedetails/8403-W-Lewis-Ave-Phoenix-AZ-85037/81985441_zpid/,33.4738,-112.24,2017-10-19,2017-10-19
396990,23512234,"4008 W Windrose Dr, Phoenix, AZ 85029 ",85029,0.6938137829303741,194999,https://www.zillow.com/homedetails/4008-W-Windrose-Dr-Phoenix-AZ-85029/7742420_zpid/,33.6012,-112.146,2017-10-10,2017-10-10
9011928,23753384,"7411 W Wolf St, Phoenix, AZ 85033 ",85033,0.6935041546821594,229900,https://www.zillow.com/homedetails/7411-W-Wolf-St-Phoenix-AZ-85033/95184996_zpid/,33.5059,-112.219,2017-10-12,2017-10-12
401171,22726857,"14216 N 45th Dr, Glendale, AZ 85306 ",85306,0.6932300686836242,199900,https://www.zillow.com/homedetails/14216-N-45th-Dr-Glendale-AZ-85306/7952135_zpid/,33.6149,-112.15700000000001,2017-09-26,2017-09-26
8966098,22734768,"7726 W Piute Ave, Glendale, AZ 85308 ",85308,0.6929475784301757,245000,https://www.zillow.com/homedetails/7726-W-Piute-Ave-Glendale-AZ-85308/7891754_zpid/,33.6608,-112.22399999999999,2017-10-02,2017-10-02
395310,23807125,"3734 W Sierra St, Phoenix, AZ 85029 ",85029,0.6926840364933013,219000,https://www.zillow.com/homedetails/3734-W-Sierra-St-Phoenix-AZ-85029/7743992_zpid/,33.5908,-112.14,2017-10-24,2017-10-24
8954944,23798695,"2414 E Dahlia Dr, Phoenix, AZ 85032 ",85032,0.6921360969543457,232000,https://www.zillow.com/homedetails/2414-E-Dahlia-Dr-Phoenix-AZ-85032/7820475_zpid/,33.6034,-112.03,2017-10-19,2017-10-19
9019258,22732947,"3101 W Dailey St, Phoenix, AZ 85053 ",85053,0.6907586753368378,219000,https://www.zillow.com/homedetails/3101-W-Dailey-St-Phoenix-AZ-85053/7943122_zpid/,33.6127,-112.125,2017-10-01,2017-10-01
520341,22734448,"8921 W Edgemont Ave, Phoenix, AZ 85037 ",85037,0.6902363538742066,199000,https://www.zillow.com/homedetails/8921-W-Edgemont-Ave-Phoenix-AZ-85037/7487901_zpid/,33.4783,-112.25200000000001,2017-10-02,2017-10-02
9012332,23806934,"2231 E Claire Dr, Phoenix, AZ 85022 ",85022,0.6902001738548279,217500,https://www.zillow.com/homedetails/2231-E-Claire-Dr-Phoenix-AZ-85022/8014060_zpid/,33.6202,-112.03399999999999,2017-10-25,2017-10-25
9016183,23796927,"5349 W Sanna St, Glendale, AZ 85302 ",85302,0.6895857810974121,215000,https://www.zillow.com/homedetails/5349-W-Sanna-St-Glendale-AZ-85302/7734030_zpid/,33.5697,-112.175,2017-10-23,2017-10-23
450692,23753402,"8742 W Edgemont Ave, Phoenix, AZ 85037 ",85037,0.689233946800232,190000,https://www.zillow.com/homedetails/8742-W-Edgemont-Ave-Phoenix-AZ-85037/7473770_zpid/,33.4794,-112.249,2017-10-12,2017-10-12
8967033,23805180,"9409 S Calle Maravilla, Guadalupe, AZ 85283 ",85283,0.6881110012531281,119997,https://www.zillow.com/homedetails/9409-S-Calle-Maravilla-Guadalupe-AZ-85283/8143091_zpid/,33.3614,-111.96600000000001,2017-10-20,2017-10-20
8996157,22735450,"11202 N 69th Dr, Peoria, AZ 85345 ",85345,0.6880679905414582,208900,https://www.zillow.com/homedetails/11202-N-69th-Dr-Peoria-AZ-85345/7699586_zpid/,33.5869,-112.208,2017-10-03,2017-10-03
258476,23717515,"614 W Rosemonte Dr, Phoenix, AZ 85027 ",85027,0.6876986742019653,234900,https://www.zillow.com/homedetails/614-W-Rosemonte-Dr-Phoenix-AZ-85027/7968459_zpid/,33.657,-112.08200000000001,2017-10-12,2017-10-12
243121,23752741,"3214 W Villa Rita Dr, Phoenix, AZ 85053 ",85053,0.6875741481781006,220000,https://www.zillow.com/homedetails/3214-W-Villa-Rita-Dr-Phoenix-AZ-85053/7941484_zpid/,33.6505,-112.12799999999999,2017-10-14,2017-10-14
8458,23753315,"2712 W Saint Moritz Ln, Phoenix, AZ 85053 ",85053,0.687136423587799,235000,https://www.zillow.com/homedetails/2712-W-Saint-Moritz-Ln-Phoenix-AZ-85053/7943035_zpid/,33.6179,-112.118,2017-10-11,2017-10-11
236208,23512189,"2919 W Libby St, Phoenix, AZ 85053 ",85053,0.6868096649646759,219000,https://www.zillow.com/homedetails/2919-W-Libby-St-Phoenix-AZ-85053/7940817_zpid/,33.6477,-112.12200000000001,2017-10-07,2017-10-07
9019581,23796917,"18428 N 55th Dr, Glendale, AZ 85308 ",85308,0.6861557126045227,199995,https://www.zillow.com/homedetails/18428-N-55th-Dr-Glendale-AZ-85308/7901123_zpid/,33.6531,-112.178,2017-10-23,2017-10-23
392666,23759961,"4208 W El Camino Dr, Phoenix, AZ 85051 ",85051,0.685894125699997,215000,https://www.zillow.com/homedetails/4208-W-El-Camino-Dr-Phoenix-AZ-85051/7752812_zpid/,33.5573,-112.15,2017-10-21,2017-10-21
432541,22734473,"7113 W Sheila Ln, Phoenix, AZ 85033 ",85033,0.6851047098636627,189000,https://www.zillow.com/homedetails/7113-W-Sheila-Ln-Phoenix-AZ-85033/55257199_zpid/,33.4878,-112.213,2017-10-03,2017-10-03
352186,23759913,"2024 E Danbury Rd, Phoenix, AZ 85022 ",85022,0.6847162067890167,242000,https://www.zillow.com/homedetails/2024-E-Danbury-Rd-Phoenix-AZ-85022/8000757_zpid/,33.6429,-112.039,2017-10-21,2017-10-21
349598,23800467,"18407 N 16th Pl, Phoenix, AZ 85022 ",85022,0.6831732988357544,240000,https://www.zillow.com/homedetails/18407-N-16th-Pl-Phoenix-AZ-85022/8001275_zpid/,33.6534,-112.04700000000001,2017-10-24,2017-10-24
1118311,23754280,"2019 W Western Dr, Chandler, AZ 85224 ",85224,0.6831297636032104,236500,https://www.zillow.com/homedetails/2019-W-Western-Dr-Chandler-AZ-85224/8197093_zpid/,33.3558,-111.87899999999999,2017-10-12,2017-10-12
378956,23753283,"11206 N 37th Ave, Phoenix, AZ 85029 ",85029,0.6828128099441528,224900,https://www.zillow.com/homedetails/11206-N-37th-Ave-Phoenix-AZ-85029/7743882_zpid/,33.5877,-112.139,2017-10-11,2017-10-11
9005657,22739452,"10439 W Papago St, Tolleson, AZ 85353 ",85353,0.6816397070884704,229900,https://www.zillow.com/homedetails/10439-W-Papago-St-Tolleson-AZ-85353/125986296_zpid/,33.4338,-112.24600000000001,2017-10-05,2017-10-05
229334,22738886,"16290 N 29th Ave, Phoenix, AZ 85053 ",85053,0.6812231481075287,221900,https://www.zillow.com/homedetails/16290-N-29th-Ave-Phoenix-AZ-85053/7954076_zpid/,33.6347,-112.12,2017-10-04,2017-10-04
397538,23810931,"4046 W Cactus Rd, Phoenix, AZ 85029 ",85029,0.680571848154068,225000,https://www.zillow.com/homedetails/4046-W-Cactus-Rd-Phoenix-AZ-85029/7742480_zpid/,33.5968,-112.146,2017-10-27,2017-10-27
422412,23760087,"6622 W Golden Ln, Glendale, AZ 85302 ",85302,0.6805584311485291,190000,https://www.zillow.com/homedetails/6622-W-Golden-Ln-Glendale-AZ-85302/50187805_zpid/,33.5652,-112.20200000000001,2017-10-20,2017-10-20
9021565,23760091,"6974 W Juniper Ave, Peoria, AZ 85382 ",85382,0.6800658583641053,219900,https://www.zillow.com/homedetails/6974-W-Juniper-Ave-Peoria-AZ-85382/7903019_zpid/,33.6365,-112.21,2017-10-21,2017-10-21
224188,23754064,"14213 N 35th Dr, Phoenix, AZ 85053 ",85053,0.6800077795982361,200000,https://www.zillow.com/homedetails/14213-N-35th-Dr-Phoenix-AZ-85053/7944539_zpid/,33.6154,-112.135,2017-10-16,2017-10-16
354621,23808089,"2310 E Winchcomb Dr, Phoenix, AZ 85022 ",85022,0.6793773353099823,224900,https://www.zillow.com/homedetails/2310-E-Winchcomb-Dr-Phoenix-AZ-85022/8010116_zpid/,33.6168,-112.03399999999999,2017-10-25,2017-10-25
449589,23828600,"8551 W Sheridan St, Phoenix, AZ 85037 ",85037,0.6792166471481323,220000,https://www.zillow.com/homedetails/8551-W-Sheridan-St-Phoenix-AZ-85037/7487376_zpid/,33.4745,-112.245,2017-10-23,2017-10-23
8989019,22747254,"2049 N 77th Gln, Phoenix, AZ 85035 ",85035,0.6780983686447144,168250,https://www.zillow.com/homedetails/2049-N-77th-Gln-Phoenix-AZ-85035/95149994_zpid/,33.4706,-112.226,2017-10-05,2017-10-05
526828,22737450,"9418 W Sheridan St, Phoenix, AZ 85037 ",85037,0.6774839699268341,214500,https://www.zillow.com/homedetails/9418-W-Sheridan-St-Phoenix-AZ-85037/67773035_zpid/,33.475,-112.262,2017-09-28,2017-09-28
9020269,23829609,"18028 N 19th St, Phoenix, AZ 85022 ",85022,0.6774557650089263,144990,https://www.zillow.com/homedetails/18028-N-19th-St-Phoenix-AZ-85022/8001127_zpid/,33.6505,-112.042,2017-11-09,2017-11-09
1414927,22731466,"7413 N 67th Dr, Glendale, AZ 85303 ",85303,0.6771742701530457,214900,https://www.zillow.com/homedetails/7413-N-67th-Dr-Glendale-AZ-85303/7705033_zpid/,33.5447,-112.20299999999999,2017-09-29,2017-09-29
397149,22712744,"4019 W Yucca St, Phoenix, AZ 85029 ",85029,0.6765606284141541,230000,https://www.zillow.com/homedetails/4019-W-Yucca-St-Phoenix-AZ-85029/7744828_zpid/,33.5877,-112.146,2017-09-23,2017-09-23
409707,23564615,"4513 W Sunnyside Ave, Glendale, AZ 85304 ",85304,0.6765476107597351,239900,https://www.zillow.com/homedetails/4513-W-Sunnyside-Ave-Glendale-AZ-85304/7726914_zpid/,33.5922,-112.156,2017-10-13,2017-10-13
8968871,23512069,"15611 N 33rd Pl, Phoenix, AZ 85032 ",85032,0.6751274287700653,210000,https://www.zillow.com/homedetails/15611-N-33rd-Pl-Phoenix-AZ-85032/55267923_zpid/,33.6291,-112.01,2017-10-10,2017-10-10
9012276,23755797,"5861 W Grovers Ave, Glendale, AZ 85308 ",85308,0.6743706047534943,207000,https://www.zillow.com/homedetails/5861-W-Grovers-Ave-Glendale-AZ-85308/8099781_zpid/,33.6472,-112.186,2017-10-18,2017-10-18
392592,23803343,"3302 W Pershing Ave, Phoenix, AZ 85029 ",85029,0.674339884519577,189900,https://www.zillow.com/homedetails/3302-W-Pershing-Ave-Phoenix-AZ-85029/7745089_zpid/,33.6058,-112.12899999999999,2017-10-22,2017-10-22
422451,22733384,"6639 W Brown St, Glendale, AZ 85302 ",85302,0.6739902079105378,199900,https://www.zillow.com/homedetails/6639-W-Brown-St-Glendale-AZ-85302/7706586_zpid/,33.5781,-112.20200000000001,2017-10-02,2017-10-02
8970849,23830064,"3715 E Delcoa Dr, Phoenix, AZ 85032 ",85032,0.6731225430965424,220000,https://www.zillow.com/homedetails/3715-E-Delcoa-Dr-Phoenix-AZ-85032/7813615_zpid/,33.6109,-112.00200000000001,2017-10-25,2017-10-25
404051,23755789,"13002 N 55th Dr, Glendale, AZ 85304 ",85304,0.6729951739311218,249900,https://www.zillow.com/homedetails/13002-N-55th-Dr-Glendale-AZ-85304/7896792_zpid/,33.6019,-112.175,2017-10-18,2017-10-18
406394,22734683,"5218 W Banff Ln, Glendale, AZ 85306 ",85306,0.6721715271472931,159000,https://www.zillow.com/homedetails/5218-W-Banff-Ln-Glendale-AZ-85306/7911066_zpid/,33.6195,-112.17200000000001,2017-10-03,2017-10-03
22933,22734467,"8739 W Fairmount Ave, Phoenix, AZ 85037 ",85037,0.6718271493911743,170000,https://www.zillow.com/homedetails/8739-W-Fairmount-Ave-Phoenix-AZ-85037/7471067_zpid/,33.492,-112.24799999999999,2017-10-03,2017-10-03
422454,22731449,"6652 W Delmonico Ln, Glendale, AZ 85302 ",85302,0.6717808902263641,235000,https://www.zillow.com/homedetails/6652-W-Delmonico-Ln-Glendale-AZ-85302/50187742_zpid/,33.5645,-112.20200000000001,2017-09-29,2017-09-29
420565,22722076,"5807 W Golden Ln, Glendale, AZ 85302 ",85302,0.6708928525447846,225000,https://www.zillow.com/homedetails/5807-W-Golden-Ln-Glendale-AZ-85302/7733220_zpid/,33.5649,-112.185,2017-09-26,2017-09-26
830554,23800544,"3821 W Tuckey Ln, Phoenix, AZ 85019 ",85019,0.670619398355484,185000,https://www.zillow.com/homedetails/3821-W-Tuckey-Ln-Phoenix-AZ-85019/7758572_zpid/,33.5334,-112.14200000000001,2017-10-24,2017-10-24
247335,23797270,"2232 W Sequoia Dr, Phoenix, AZ 85027 ",85027,0.6695048689842225,229995,https://www.zillow.com/homedetails/2232-W-Sequoia-Dr-Phoenix-AZ-85027/7970402_zpid/,33.663000000000004,-112.10799999999999,2017-10-24,2017-10-24
243287,22690475,"3218 W Angela Dr, Phoenix, AZ 85053 ",85053,0.6694787621498108,209000,https://www.zillow.com/homedetails/3218-W-Angela-Dr-Phoenix-AZ-85053/7942085_zpid/,33.6461,-112.12899999999999,2017-09-18,2017-09-18
448364,23512346,"8402 W Fairmount Ave, Phoenix, AZ 85037 ",85037,0.6691424489021301,170000,https://www.zillow.com/homedetails/8402-W-Fairmount-Ave-Phoenix-AZ-85037/7470144_zpid/,33.4902,-112.24,2017-10-10,2017-10-10
1115786,23756148,"1723 N Longmore St, Chandler, AZ 85224 ",85224,0.6690316259860992,229900,https://www.zillow.com/homedetails/1723-N-Longmore-St-Chandler-AZ-85224/8193731_zpid/,33.3324,-111.868,2017-10-18,2017-10-18
334383,22732912,"12827 N 22nd Pl, Phoenix, AZ 85022 ",85022,0.668716436624527,218000,https://www.zillow.com/homedetails/12827-N-22nd-Pl-Phoenix-AZ-85022/7815663_zpid/,33.6034,-112.03299999999999,2017-10-01,2017-10-01
237433,23754381,"2957 W Michelle Dr, Phoenix, AZ 85053 ",85053,0.668668007850647,230000,https://www.zillow.com/homedetails/2957-W-Michelle-Dr-Phoenix-AZ-85053/7940747_zpid/,33.6492,-112.124,2017-10-16,2017-10-16
9018492,23649027,"8938 W Vogel Ave, Peoria, AZ 85345 ",85345,0.6682456970214844,195000,https://www.zillow.com/homedetails/8938-W-Vogel-Ave-Peoria-AZ-85345/7696649_zpid/,33.5716,-112.25200000000001,2017-10-13,2017-10-13
8969496,23512165,"2433 E Karen Dr, Phoenix, AZ 85032 ",85032,0.6677206456661224,247900,https://www.zillow.com/homedetails/2433-E-Karen-Dr-Phoenix-AZ-85032/8013849_zpid/,33.6257,-112.029,2017-10-02,2017-10-02
9021166,23755396,"7624 W Comet Ave, Peoria, AZ 85345 ",85345,0.6671109795570374,214900,https://www.zillow.com/homedetails/7624-W-Comet-Ave-Peoria-AZ-85345/7682505_zpid/,33.5791,-112.223,2017-10-17,2017-10-17
1414969,23527039,"7414 W Tuckey Ln, Glendale, AZ 85303 ",85303,0.6668204009532929,204900,https://www.zillow.com/homedetails/7414-W-Tuckey-Ln-Glendale-AZ-85303/7706691_zpid/,33.533,-112.219,2017-10-11,2017-10-11
8989113,22740158,"19153 N 75th Dr, Glendale, AZ 85308 ",85308,0.6660329520702362,235000,https://www.zillow.com/homedetails/19153-N-75th-Dr-Glendale-AZ-85308/7892099_zpid/,33.6583,-112.221,2017-10-05,2017-10-05
9016137,23757899,"3207 W Sunnyside Ave, Phoenix, AZ 85029 ",85029,0.6657510757446289,234900,https://www.zillow.com/homedetails/3207-W-Sunnyside-Ave-Phoenix-AZ-85029/7749041_zpid/,33.5936,-112.12899999999999,2017-10-19,2017-10-19
395088,22745777,"7623 N 40th Dr, Phoenix, AZ 85051 ",85051,0.6650362849235535,179900,https://www.zillow.com/homedetails/7623-N-40th-Dr-Phoenix-AZ-85051/7757964_zpid/,33.5484,-112.145,2017-10-09,2017-10-09
527735,23828743,"9507 W Monte Vista Rd, Phoenix, AZ 85037 ",85037,0.6649922490119934,214900,https://www.zillow.com/homedetails/9507-W-Monte-Vista-Rd-Phoenix-AZ-85037/60974973_zpid/,33.4697,-112.265,2017-10-24,2017-10-24
1867405,23806135,"7571 W Comet Ave, Peoria, AZ 85345 ",85345,0.6648775279521942,212000,https://www.zillow.com/homedetails/7571-W-Comet-Ave-Peoria-AZ-85345/7682477_zpid/,33.5791,-112.22200000000001,2017-10-25,2017-10-25
394229,22745774,"7201 N 37th Ave, Phoenix, AZ 85051 ",85051,0.6611821055412292,164900,https://www.zillow.com/homedetails/7201-N-37th-Ave-Phoenix-AZ-85051/7756316_zpid/,33.5423,-112.13799999999999,2017-10-09,2017-10-09
1347860,22924091,"5172 W Morten Ave, Glendale, AZ 85301 ",85301,0.6611501693725585,239000,https://www.zillow.com/homedetails/5172-W-Morten-Ave-Glendale-AZ-85301/52425448_zpid/,33.5473,-112.17,2017-10-10,2017-10-10
393461,22738571,"4244 W Butler Dr, Phoenix, AZ 85051 ",85051,0.6610434949398041,185900,https://www.zillow.com/homedetails/4244-W-Butler-Dr-Phoenix-AZ-85051/7752975_zpid/,33.5601,-112.15100000000001,2017-09-29,2017-09-29
422357,23752505,"6612 W Brown St, Glendale, AZ 85302 ",85302,0.6603722989559173,199000,https://www.zillow.com/homedetails/6612-W-Brown-St-Glendale-AZ-85302/7706362_zpid/,33.5783,-112.20100000000001,2017-10-14,2017-10-14
8992552,23527037,"6029 W Mary Jane Ln, Glendale, AZ 85306 ",85306,0.6603354334831237,239000,https://www.zillow.com/homedetails/6029-W-Mary-Jane-Ln-Glendale-AZ-85306/8097193_zpid/,33.6273,-112.189,2017-10-11,2017-10-11
8969477,23756066,"9324 W Mountain View Rd, Peoria, AZ 85345 ",85345,0.6596093118190766,214000,https://www.zillow.com/homedetails/9324-W-Mountain-View-Rd-Peoria-AZ-85345/7697441_zpid/,33.5733,-112.26100000000001,2017-10-18,2017-10-18
394868,23527465,"3656 W Windrose Dr, Phoenix, AZ 85029 ",85029,0.6587984144687653,229900,https://www.zillow.com/homedetails/3656-W-Windrose-Dr-Phoenix-AZ-85029/7742970_zpid/,33.6016,-112.137,2017-10-12,2017-10-12
223069,23526873,"13828 N 41st Ave, Phoenix, AZ 85053 ",85053,0.6584424197673797,243000,https://www.zillow.com/homedetails/13828-N-41st-Ave-Phoenix-AZ-85053/7945205_zpid/,33.6119,-112.147,2017-10-11,2017-10-11
9021812,23806145,"8837 W Brown St, Peoria, AZ 85345 ",85345,0.6583271741867065,194000,https://www.zillow.com/homedetails/8837-W-Brown-St-Peoria-AZ-85345/7684187_zpid/,33.5763,-112.25,2017-10-25,2017-10-25
486236,22747377,"4809 W Monte Vista Rd, Phoenix, AZ 85035 ",85035,0.6581453800201416,172900,https://www.zillow.com/homedetails/4809-W-Monte-Vista-Rd-Phoenix-AZ-85035/87791786_zpid/,33.4713,-112.163,2017-10-10,2017-10-10
8982670,23753363,"1934 N Iowa St, Chandler, AZ 85225 ",85225,0.6575834393501282,215500,https://www.zillow.com/homedetails/1934-N-Iowa-St-Chandler-AZ-85225/8182675_zpid/,33.3331,-111.85,2017-10-13,2017-10-13
9021060,23754387,"3522 W Michelle Dr, Glendale, AZ 85308 ",85308,0.6575576663017273,232500,https://www.zillow.com/homedetails/3522-W-Michelle-Dr-Glendale-AZ-85308/7947823_zpid/,33.6498,-112.135,2017-10-16,2017-10-16
1466628,23756048,"17464 N 92nd Gln, Peoria, AZ 85382 ",85382,0.6575459897518158,249900,https://www.zillow.com/homedetails/17464-N-92nd-Gln-Peoria-AZ-85382/95078061_zpid/,33.6427,-112.258,2017-10-18,2017-10-18
402515,23808878,"15205 N 51st Dr, Glendale, AZ 85306 ",85306,0.6570447444915771,189900,https://www.zillow.com/homedetails/15205-N-51st-Dr-Glendale-AZ-85306/7910980_zpid/,33.6226,-112.169,2017-10-26,2017-10-26
469895,23526992,"3401 W Tuckey Ln, Phoenix, AZ 85017 ",85017,0.6559951305389404,169000,https://www.zillow.com/homedetails/3401-W-Tuckey-Ln-Phoenix-AZ-85017/7760733_zpid/,33.5332,-112.132,2017-10-11,2017-10-11
444887,22730839,"4607 N 92nd Ln, Phoenix, AZ 85037 ",85037,0.6550430655479431,214900,https://www.zillow.com/homedetails/4607-N-92nd-Ln-Phoenix-AZ-85037/7466411_zpid/,33.5044,-112.259,2017-09-28,2017-09-28
345778,23810944,"17441 N 20th St, Phoenix, AZ 85022 ",85022,0.6542885899543762,235000,https://www.zillow.com/homedetails/17441-N-20th-St-Phoenix-AZ-85022/8000666_zpid/,33.6457,-112.039,2017-10-27,2017-10-27
398347,23819805,"4148 W Bloomfield Rd, Phoenix, AZ 85029 ",85029,0.6536075174808502,228900,https://www.zillow.com/homedetails/4148-W-Bloomfield-Rd-Phoenix-AZ-85029/7742599_zpid/,33.5988,-112.149,2017-11-03,2017-11-03
230962,23796591,"19225 N 13th St, Phoenix, AZ 85024 ",85024,0.6533488988876343,228000,https://www.zillow.com/homedetails/19225-N-13th-St-Phoenix-AZ-85024/7995445_zpid/,33.6614,-112.054,2017-10-23,2017-10-23
403656,22738452,"12633 N 47th Dr, Glendale, AZ 85304 ",85304,0.6528477311134339,186999,https://www.zillow.com/homedetails/12633-N-47th-Dr-Glendale-AZ-85304/7954518_zpid/,33.601,-112.161,2017-09-28,2017-09-28
8973719,22726972,"9226 W Coolbrook Ave, Peoria, AZ 85382 ",85382,0.6527329504489898,239900,https://www.zillow.com/homedetails/9226-W-Coolbrook-Ave-Peoria-AZ-85382/95165053_zpid/,33.6421,-112.258,2017-09-27,2017-09-27
17178,22720130,"14813 N 35th St, Phoenix, AZ 85032 ",85032,0.6522197306156159,204900,https://www.zillow.com/homedetails/14813-N-35th-St-Phoenix-AZ-85032/8014278_zpid/,33.6214,-112.006,2017-09-25,2017-09-25
9021889,23808090,"2926 E Charleston Ave, Phoenix, AZ 85032 ",85032,0.6519891500473023,175000,https://www.zillow.com/homedetails/2926-E-Charleston-Ave-Phoenix-AZ-85032/7998861_zpid/,33.6495,-112.01899999999999,2017-10-25,2017-10-25
391605,23759518,"4120 W Ironwood Dr, Phoenix, AZ 85051 ",85051,0.651850950717926,245000,https://www.zillow.com/homedetails/4120-W-Ironwood-Dr-Phoenix-AZ-85051/7746405_zpid/,33.5754,-112.147,2017-10-21,2017-10-21
9022078,23810726,"1132 E Villa Maria Dr, Phoenix, AZ 85022 ",85022,0.6510203063488007,215000,https://www.zillow.com/homedetails/1132-E-Villa-Maria-Dr-Phoenix-AZ-85022/8002438_zpid/,33.6518,-112.057,2017-10-27,2017-10-27
13738,23752919,"5444 W Gardenia Ave, Glendale, AZ 85301 ",85301,0.6509997189044953,160000,https://www.zillow.com/homedetails/5444-W-Gardenia-Ave-Glendale-AZ-85301/7726172_zpid/,33.5452,-112.177,2017-10-15,2017-10-15
1090459,23810641,"631 W Caroline Ln, Chandler, AZ 85225 ",85225,0.6506943166255951,230000,https://www.zillow.com/homedetails/631-W-Caroline-Ln-Chandler-AZ-85225/8183658_zpid/,33.3304,-111.851,2017-10-27,2017-10-27
354848,22739897,"2320 E Beck Ln, Phoenix, AZ 85022 ",85022,0.6506358683109283,170000,https://www.zillow.com/homedetails/2320-E-Beck-Ln-Phoenix-AZ-85022/8007959_zpid/,33.626999999999995,-112.03299999999999,2017-10-04,2017-10-04
431225,23756305,"6723 W Earll Dr, Phoenix, AZ 85033 ",85033,0.6500634789466858,153900,https://www.zillow.com/homedetails/6723-W-Earll-Dr-Phoenix-AZ-85033/7468541_zpid/,33.4834,-112.204,2017-10-18,2017-10-18
501356,23828460,"7762 W Pipestone Pl, Phoenix, AZ 85035 ",85035,0.6500396847724914,185000,https://www.zillow.com/homedetails/7762-W-Pipestone-Pl-Phoenix-AZ-85035/95118267_zpid/,33.4726,-112.226,2017-10-25,2017-10-25
9018341,23569410,"18613 N 68th Ave, Glendale, AZ 85308 ",85308,0.6498418629169465,249900,https://www.zillow.com/homedetails/18613-N-68th-Ave-Glendale-AZ-85308/7891573_zpid/,33.6545,-112.205,2017-10-13,2017-10-13
9021673,23796925,"4918 W Echo Ln, Glendale, AZ 85302 ",85302,0.6488158285617829,239900,https://www.zillow.com/homedetails/4918-W-Echo-Ln-Glendale-AZ-85302/92348539_zpid/,33.56,-112.165,2017-10-23,2017-10-23
349893,23809734,"18437 N 8th Pl, Phoenix, AZ 85022 ",85022,0.6480844736099243,215000,https://www.zillow.com/homedetails/18437-N-8th-Pl-Phoenix-AZ-85022/8002699_zpid/,33.6545,-112.061,2017-10-27,2017-10-27
477499,23753529,"1636 N 73rd Dr, Phoenix, AZ 85035 ",85035,0.6479818224906921,175000,https://www.zillow.com/homedetails/1636-N-73rd-Dr-Phoenix-AZ-85035/7475024_zpid/,33.4671,-112.21700000000001,2017-10-12,2017-10-12
527019,22747540,"9424 W Pierson St, Phoenix, AZ 85037 ",85037,0.6476888835430146,212000,https://www.zillow.com/homedetails/9424-W-Pierson-St-Phoenix-AZ-85037/52423672_zpid/,33.5071,-112.26299999999999,2017-10-10,2017-10-10
9019087,22731125,"3117 E Charleston Ave, Phoenix, AZ 85032 ",85032,0.6474808752536774,239999,https://www.zillow.com/homedetails/3117-E-Charleston-Ave-Phoenix-AZ-85032/7999065_zpid/,33.6498,-112.015,2017-09-30,2017-09-30
391229,23512195,"3120 W Clinton St, Phoenix, AZ 85029 ",85029,0.6474321544170379,182000,https://www.zillow.com/homedetails/3120-W-Clinton-St-Phoenix-AZ-85029/7740856_zpid/,33.5834,-112.126,2017-10-07,2017-10-07
9019399,23759454,"15032 N 26th St, Phoenix, AZ 85032 ",85032,0.6472813129425049,240000,https://www.zillow.com/homedetails/15032-N-26th-St-Phoenix-AZ-85032/8013907_zpid/,33.6237,-112.027,2017-10-20,2017-10-20
497370,23828357,"6740 W Encanto Blvd, Phoenix, AZ 85035 ",85035,0.6464136719703675,195000,https://www.zillow.com/homedetails/6740-W-Encanto-Blvd-Phoenix-AZ-85035/7475724_zpid/,33.4737,-112.205,2017-10-17,2017-10-17
378692,22719387,"10228 N 36th Ave, Phoenix, AZ 85051 ",85051,0.6462465167045593,195000,https://www.zillow.com/homedetails/10228-N-36th-Ave-Phoenix-AZ-85051/7745264_zpid/,33.5794,-112.13600000000001,2017-09-25,2017-09-25
833557,23560179,"5747 N 38th Dr, Phoenix, AZ 85019 ",85019,0.6457012295722961,198900,https://www.zillow.com/homedetails/5747-N-38th-Dr-Phoenix-AZ-85019/7719106_zpid/,33.5221,-112.141,2017-10-13,2017-10-13
422582,23760094,"8112 N 60th Ln, Glendale, AZ 85302 ",85302,0.6456894934177398,185000,https://www.zillow.com/homedetails/8112-N-60th-Ln-Glendale-AZ-85302/7704280_zpid/,33.5545,-112.19,2017-10-21,2017-10-21
40221,23817839,"2920 S 72nd Ln, Phoenix, AZ 85043 ",85043,0.6452619910240174,224900,https://www.zillow.com/homedetails/2920-S-72nd-Ln-Phoenix-AZ-85043/67788653_zpid/,33.4217,-112.21700000000001,2017-11-01,2017-11-01
9019686,22738495,"17452 N 55th Ave, Glendale, AZ 85308 ",85308,0.6450845718383789,249900,https://www.zillow.com/homedetails/17452-N-55th-Ave-Glendale-AZ-85308/8099766_zpid/,33.6452,-112.178,2017-10-04,2017-10-04
9021756,23800765,"8749 W Fullam St, Peoria, AZ 85382 ",85382,0.6448930382728577,199500,https://www.zillow.com/homedetails/8749-W-Fullam-St-Peoria-AZ-85382/7898649_zpid/,33.6501,-112.24799999999999,2017-10-24,2017-10-24
8959309,23803780,"4201 W Mission Ln, Phoenix, AZ 85051 ",85051,0.6437820851802826,219000,https://www.zillow.com/homedetails/4201-W-Mission-Ln-Phoenix-AZ-85051/7746195_zpid/,33.5703,-112.149,2017-10-19,2017-10-19
421276,23815020,"6266 W Cochise Dr, Glendale, AZ 85302 ",85302,0.6434649467468262,232000,https://www.zillow.com/homedetails/6266-W-Cochise-Dr-Glendale-AZ-85302/7703780_zpid/,33.5806,-112.193,2017-10-30,2017-10-30
1857836,23512369,"8932 W Ironwood Dr, Peoria, AZ 85345 ",85345,0.6427197754383087,188000,https://www.zillow.com/homedetails/8932-W-Ironwood-Dr-Peoria-AZ-85345/7684236_zpid/,33.5746,-112.25200000000001,2017-10-09,2017-10-09
227536,22735776,"15219 N 37th Ave, Phoenix, AZ 85053 ",85053,0.6424348473548889,219000,https://www.zillow.com/homedetails/15219-N-37th-Ave-Phoenix-AZ-85053/7944373_zpid/,33.6242,-112.137,2017-09-22,2017-09-22
388766,22745700,"3835 W Ruth Ave, Phoenix, AZ 85051 ",85051,0.6420981764793396,162500,https://www.zillow.com/homedetails/3835-W-Ruth-Ave-Phoenix-AZ-85051/7752429_zpid/,33.5625,-112.14200000000001,2017-10-08,2017-10-08
1093584,23758033,"781 W Del Rio St, Chandler, AZ 85225 ",85225,0.6418147623538971,249900,https://www.zillow.com/homedetails/781-W-Del-Rio-St-Chandler-AZ-85225/8186554_zpid/,33.3158,-111.854,2017-10-20,2017-10-20
8992065,23759230,"1935 W Utopia Rd, Phoenix, AZ 85027 ",85027,0.6411575675010681,224000,https://www.zillow.com/homedetails/1935-W-Utopia-Rd-Phoenix-AZ-85027/7969900_zpid/,33.662,-112.102,2017-10-20,2017-10-20
17301,23755286,"5852 W Orangewood Ave, Glendale, AZ 85301 ",85301,0.6406300067901611,179900,https://www.zillow.com/homedetails/5852-W-Orangewood-Ave-Glendale-AZ-85301/7726635_zpid/,33.5461,-112.186,2017-10-18,2017-10-18
339679,23527007,"7027 N 23rd Ln, Phoenix, AZ 85021 ",85021,0.640563690662384,149750,https://www.zillow.com/homedetails/7027-N-23rd-Ln-Phoenix-AZ-85021/7779133_zpid/,33.5397,-112.11,2017-10-11,2017-10-11
527753,23797429,"9509 W Elm St, Phoenix, AZ 85037 ",85037,0.640121853351593,205000,https://www.zillow.com/homedetails/9509-W-Elm-St-Phoenix-AZ-85037/55256235_zpid/,33.5056,-112.265,2017-10-24,2017-10-24
7419652,23752910,"4450 N 37TH Ave, Phoenix, AZ 85019 ",85019,0.6388362765312194,240000,https://www.zillow.com/homedetails/4450-N-37TH-Ave-Phoenix-AZ-85019/95137035_zpid/,33.5016,-112.139,2017-10-15,2017-10-15
388525,23754065,"2330 W Columbine Dr, Phoenix, AZ 85029 ",85029,0.6384610831737518,219900,https://www.zillow.com/homedetails/2330-W-Columbine-Dr-Phoenix-AZ-85029/7738746_zpid/,33.5996,-112.109,2017-10-16,2017-10-16
264257,23752112,"7723 W Oraibi Dr, Glendale, AZ 85308 ",85308,0.6377265810966491,244995,https://www.zillow.com/homedetails/7723-W-Oraibi-Dr-Glendale-AZ-85308/7891683_zpid/,33.6615,-112.22399999999999,2017-10-13,2017-10-13
392024,23756985,"4134 W Linger Ln, Phoenix, AZ 85051 ",85051,0.6375196874141693,235000,https://www.zillow.com/homedetails/4134-W-Linger-Ln-Phoenix-AZ-85051/7755387_zpid/,33.5528,-112.148,2017-10-19,2017-10-19
9206,22707770,"1220 W Ironwood Dr, Phoenix, AZ 85021 ",85021,0.637453681230545,175000,https://www.zillow.com/homedetails/1220-W-Ironwood-Dr-Phoenix-AZ-85021/7781692_zpid/,33.576,-112.089,2017-09-22,2017-09-22
9019605,22737585,"9213 W Fillmore St, Tolleson, AZ 85353 ",85353,0.6362395048141479,195000,https://www.zillow.com/homedetails/9213-W-Fillmore-St-Tolleson-AZ-85353/7476932_zpid/,33.4532,-112.258,2017-10-04,2017-10-04
1373477,22734771,"8762 W Mclellan Rd, Glendale, AZ 85305 ",85305,0.6361158013343811,220000,https://www.zillow.com/homedetails/8762-W-Mclellan-Rd-Glendale-AZ-85305/7461585_zpid/,33.532,-112.249,2017-10-02,2017-10-02
9019302,22733399,"4718 W Nicolet Ave, Glendale, AZ 85301 ",85301,0.6360644161701202,169000,https://www.zillow.com/homedetails/4718-W-Nicolet-Ave-Glendale-AZ-85301/7725715_zpid/,33.5429,-112.161,2017-10-02,2017-10-02
833447,23561389,"5713 N 42nd Ave, Phoenix, AZ 85019 ",85019,0.6360353767871857,165000,https://www.zillow.com/homedetails/5713-N-42nd-Ave-Phoenix-AZ-85019/7718429_zpid/,33.5207,-112.148,2017-10-13,2017-10-13
1344284,22924285,"4622 W Palmaire Ave, Glendale, AZ 85301 ",85301,0.6360284626483917,200000,https://www.zillow.com/homedetails/4622-W-Palmaire-Ave-Glendale-AZ-85301/7725531_zpid/,33.5407,-112.15899999999999,2017-10-07,2017-10-07
655,23759939,"2207 W Marlette Ave, Phoenix, AZ 85015 ",85015,0.6357000231742859,170000,https://www.zillow.com/homedetails/2207-W-Marlette-Ave-Phoenix-AZ-85015/7773096_zpid/,33.5291,-112.10700000000001,2017-10-20,2017-10-20
9021871,23807926,"12120 N 89th Dr, Peoria, AZ 85345 ",85345,0.6351813793182373,249900,https://www.zillow.com/homedetails/12120-N-89th-Dr-Peoria-AZ-85345/7685583_zpid/,33.5947,-112.25200000000001,2017-10-25,2017-10-25
390375,23759015,"3010 W Sahuaro Dr, Phoenix, AZ 85029 ",85029,0.6350372850894928,215000,https://www.zillow.com/homedetails/3010-W-Sahuaro-Dr-Phoenix-AZ-85029/7739762_zpid/,33.5843,-112.124,2017-10-20,2017-10-20
9004346,22704088,"2412 N 73rd Ln, Phoenix, AZ 85035 ",85035,0.6348710834980011,219000,https://www.zillow.com/homedetails/2412-N-73rd-Ln-Phoenix-AZ-85035/95085660_zpid/,33.4744,-112.21799999999999,2017-09-21,2017-09-21
252431,23804898,"824 E Piute Ave, Phoenix, AZ 85024 ",85024,0.6341345191001893,239900,https://www.zillow.com/homedetails/824-E-Piute-Ave-Phoenix-AZ-85024/7996367_zpid/,33.6639,-112.06200000000001,2017-10-21,2017-10-21
9019387,22734485,"6810 W Merrell St, Phoenix, AZ 85033 ",85033,0.6341320097446441,185000,https://www.zillow.com/homedetails/6810-W-Merrell-St-Phoenix-AZ-85033/7468727_zpid/,33.4824,-112.206,2017-10-02,2017-10-02
410753,23759090,"4934 W Becker Ln, Glendale, AZ 85304 ",85304,0.6340618073940277,238500,https://www.zillow.com/homedetails/4934-W-Becker-Ln-Glendale-AZ-85304/67083499_zpid/,33.5826,-112.166,2017-10-20,2017-10-20
629569,23810381,"1645 W Peralta Ave, Mesa, AZ 85202 ",85202,0.6340084701776505,229900,https://www.zillow.com/homedetails/1645-W-Peralta-Ave-Mesa-AZ-85202/8191627_zpid/,33.3572,-111.87,2017-10-27,2017-10-27
479569,23756167,"2212 N 50th Ave, Phoenix, AZ 85035 ",85035,0.6340038418769837,149900,https://www.zillow.com/homedetails/2212-N-50th-Ave-Phoenix-AZ-85035/7494270_zpid/,33.472,-112.167,2017-10-11,2017-10-11
445578,23821358,"4653 N 99th Dr, Phoenix, AZ 85037 ",85037,0.6339961349964142,210000,https://www.zillow.com/homedetails/4653-N-99th-Dr-Phoenix-AZ-85037/7484444_zpid/,33.5037,-112.273,2017-10-25,2017-10-25
390730,22745703,"4032 W North Ln, Phoenix, AZ 85051 ",85051,0.6337923645973206,195000,https://www.zillow.com/homedetails/4032-W-North-Ln-Phoenix-AZ-85051/7746045_zpid/,33.5817,-112.146,2017-10-08,2017-10-08
8985320,23825569,"4348 W Bluefield Ave, Glendale, AZ 85308 ",85308,0.6335022270679473,248000,https://www.zillow.com/homedetails/4348-W-Bluefield-Ave-Glendale-AZ-85308/7949163_zpid/,33.6517,-112.154,2017-11-09,2017-11-09
237867,23806247,"1650 W Muriel Dr, Phoenix, AZ 85023 ",85023,0.6329158127307892,195000,https://www.zillow.com/homedetails/1650-W-Muriel-Dr-Phoenix-AZ-85023/7958466_zpid/,33.646,-112.095,2017-10-25,2017-10-25
485536,22747620,"4501 W Granada Rd, Phoenix, AZ 85035 ",85035,0.6328411042690277,160000,https://www.zillow.com/homedetails/4501-W-Granada-Rd-Phoenix-AZ-85035/7494981_zpid/,33.468,-112.156,2017-10-10,2017-10-10
12224,23796679,"2809 W Loma Ln, Phoenix, AZ 85051 ",85051,0.6323557555675506,179999,https://www.zillow.com/homedetails/2809-W-Loma-Ln-Phoenix-AZ-85051/7751044_zpid/,33.5538,-112.12,2017-10-23,2017-10-23
9019728,22738893,"17413 N 8th Ave, Phoenix, AZ 85023 ",85023,0.6321308135986328,189500,https://www.zillow.com/homedetails/17413-N-8th-Ave-Phoenix-AZ-85023/7963487_zpid/,33.6445,-112.085,2017-10-04,2017-10-04
344412,23649622,"2406 W Tonto St, Phoenix, AZ 85009 ",85009,0.631759089231491,195000,https://www.zillow.com/homedetails/2406-W-Tonto-St-Phoenix-AZ-85009/7515658_zpid/,33.4388,-112.111,2017-10-12,2017-10-12
830401,23753647,"3811 W Flower St, Phoenix, AZ 85019 ",85019,0.6317192375659942,150000,https://www.zillow.com/homedetails/3811-W-Flower-St-Phoenix-AZ-85019/7507570_zpid/,33.4861,-112.14200000000001,2017-10-16,2017-10-16
149903,23800141,"8309 E Indian School Rd, Scottsdale, AZ 85251 ",85251,0.6310021340847015,239850,https://www.zillow.com/homedetails/8309-E-Indian-School-Rd-Scottsdale-AZ-85251/7577019_zpid/,33.4948,-111.902,2017-10-15,2017-10-15
364303,22743539,"9353 W Taylor St, Tolleson, AZ 85353 ",85353,0.6308005630970002,99000,https://www.zillow.com/homedetails/9353-W-Taylor-St-Tolleson-AZ-85353/7477007_zpid/,33.4524,-112.26100000000001,2017-10-07,2017-10-07
9015638,22704145,"8444 W Lewis Ave, Phoenix, AZ 85037 ",85037,0.6305110871791839,176900,https://www.zillow.com/homedetails/8444-W-Lewis-Ave-Phoenix-AZ-85037/82823102_zpid/,33.4743,-112.241,2017-09-21,2017-09-21
403204,22738450,"12401 N 47th Dr, Glendale, AZ 85304 ",85304,0.6303570032119751,234900,https://www.zillow.com/homedetails/12401-N-47th-Dr-Glendale-AZ-85304/7954440_zpid/,33.5982,-112.161,2017-09-26,2017-09-26
9002420,23799270,"4040 E Whitney Ln, Phoenix, AZ 85032 ",85032,0.6294248700141907,240000,https://www.zillow.com/homedetails/4040-E-Whitney-Ln-Phoenix-AZ-85032/8029522_zpid/,33.6217,-111.995,2017-10-18,2017-10-18
7415543,23760080,"5627 W Mission Ln, Glendale, AZ 85302 ",85302,0.6292332470417022,223900,https://www.zillow.com/homedetails/5627-W-Mission-Ln-Glendale-AZ-85302/7734682_zpid/,33.569,-112.18,2017-10-20,2017-10-20
9022216,23813716,"8333 W Watkins St, Tolleson, AZ 85353 ",85353,0.6277462214231491,194900,https://www.zillow.com/homedetails/8333-W-Watkins-St-Tolleson-AZ-85353/54886336_zpid/,33.4265,-112.24,2017-10-28,2017-10-28
391123,23564599,"3113 W Shangri La Rd, Phoenix, AZ 85029 ",85029,0.6276355147361755,220000,https://www.zillow.com/homedetails/3113-W-Shangri-La-Rd-Phoenix-AZ-85029/7740593_zpid/,33.588,-112.126,2017-10-13,2017-10-13
524898,23810672,"9134 W Cypress St, Phoenix, AZ 85037 ",85037,0.6274007737636567,214900,https://www.zillow.com/homedetails/9134-W-Cypress-St-Phoenix-AZ-85037/67762994_zpid/,33.4719,-112.257,2017-10-27,2017-10-27
1885528,22710615,"8223 W Carol Ave, Peoria, AZ 85345 ",85345,0.6271692752838135,205000,https://www.zillow.com/homedetails/8223-W-Carol-Ave-Peoria-AZ-85345/60978276_zpid/,33.5706,-112.236,2017-09-21,2017-09-21
476523,23755651,"3215 N 53rd Dr, Phoenix, AZ 85031 ",85031,0.6267688751220704,179000,https://www.zillow.com/homedetails/3215-N-53rd-Dr-Phoenix-AZ-85031/7497049_zpid/,33.4867,-112.17299999999999,2017-10-18,2017-10-18
417704,23817192,"4843 W Mountain View Rd, Glendale, AZ 85302 ",85302,0.6259335279464722,199900,https://www.zillow.com/homedetails/4843-W-Mountain-View-Rd-Glendale-AZ-85302/7730118_zpid/,33.5747,-112.164,2017-11-01,2017-11-01
9005267,23756302,"6502 W Orange Dr, Glendale, AZ 85301 ",85301,0.6255425214767456,199999,https://www.zillow.com/homedetails/6502-W-Orange-Dr-Glendale-AZ-85301/7714917_zpid/,33.5133,-112.198,2017-10-16,2017-10-16
958689,23817165,"3608 W Elgin St, Chandler, AZ 85226 ",85226,0.6254387676715851,249499,https://www.zillow.com/homedetails/3608-W-Elgin-St-Chandler-AZ-85226/8155921_zpid/,33.2976,-111.904,2017-11-01,2017-11-01
242590,22686911,"3202 W Angela Dr, Phoenix, AZ 85053 ",85053,0.6252633392810821,234900,https://www.zillow.com/homedetails/3202-W-Angela-Dr-Phoenix-AZ-85053/7942083_zpid/,33.6461,-112.12799999999999,2017-09-12,2017-09-12
361380,23818137,"8601 W Flavia Hvn, Tolleson, AZ 85353 ",85353,0.6246292531490326,245000,https://www.zillow.com/homedetails/8601-W-Flavia-Hvn-Tolleson-AZ-85353/59271170_zpid/,33.4241,-112.245,2017-11-02,2017-11-02
379528,22745656,"11438 N 30th Ave, Phoenix, AZ 85029 ",85029,0.6245143055915833,239900,https://www.zillow.com/homedetails/11438-N-30th-Ave-Phoenix-AZ-85029/7739912_zpid/,33.5907,-112.124,2017-10-10,2017-10-10
9021304,23756946,"2800 E Danbury Rd, Phoenix, AZ 85032 ",85032,0.6244612336158752,185000,https://www.zillow.com/homedetails/2800-E-Danbury-Rd-Phoenix-AZ-85032/7999387_zpid/,33.6418,-112.022,2017-10-19,2017-10-19
435285,23650449,"7821 W Cheery Lynn Rd, Phoenix, AZ 85033 ",85033,0.6243476867675781,175000,https://www.zillow.com/homedetails/7821-W-Cheery-Lynn-Rd-Phoenix-AZ-85033/7469425_zpid/,33.4823,-112.226,2017-10-14,2017-10-14
11893,22712711,"3648 W Minnezona Ave, Phoenix, AZ 85019 ",85019,0.6236028254032135,176850,https://www.zillow.com/homedetails/3648-W-Minnezona-Ave-Phoenix-AZ-85019/7506966_zpid/,33.5029,-112.13799999999999,2017-09-23,2017-09-23
1346544,22724803,"4852 W Frier Dr, Glendale, AZ 85301 ",85301,0.6235375165939331,235000,https://www.zillow.com/homedetails/4852-W-Frier-Dr-Glendale-AZ-85301/7724567_zpid/,33.5494,-112.164,2017-09-27,2017-09-27
835193,22740118,"3633 W Mariposa St, Phoenix, AZ 85019 ",85019,0.6232965469360352,180000,https://www.zillow.com/homedetails/3633-W-Mariposa-St-Phoenix-AZ-85019/7506850_zpid/,33.5075,-112.13799999999999,2017-10-05,2017-10-05
8996162,23760270,"8420 W Butler Dr, Peoria, AZ 85345 ",85345,0.6232683658599854,237500,https://www.zillow.com/homedetails/8420-W-Butler-Dr-Peoria-AZ-85345/7683722_zpid/,33.5593,-112.241,2017-10-21,2017-10-21
457253,23807220,"5007 W Pinchot Ave, Phoenix, AZ 85031 ",85031,0.6228042721748352,174999,https://www.zillow.com/homedetails/5007-W-Pinchot-Ave-Phoenix-AZ-85031/7510296_zpid/,33.4836,-112.167,2017-10-23,2017-10-23
8969573,22741412,"3002 N 54th Ln, Phoenix, AZ 85031 ",85031,0.6225180745124816,210000,https://www.zillow.com/homedetails/3002-N-54th-Ln-Phoenix-AZ-85031/7497284_zpid/,33.4831,-112.177,2017-10-06,2017-10-06
481066,22742303,"2332 N 72nd Dr, Phoenix, AZ 85035 ",85035,0.6219755470752716,165000,https://www.zillow.com/homedetails/2332-N-72nd-Dr-Phoenix-AZ-85035/7474687_zpid/,33.4742,-112.21600000000001,2017-10-06,2017-10-06
445988,23830262,"4719 N 92nd Ave, Phoenix, AZ 85037 ",85037,0.6218322873115539,135000,https://www.zillow.com/homedetails/4719-N-92nd-Ave-Phoenix-AZ-85037/7466534_zpid/,33.5063,-112.258,2017-11-09,2017-11-09
9021526,23759618,"7008 W Cesar St, Peoria, AZ 85345 ",85345,0.6217170417308807,167900,https://www.zillow.com/homedetails/7008-W-Cesar-St-Peoria-AZ-85345/67401351_zpid/,33.5823,-112.21,2017-10-20,2017-10-20
457960,23512295,"5355 W Earll Dr, Phoenix, AZ 85031 ",85031,0.6212275862693787,179900,https://www.zillow.com/homedetails/5355-W-Earll-Dr-Phoenix-AZ-85031/7496878_zpid/,33.4846,-112.175,2017-10-10,2017-10-10
9008452,23753560,"6758 W Vogel Ave, Peoria, AZ 85345 ",85345,0.6210330843925476,169900,https://www.zillow.com/homedetails/6758-W-Vogel-Ave-Peoria-AZ-85345/7702576_zpid/,33.5724,-112.205,2017-10-16,2017-10-16
233478,23794869,"19046 N 15th Ave, Phoenix, AZ 85027 ",85027,0.620904141664505,229900,https://www.zillow.com/homedetails/19046-N-15th-Ave-Phoenix-AZ-85027/7969522_zpid/,33.6598,-112.09200000000001,2017-10-22,2017-10-22
9020435,22875945,"3838 W Carol Ave, Phoenix, AZ 85051 ",85051,0.6201403200626373,219990,https://www.zillow.com/homedetails/3838-W-Carol-Ave-Phoenix-AZ-85051/7746969_zpid/,33.5731,-112.14200000000001,2017-10-10,2017-10-10
9021439,23809744,"17630 N 33rd Ln, Phoenix, AZ 85053 ",85053,0.6196712732315064,224500,https://www.zillow.com/homedetails/17630-N-33rd-Ln-Phoenix-AZ-85053/7942069_zpid/,33.6462,-112.131,2017-10-26,2017-10-26
9004987,23813468,"11048 N 16th Ave, Phoenix, AZ 85029 ",85029,0.6195738613605499,209900,https://www.zillow.com/homedetails/11048-N-16th-Ave-Phoenix-AZ-85029/7784826_zpid/,33.5871,-112.09299999999999,2017-10-26,2017-10-26
9006564,23814082,"16612 N 28th Way, Phoenix, AZ 85032 ",85032,0.619280868768692,194900,https://www.zillow.com/homedetails/16612-N-28th-Way-Phoenix-AZ-85032/8005824_zpid/,33.6376,-112.021,2017-10-29,2017-10-29
629600,23810385,"1646 W Pecos Ave, Mesa, AZ 85202 ",85202,0.6191923350095749,214900,https://www.zillow.com/homedetails/1646-W-Pecos-Ave-Mesa-AZ-85202/8191480_zpid/,33.3602,-111.87,2017-10-27,2017-10-27
1406073,22738291,"6732 W Medlock Dr, Glendale, AZ 85303 ",85303,0.6185603320598603,190000,https://www.zillow.com/homedetails/6732-W-Medlock-Dr-Glendale-AZ-85303/7709112_zpid/,33.5116,-112.205,2017-09-26,2017-09-26
644243,23819377,"2213 W Del Campo Cir, Mesa, AZ 85202 ",85202,0.6184765875339509,215000,https://www.zillow.com/homedetails/2213-W-Del-Campo-Cir-Mesa-AZ-85202/7602126_zpid/,33.4009,-111.87899999999999,2017-11-03,2017-11-03
454952,23752844,"4630 W Indianola Ave, Phoenix, AZ 85031 ",85031,0.6180743396282196,159000,https://www.zillow.com/homedetails/4630-W-Indianola-Ave-Phoenix-AZ-85031/7508079_zpid/,33.4927,-112.15899999999999,2017-10-15,2017-10-15
411581,22708161,"5226 W Eugie Ave, Glendale, AZ 85304 ",85304,0.618042117357254,220000,https://www.zillow.com/homedetails/5226-W-Eugie-Ave-Glendale-AZ-85304/7911821_zpid/,33.608000000000004,-112.17200000000001,2017-09-21,2017-09-21
1367,22703940,"18821 N 45th Ave, Glendale, AZ 85308 ",85308,0.6177963495254517,214900,https://www.zillow.com/homedetails/18821-N-45th-Ave-Glendale-AZ-85308/7938702_zpid/,33.6571,-112.15700000000001,2017-09-20,2017-09-20
9022109,23811012,"13037 N 56th Ave, Glendale, AZ 85304 ",85304,0.6177939891815185,214900,https://www.zillow.com/homedetails/13037-N-56th-Ave-Glendale-AZ-85304/7896749_zpid/,33.6024,-112.177,2017-10-27,2017-10-27
344279,23649625,"2322 W Papago St, Phoenix, AZ 85009 ",85009,0.617026287317276,125000,https://www.zillow.com/homedetails/2322-W-Papago-St-Phoenix-AZ-85009/81972695_zpid/,33.4343,-112.11,2017-10-14,2017-10-14
460843,23755985,"2901 N 55th Ave, Phoenix, AZ 85031 ",85031,0.617012906074524,169000,https://www.zillow.com/homedetails/2901-N-55th-Ave-Phoenix-AZ-85031/7497233_zpid/,33.4808,-112.178,2017-10-18,2017-10-18
337572,22740038,"2307 W Alice Ave, Phoenix, AZ 85021 ",85021,0.6169574379920959,217900,https://www.zillow.com/homedetails/2307-W-Alice-Ave-Phoenix-AZ-85021/7782260_zpid/,33.5637,-112.109,2017-10-05,2017-10-05
521769,23828681,"9002 W Clarendon Ave, Phoenix, AZ 85037 ",85037,0.6168470025062561,169000,https://www.zillow.com/homedetails/9002-W-Clarendon-Ave-Phoenix-AZ-85037/7470545_zpid/,33.4905,-112.25399999999999,2017-10-25,2017-10-25
424902,22708254,"9726 N 55th Dr, Glendale, AZ 85302 ",85302,0.6165069341659546,205500,https://www.zillow.com/homedetails/9726-N-55th-Dr-Glendale-AZ-85302/7734870_zpid/,33.5745,-112.178,2017-09-21,2017-09-21
221325,22745716,"9625 N 2nd St, Phoenix, AZ 85020 ",85020,0.6163767039775848,175000,https://www.zillow.com/homedetails/9625-N-2nd-St-Phoenix-AZ-85020/7788559_zpid/,33.5743,-112.072,2017-10-09,2017-10-09
459700,22721620,"5715 W Roma Ave, Phoenix, AZ 85031 ",85031,0.616200429201126,139900,https://www.zillow.com/homedetails/5715-W-Roma-Ave-Phoenix-AZ-85031/7712868_zpid/,33.4993,-112.18299999999999,2017-09-26,2017-09-26
486075,23803976,"4735 W Hubbell St, Phoenix, AZ 85035 ",85035,0.6154062569141387,160000,https://www.zillow.com/homedetails/4735-W-Hubbell-St-Phoenix-AZ-85035/7494702_zpid/,33.4699,-112.162,2017-10-22,2017-10-22
352180,23814095,"2023 E Paradise Ln, Phoenix, AZ 85022 ",85022,0.615295159816742,195000,https://www.zillow.com/homedetails/2023-E-Paradise-Ln-Phoenix-AZ-85022/8008391_zpid/,33.6333,-112.038,2017-10-29,2017-10-29
409171,23815122,"6610 W Caribbean Ln, Glendale, AZ 85306 ",85306,0.6150391876697541,210000,https://www.zillow.com/homedetails/6610-W-Caribbean-Ln-Glendale-AZ-85306/8100447_zpid/,33.6248,-112.199,2017-10-30,2017-10-30
221405,23805257,"9801 N 2nd Pl, Phoenix, AZ 85020 ",85020,0.6146491229534149,225000,https://www.zillow.com/homedetails/9801-N-2nd-Pl-Phoenix-AZ-85020/55261037_zpid/,33.5752,-112.071,2017-10-22,2017-10-22
8992548,23569558,"4746 W Nicolet Ave, Glendale, AZ 85301 ",85301,0.6146148562431335,157900,https://www.zillow.com/homedetails/4746-W-Nicolet-Ave-Glendale-AZ-85301/7725721_zpid/,33.5426,-112.162,2017-10-13,2017-10-13
9020909,23752409,"3770 E Pershing Ave, Phoenix, AZ 85032 ",85032,0.6143441140651703,215000,https://www.zillow.com/homedetails/3770-E-Pershing-Ave-Phoenix-AZ-85032/7814096_zpid/,33.6066,-112.0,2017-10-13,2017-10-13
8982625,23797411,"6105 W Indianola Ave, Phoenix, AZ 85033 ",85033,0.6143012166023254,199900,https://www.zillow.com/homedetails/6105-W-Indianola-Ave-Phoenix-AZ-85033/7496565_zpid/,33.4922,-112.191,2017-10-24,2017-10-24
359302,23814410,"2021 S 83rd Dr, Tolleson, AZ 85353 ",85353,0.6140286922454834,197900,https://www.zillow.com/homedetails/2021-S-83rd-Dr-Tolleson-AZ-85353/59271300_zpid/,33.4288,-112.23899999999999,2017-10-29,2017-10-29
441326,23650432,"3042 N 87th Ave, Phoenix, AZ 85037 ",85037,0.6138470411300659,204999,https://www.zillow.com/homedetails/3042-N-87th-Ave-Phoenix-AZ-85037/7479842_zpid/,33.483000000000004,-112.24700000000001,2017-10-13,2017-10-13
1342305,22747361,"4413 W Maryland Ave, Glendale, AZ 85301 ",85301,0.6137653410434722,234500,https://www.zillow.com/homedetails/4413-W-Maryland-Ave-Glendale-AZ-85301/7724234_zpid/,33.5309,-112.154,2017-10-06,2017-10-06
522482,23828673,"9013 W Virginia Ave, Phoenix, AZ 85037 ",85037,0.6133700907230377,174900,https://www.zillow.com/homedetails/9013-W-Virginia-Ave-Phoenix-AZ-85037/7473884_zpid/,33.4743,-112.25399999999999,2017-10-26,2017-10-26
411799,22708163,"5304 W Sunnyside Dr, Glendale, AZ 85304 ",85304,0.6127185761928559,239900,https://www.zillow.com/homedetails/5304-W-Sunnyside-Dr-Glendale-AZ-85304/7737447_zpid/,33.5927,-112.17299999999999,2017-09-21,2017-09-21
1413226,22747483,"7301 W Cavalier Dr, Glendale, AZ 85303 ",85303,0.6125982761383056,179900,https://www.zillow.com/homedetails/7301-W-Cavalier-Dr-Glendale-AZ-85303/7707198_zpid/,33.5243,-112.21600000000001,2017-10-10,2017-10-10
9018003,23819878,"1842 W Alamo Dr, Chandler, AZ 85224 ",85224,0.61227365732193,244500,https://www.zillow.com/homedetails/1842-W-Alamo-Dr-Chandler-AZ-85224/8199834_zpid/,33.3482,-111.875,2017-11-03,2017-11-03
435667,22734446,"7942 W Verde Ln, Phoenix, AZ 85033 ",85033,0.6118873834609986,175000,https://www.zillow.com/homedetails/7942-W-Verde-Ln-Phoenix-AZ-85033/7479526_zpid/,33.4815,-112.23100000000001,2017-10-02,2017-10-02
9019191,23648849,"10602 N 80th Ln, Peoria, AZ 85345 ",85345,0.611824244260788,190000,https://www.zillow.com/homedetails/10602-N-80th-Ln-Peoria-AZ-85345/7681416_zpid/,33.5814,-112.23200000000001,2017-10-12,2017-10-12
9021200,23755671,"3819 N 63rd Ave, Phoenix, AZ 85033 ",85033,0.6115263819694519,169900,https://www.zillow.com/homedetails/3819-N-63rd-Ave-Phoenix-AZ-85033/7496525_zpid/,33.4925,-112.195,2017-10-18,2017-10-18
8984109,23818995,"7426 W Carol Ave, Peoria, AZ 85345 ",85345,0.6112423568964005,197000,https://www.zillow.com/homedetails/7426-W-Carol-Ave-Peoria-AZ-85345/7702134_zpid/,33.5726,-112.219,2017-11-02,2017-11-02
9016683,23754755,"2816 N 32nd Pl, Phoenix, AZ 85008 ",85008,0.6111733973026275,185000,https://www.zillow.com/homedetails/2816-N-32nd-Pl-Phoenix-AZ-85008/7540834_zpid/,33.4793,-112.012,2017-10-17,2017-10-17
435016,22734461,"7750 W Clarendon Ave, Phoenix, AZ 85033 ",85033,0.6111389636993408,167900,https://www.zillow.com/homedetails/7750-W-Clarendon-Ave-Phoenix-AZ-85033/7478454_zpid/,33.4911,-112.227,2017-10-03,2017-10-03
503463,22747409,"5608 N 31st Dr, Phoenix, AZ 85017 ",85017,0.6110603988170624,166900,https://www.zillow.com/homedetails/5608-N-31st-Dr-Phoenix-AZ-85017/7764292_zpid/,33.5186,-112.12700000000001,2017-10-10,2017-10-10
9015572,23796587,"9416 W Madison St, Tolleson, AZ 85353 ",85353,0.6109435260295868,179995,https://www.zillow.com/homedetails/9416-W-Madison-St-Tolleson-AZ-85353/7460136_zpid/,33.4454,-112.264,2017-10-23,2017-10-23
9022735,23819777,"13216 N 31st Way, Phoenix, AZ 85032 ",85032,0.6108398377895355,145000,https://www.zillow.com/homedetails/13216-N-31st-Way-Phoenix-AZ-85032/50188555_zpid/,33.6068,-112.014,2017-11-03,2017-11-03
329444,22745740,"2423 W San Miguel Ave, Phoenix, AZ 85015 ",85015,0.6102829694747924,178800,https://www.zillow.com/homedetails/2423-W-San-Miguel-Ave-Phoenix-AZ-85015/7763696_zpid/,33.5193,-112.11200000000001,2017-10-06,2017-10-06
387030,22724922,"2114 W Sunnyside Dr, Phoenix, AZ 85029 ",85029,0.610175484418869,176900,https://www.zillow.com/homedetails/2114-W-Sunnyside-Dr-Phoenix-AZ-85029/7748813_zpid/,33.5934,-112.104,2017-09-27,2017-09-27
261913,23649326,"5308 N 78th Pl, Scottsdale, AZ 85250 ",85250,0.6100352346897125,229000,https://www.zillow.com/homedetails/5308-N-78th-Pl-Scottsdale-AZ-85250/7842267_zpid/,33.5142,-111.913,2017-10-13,2017-10-13
419880,23820028,"5616 W Brown St, Glendale, AZ 85302 ",85302,0.6096636712551117,199900,https://www.zillow.com/homedetails/5616-W-Brown-St-Glendale-AZ-85302/7735264_zpid/,33.5783,-112.18,2017-11-03,2017-11-03
484005,23821708,"2696 N 73rd Gln, Phoenix, AZ 85035 ",85035,0.6093463063240051,210000,https://www.zillow.com/homedetails/2696-N-73rd-Gln-Phoenix-AZ-85035/95155175_zpid/,33.4779,-112.21799999999999,2017-10-31,2017-10-31
483706,22742318,"2639 N 63rd Ave, Phoenix, AZ 85035 ",85035,0.60926274061203,197000,https://www.zillow.com/homedetails/2639-N-63rd-Ave-Phoenix-AZ-85035/7491672_zpid/,33.4781,-112.195,2017-10-06,2017-10-06
352271,23806193,"6938 W Villa St, Phoenix, AZ 85043 ",85043,0.6089343190193176,189000,https://www.zillow.com/homedetails/6938-W-Villa-St-Phoenix-AZ-85043/7476296_zpid/,33.455999999999996,-112.209,2017-10-25,2017-10-25
327239,23756976,"2012 W Solano Dr, Phoenix, AZ 85015 ",85015,0.6082821309566497,214500,https://www.zillow.com/homedetails/2012-W-Solano-Dr-Phoenix-AZ-85015/7763332_zpid/,33.5212,-112.103,2017-10-19,2017-10-19
1466691,23821671,"17797 N 89th Dr, Peoria, AZ 85382 ",85382,0.6079597473144531,242000,https://www.zillow.com/homedetails/17797-N-89th-Dr-Peoria-AZ-85382/71616751_zpid/,33.6449,-112.251,2017-11-05,2017-11-05
257689,22737016,"916 W Villa Theresa Dr, Phoenix, AZ 85023 ",85023,0.6079027652740479,239995,https://www.zillow.com/homedetails/916-W-Villa-Theresa-Dr-Phoenix-AZ-85023/7956803_zpid/,33.6543,-112.086,2017-09-15,2017-09-15
410719,23831840,"4923 W Larkspur Dr, Glendale, AZ 85304 ",85304,0.6078769385814666,241000,https://www.zillow.com/homedetails/4923-W-Larkspur-Dr-Glendale-AZ-85304/7954371_zpid/,33.5993,-112.165,2017-11-02,2017-11-02
699193,23823519,"948 W Plata Ave, Mesa, AZ 85210 ",85210,0.6068613231182098,240000,https://www.zillow.com/homedetails/948-W-Plata-Ave-Mesa-AZ-85210/8191030_zpid/,33.3637,-111.853,2017-11-08,2017-11-08
394344,23808915,"3601 W Voltaire Ave, Phoenix, AZ 85029 ",85029,0.6066973805427551,210000,https://www.zillow.com/homedetails/3601-W-Voltaire-Ave-Phoenix-AZ-85029/7741380_zpid/,33.6085,-112.13600000000001,2017-10-26,2017-10-26
645527,23807613,"708 W Emelita Ave, Mesa, AZ 85210 ",85210,0.6063180506229401,195000,https://www.zillow.com/homedetails/708-W-Emelita-Ave-Mesa-AZ-85210/7598409_zpid/,33.3985,-111.84700000000001,2017-10-25,2017-10-25
1413178,23818822,"7273 W Glenn Dr, Glendale, AZ 85303 ",85303,0.6061823487281799,209900,https://www.zillow.com/homedetails/7273-W-Glenn-Dr-Glendale-AZ-85303/95091643_zpid/,33.5393,-112.215,2017-11-02,2017-11-02
829808,23512219,"3721 W Osborn Rd, Phoenix, AZ 85019 ",85019,0.6054762184619904,160000,https://www.zillow.com/homedetails/3721-W-Osborn-Rd-Phoenix-AZ-85019/7507721_zpid/,33.4875,-112.14,2017-10-10,2017-10-10
391373,23814123,"3128 W Eugie Ave, Phoenix, AZ 85029 ",85029,0.6051133155822754,202000,https://www.zillow.com/homedetails/3128-W-Eugie-Ave-Phoenix-AZ-85029/7747973_zpid/,33.6085,-112.12700000000001,2017-10-29,2017-10-29
460344,23756288,"5811 W Cheery Lynn Rd, Phoenix, AZ 85031 ",85031,0.6050996482372284,144900,https://www.zillow.com/homedetails/5811-W-Cheery-Lynn-Rd-Phoenix-AZ-85031/7497530_zpid/,33.4852,-112.184,2017-10-18,2017-10-18
405327,23817884,"4634 W Kings Ave, Glendale, AZ 85306 ",85306,0.6050334870815277,215000,https://www.zillow.com/homedetails/4634-W-Kings-Ave-Glendale-AZ-85306/7950561_zpid/,33.6372,-112.15700000000001,2017-11-01,2017-11-01
7380359,22747336,"3611 W Maricopa St, Phoenix, AZ 85009 ",85009,0.6049575209617615,146600,https://www.zillow.com/homedetails/3611-W-Maricopa-St-Phoenix-AZ-85009/7506371_zpid/,33.4383,-112.137,2017-10-10,2017-10-10
501699,23828469,"7838 W Palm Ln, Phoenix, AZ 85035 ",85035,0.6047116577625274,184900,https://www.zillow.com/homedetails/7838-W-Palm-Ln-Phoenix-AZ-85035/95083649_zpid/,33.469,-112.228,2017-11-07,2017-11-07
502874,23757862,"4315 N 51st Ave, Phoenix, AZ 85031 ",85031,0.6043475598096848,149900,https://www.zillow.com/homedetails/4315-N-51st-Ave-Phoenix-AZ-85031/7720846_zpid/,33.4993,-112.169,2017-10-20,2017-10-20
209311,23681046,"3420 E Cambridge Ave, Phoenix, AZ 85008 ",85008,0.6040945291519165,200000,http://www.zillow.com/homedetails/3420-E-Cambridge-Ave-Phoenix-AZ-85008/81975682_zpid,33.478,-112.008,2017-10-06,2017-10-06
379293,23800540,"2626 W Northview Ave, Phoenix, AZ 85051 ",85051,0.6037106275558471,129900,https://www.zillow.com/homedetails/2626-W-Northview-Ave-Phoenix-AZ-85051/7779482_zpid/,33.5439,-112.116,2017-10-24,2017-10-24
973060,23815015,"600 N Aspen Dr, Chandler, AZ 85226 ",85226,0.603660124540329,244900,https://www.zillow.com/homedetails/600-N-Aspen-Dr-Chandler-AZ-85226/8262023_zpid/,33.3128,-111.945,2017-10-30,2017-10-30
250469,22705843,"2302 W Village Dr, Phoenix, AZ 85023 ",85023,0.6036051213741302,244499,https://www.zillow.com/homedetails/2302-W-Village-Dr-Phoenix-AZ-85023/7963978_zpid/,33.645,-112.109,2017-09-20,2017-09-20
387572,22707783,"2210 W Cactus Rd, Phoenix, AZ 85029 ",85029,0.6028619229793548,155000,https://www.zillow.com/homedetails/2210-W-Cactus-Rd-Phoenix-AZ-85029/7738653_zpid/,33.5968,-112.10600000000001,2017-09-22,2017-09-22
1119289,23832093,"2139 N College Ct, Chandler, AZ 85224 ",85224,0.6025805830955505,235000,https://www.zillow.com/homedetails/2139-N-College-Ct-Chandler-AZ-85224/8199701_zpid/,33.3387,-111.87299999999999,2017-11-09,2017-11-09
237687,22691836,"3003 W Anderson Dr, Phoenix, AZ 85053 ",85053,0.6019818723201752,249500,https://www.zillow.com/homedetails/3003-W-Anderson-Dr-Phoenix-AZ-85053/7942212_zpid/,33.6441,-112.124,2017-09-19,2017-09-19
9022548,23818007,"6803 W Cherry Hills Dr, Peoria, AZ 85345 ",85345,0.6018470019102097,235000,https://www.zillow.com/homedetails/6803-W-Cherry-Hills-Dr-Peoria-AZ-85345/7700208_zpid/,33.5936,-112.205,2017-11-02,2017-11-02
389751,23821705,"2641 W Wethersfield Rd, Phoenix, AZ 85029 ",85029,0.6017597585916519,149000,https://www.zillow.com/homedetails/2641-W-Wethersfield-Rd-Phoenix-AZ-85029/7748488_zpid/,33.5968,-112.115,2017-11-03,2017-11-03
327085,23650412,"1944 W Flower St, Phoenix, AZ 85015 ",85015,0.6011647343635559,229900,https://www.zillow.com/homedetails/1944-W-Flower-St-Phoenix-AZ-85015/7517841_zpid/,33.486,-112.102,2017-10-14,2017-10-14
9021253,23756561,"2832 N 28th Dr, Phoenix, AZ 85008 ",85008,0.600775545835495,139900,https://www.zillow.com/homedetails/2832-N-28th-Dr-Phoenix-AZ-85008/7513343_zpid/,33.4797,-112.021,2017-10-13,2017-10-13
428449,23828334,"6216 W Pierson St, Phoenix, AZ 85033 ",85033,0.6006066799163818,156000,https://www.zillow.com/homedetails/6216-W-Pierson-St-Phoenix-AZ-85033/7715967_zpid/,33.5066,-112.19200000000001,2017-10-25,2017-10-25
9022653,23819042,"9669 N 82nd Ln, Peoria, AZ 85345 ",85345,0.600585651397705,202000,https://www.zillow.com/homedetails/9669-N-82nd-Ln-Peoria-AZ-85345/67765071_zpid/,33.5728,-112.236,2017-11-02,2017-11-02
1112291,23816172,"1411 W El Alba Way, Chandler, AZ 85224 ",85224,0.6005485355854034,239000,https://www.zillow.com/homedetails/1411-W-El-Alba-Way-Chandler-AZ-85224/8176088_zpid/,33.3384,-111.866,2017-10-31,2017-10-31
700481,23821699,"2550 W Knowles Ave, Mesa, AZ 85202 ",85202,0.6004757106304168,248900,https://www.zillow.com/homedetails/2550-W-Knowles-Ave-Mesa-AZ-85202/8253095_zpid/,33.3781,-111.889,2017-11-02,2017-11-02
8970005,22734447,"7637 W Whitton Ave, Phoenix, AZ 85033 ",85033,0.6003561973571777,179900,https://www.zillow.com/homedetails/7637-W-Whitton-Ave-Phoenix-AZ-85033/7478287_zpid/,33.4901,-112.22399999999999,2017-10-03,2017-10-03
322674,23758532,"4248 N 4th Ave, Phoenix, AZ 85013 ",85013,0.6002198576927185,199900,https://www.zillow.com/homedetails/4248-N-4th-Ave-Phoenix-AZ-85013/7770331_zpid/,33.4974,-112.08200000000001,2017-10-20,2017-10-20
415299,23818783,"10119 N 65th Ln, Glendale, AZ 85302 ",85302,0.6001233875751495,179998,https://www.zillow.com/homedetails/10119-N-65th-Ln-Glendale-AZ-85302/65235466_zpid/,33.5779,-112.2,2017-11-02,2017-11-02
527842,23828736,"9515 W Monte Vista Rd, Phoenix, AZ 85037 ",85037,0.6000352323055267,228000,https://www.zillow.com/homedetails/9515-W-Monte-Vista-Rd-Phoenix-AZ-85037/60974977_zpid/,33.4699,-112.265,2017-10-26,2017-10-26
340412,23810957,"15866 N 18th St, Phoenix, AZ 85022 ",85022,0.59956474006176,199900,https://www.zillow.com/homedetails/15866-N-18th-St-Phoenix-AZ-85022/8004252_zpid/,33.6319,-112.044,2017-10-27,2017-10-27
393930,23816236,"7113 N 28th Dr, Phoenix, AZ 85051 ",85051,0.5994143128395081,219999,https://www.zillow.com/homedetails/7113-N-28th-Dr-Phoenix-AZ-85051/7757296_zpid/,33.541,-112.12,2017-10-31,2017-10-31
423300,23817510,"8615 N 51st Dr, Glendale, AZ 85302 ",85302,0.599107775092125,189900,https://www.zillow.com/homedetails/8615-N-51st-Dr-Glendale-AZ-85302/7733952_zpid/,33.5628,-112.169,2017-11-01,2017-11-01
402683,23818661,"12027 N 49th Dr, Glendale, AZ 85304 ",85304,0.5990976214408874,229000,https://www.zillow.com/homedetails/12027-N-49th-Dr-Glendale-AZ-85304/7727409_zpid/,33.5959,-112.165,2017-11-02,2017-11-02
405626,23823339,"4809 W Beverly Ln, Glendale, AZ 85306 ",85306,0.599097129702568,220000,https://www.zillow.com/homedetails/4809-W-Beverly-Ln-Glendale-AZ-85306/7951167_zpid/,33.6329,-112.162,2017-11-08,2017-11-08
1880517,23820223,"844 W Harrison St, Chandler, AZ 85225 ",85225,0.598832505941391,229000,https://www.zillow.com/homedetails/844-W-Harrison-St-Chandler-AZ-85225/8186376_zpid/,33.3168,-111.85600000000001,2017-11-03,2017-11-03
8977947,23799668,"5619 W Mariposa St, Phoenix, AZ 85031 ",85031,0.5985482513904572,199900,https://www.zillow.com/homedetails/5619-W-Mariposa-St-Phoenix-AZ-85031/7713521_zpid/,33.5077,-112.18,2017-10-13,2017-10-13
253834,23815568,"3833 W Waltann Ln, Phoenix, AZ 85053 ",85053,0.5982909798622131,239900,https://www.zillow.com/homedetails/3833-W-Waltann-Ln-Phoenix-AZ-85053/7945786_zpid/,33.6268,-112.14200000000001,2017-10-31,2017-10-31
388893,23756003,"2420 W Willow Ave, Phoenix, AZ 85029 ",85029,0.5982254385948181,179900,https://www.zillow.com/homedetails/2420-W-Willow-Ave-Phoenix-AZ-85029/7738239_zpid/,33.6079,-112.111,2017-10-18,2017-10-18
421660,23834292,"6371 W Orchid Ln, Glendale, AZ 85302 ",85302,0.5979508697986603,232000,https://www.zillow.com/homedetails/6371-W-Orchid-Ln-Glendale-AZ-85302/71605552_zpid/,33.5615,-112.196,2017-11-09,2017-11-09
7449241,23819586,"11935 N 68th Ave, Peoria, AZ 85345 ",85345,0.5976882427930832,245000,https://www.zillow.com/homedetails/11935-N-68th-Ave-Peoria-AZ-85345/7700139_zpid/,33.594,-112.204,2017-11-03,2017-11-03
8983659,23815882,"3101 N 59th Ave, Phoenix, AZ 85033 ",85033,0.5972642183303833,160000,https://www.zillow.com/homedetails/3101-N-59th-Ave-Phoenix-AZ-85033/7490062_zpid/,33.4833,-112.186,2017-10-31,2017-10-31
225421,23833478,"1430 E Topeka Dr, Phoenix, AZ 85024 ",85024,0.5968583524227142,214900,https://www.zillow.com/homedetails/1430-E-Topeka-Dr-Phoenix-AZ-85024/7995851_zpid/,33.6597,-112.051,2017-11-10,2017-11-10
9012841,23819608,"8121 W Hatcher Rd, Peoria, AZ 85345 ",85345,0.596443259716034,239000,https://www.zillow.com/homedetails/8121-W-Hatcher-Rd-Peoria-AZ-85345/7682649_zpid/,33.57,-112.234,2017-11-02,2017-11-02
1352382,22742514,"6115 W Cavalier Dr, Glendale, AZ 85301 ",85301,0.5961483836174011,159900,https://www.zillow.com/homedetails/6115-W-Cavalier-Dr-Glendale-AZ-85301/7715540_zpid/,33.5266,-112.191,2017-09-19,2017-09-19
642352,23818179,"2143 W Plata Ave, Mesa, AZ 85202 ",85202,0.5961063146591187,248900,https://www.zillow.com/homedetails/2143-W-Plata-Ave-Mesa-AZ-85202/8171521_zpid/,33.3607,-111.88,2017-11-02,2017-11-02
415049,23811004,"10006 N 66th Ave, Glendale, AZ 85302 ",85302,0.5961052268743515,199900,https://www.zillow.com/homedetails/10006-N-66th-Ave-Glendale-AZ-85302/7706542_zpid/,33.5765,-112.20100000000001,2017-10-27,2017-10-27
312249,23814876,"1433 S 14th Ave, Phoenix, AZ 85007 ",85007,0.5955932855606079,174900,https://www.zillow.com/homedetails/1433-S-14th-Ave-Phoenix-AZ-85007/7500688_zpid/,33.4338,-112.09,2017-10-29,2017-10-29
351584,22747358,"4213 W Culver St, Phoenix, AZ 85009 ",85009,0.5951350092887878,149900,https://www.zillow.com/homedetails/4213-W-Culver-St-Phoenix-AZ-85009/7506504_zpid/,33.463,-112.149,2017-10-10,2017-10-10
384597,23810903,"13633 N 20th Ln, Phoenix, AZ 85029 ",85029,0.5950628161430359,209000,https://www.zillow.com/homedetails/13633-N-20th-Ln-Phoenix-AZ-85029/7749596_zpid/,33.61,-112.103,2017-10-27,2017-10-27
8991616,23824129,"12522 N 82nd Dr, Peoria, AZ 85381 ",85381,0.594959944486618,234999,https://www.zillow.com/homedetails/12522-N-82nd-Dr-Peoria-AZ-85381/8100839_zpid/,33.5984,-112.23700000000001,2017-11-09,2017-11-09
9021611,23794811,"1134 W 2nd Pl, Mesa, AZ 85201 ",85201,0.5948382556438446,234900,https://www.zillow.com/homedetails/1134-W-2nd-Pl-Mesa-AZ-85201/7611239_zpid/,33.4186,-111.85600000000001,2017-10-22,2017-10-22
8988163,23818314,"2650 E Hartford Ave, Phoenix, AZ 85032 ",85032,0.5946536958217621,249500,https://www.zillow.com/homedetails/2650-E-Hartford-Ave-Phoenix-AZ-85032/59266670_zpid/,33.6425,-112.025,2017-11-02,2017-11-02
337793,22745680,"2343 W Diana Ave, Phoenix, AZ 85021 ",85021,0.5944708704948425,225000,https://www.zillow.com/homedetails/2343-W-Diana-Ave-Phoenix-AZ-85021/7782287_zpid/,33.563,-112.11,2017-10-09,2017-10-09
9020593,23816971,"3544 W Libby St, Glendale, AZ 85308 ",85308,0.594439423084259,239900,https://www.zillow.com/homedetails/3544-W-Libby-St-Glendale-AZ-85308/7948073_zpid/,33.6483,-112.13600000000001,2017-11-01,2017-11-01
359548,23837385,"2450 S 88th Ln, Tolleson, AZ 85353 ",85353,0.5944131851196289,184000,https://www.zillow.com/homedetails/2450-S-88th-Ln-Tolleson-AZ-85353/67772853_zpid/,33.4246,-112.251,2017-11-20,2017-11-20
9021735,23800650,"4211 N 10th St, Phoenix, AZ 85014 ",85014,0.5939936757087707,175000,https://www.zillow.com/homedetails/4211-N-10th-St-Phoenix-AZ-85014/7769742_zpid/,33.4967,-112.06,2017-10-24,2017-10-24
9019232,22732700,"3428 E Sheridan St, Phoenix, AZ 85008 ",85008,0.5938178718090057,245000,https://www.zillow.com/homedetails/3428-E-Sheridan-St-Phoenix-AZ-85008/7541233_zpid/,33.4752,-112.007,2017-09-30,2017-09-30
329115,23755232,"2335 W Campus Dr, Phoenix, AZ 85015 ",85015,0.5938141524791718,212800,https://www.zillow.com/homedetails/2335-W-Campus-Dr-Phoenix-AZ-85015/7518987_zpid/,33.484,-112.11,2017-10-17,2017-10-17
351746,23822654,"6619 W Whyman Ave, Phoenix, AZ 85043 ",85043,0.5937575608491897,174900,https://www.zillow.com/homedetails/6619-W-Whyman-Ave-Phoenix-AZ-85043/62727350_zpid/,33.4269,-112.20200000000001,2017-11-08,2017-11-08
9021366,23757591,"9106 W Long Hills Dr, Sun City, AZ 85351 ",85351,0.5936368703842163,159500,https://www.zillow.com/homedetails/9106-W-Long-Hills-Dr-Sun-City-AZ-85351/7904820_zpid/,33.6259,-112.256,2017-10-17,2017-10-17
226936,23833915,"15039 N 30th Dr, Phoenix, AZ 85053 ",85053,0.5935827612876892,187999,https://www.zillow.com/homedetails/15039-N-30th-Dr-Phoenix-AZ-85053/7952779_zpid/,33.6227,-112.124,2017-11-09,2017-11-09
345521,23753202,"2846 W Melvin St, Phoenix, AZ 85009 ",85009,0.5934849977493286,80000,https://www.zillow.com/homedetails/2846-W-Melvin-St-Phoenix-AZ-85009/7514191_zpid/,33.4524,-112.12200000000001,2017-10-15,2017-10-15
421737,23823727,"6407 W Ruth Ave, Glendale, AZ 85302 ",85302,0.593207323551178,227000,https://www.zillow.com/homedetails/6407-W-Ruth-Ave-Glendale-AZ-85302/81971169_zpid/,33.5625,-112.197,2017-11-06,2017-11-06
1115381,23833951,"1710 N Comanche Dr, Chandler, AZ 85224 ",85224,0.5931567490100861,244700,https://www.zillow.com/homedetails/1710-N-Comanche-Dr-Chandler-AZ-85224/8194464_zpid/,33.330999999999996,-111.863,2017-11-09,2017-11-09
426687,22730847,"4834 N 81st Dr, Phoenix, AZ 85033 ",85033,0.5927970588207245,179900,https://www.zillow.com/homedetails/4834-N-81st-Dr-Phoenix-AZ-85033/7482505_zpid/,33.5079,-112.235,2017-09-29,2017-09-29
484960,23758546,"2837 N 72nd Dr, Phoenix, AZ 85035 ",85035,0.5927713990211487,169900,https://www.zillow.com/homedetails/2837-N-72nd-Dr-Phoenix-AZ-85035/7474537_zpid/,33.4793,-112.21600000000001,2017-10-20,2017-10-20
326650,23796634,"1822 W Turney Ave, Phoenix, AZ 85015 ",85015,0.5927393108606338,199900,https://www.zillow.com/homedetails/1822-W-Turney-Ave-Phoenix-AZ-85015/7772298_zpid/,33.5007,-112.09899999999999,2017-10-23,2017-10-23
422180,22708207,"6532 W Purdue Ave, Glendale, AZ 85302 ",85302,0.5925715774297714,176500,https://www.zillow.com/homedetails/6532-W-Purdue-Ave-Glendale-AZ-85302/7703321_zpid/,33.5737,-112.2,2017-09-21,2017-09-21
8985061,23798423,"1918 E Willetta St, Phoenix, AZ 85006 ",85006,0.5924107432365417,220000,https://www.zillow.com/homedetails/1918-E-Willetta-St-Phoenix-AZ-85006/7528826_zpid/,33.464,-112.04,2017-10-12,2017-10-12
973844,23809132,"628 N Dustin Ln, Chandler, AZ 85226 ",85226,0.5924041271209717,239900,https://www.zillow.com/homedetails/628-N-Dustin-Ln-Chandler-AZ-85226/8157254_zpid/,33.3139,-111.95200000000001,2017-10-05,2017-10-05
391398,23818338,"4112 W Camino Acequia, Phoenix, AZ 85051 ",85051,0.592371129989624,220986,https://www.zillow.com/homedetails/4112-W-Camino-Acequia-Phoenix-AZ-85051/7745955_zpid/,33.5781,-112.146,2017-11-02,2017-11-02
383509,23829336,"13147 N 22nd Ave, Phoenix, AZ 85029 ",85029,0.5918486803770066,209000,https://www.zillow.com/homedetails/13147-N-22nd-Ave-Phoenix-AZ-85029/7749876_zpid/,33.606,-112.10600000000001,2017-11-03,2017-11-03
559806,23829342,"1320 W Pecos Ave, Mesa, AZ 85202 ",85202,0.5909589946269989,237900,https://www.zillow.com/homedetails/1320-W-Pecos-Ave-Mesa-AZ-85202/8171833_zpid/,33.36,-111.861,2017-11-10,2017-11-10
416034,23808888,"4413 W Mission Ln, Glendale, AZ 85302 ",85302,0.5907714068889618,184500,https://www.zillow.com/homedetails/4413-W-Mission-Ln-Glendale-AZ-85302/7729654_zpid/,33.5689,-112.155,2017-10-26,2017-10-26
8977242,23802183,"16434 N 32nd Pl, Phoenix, AZ 85032 ",85032,0.5907277554273606,84000,https://www.zillow.com/homedetails/16434-N-32nd-Pl-Phoenix-AZ-85032/8006065_zpid/,33.6366,-112.01299999999999,2017-10-13,2017-10-13
8946582,23808705,"9637 W Tonto Ln, Peoria, AZ 85382 ",85382,0.5905787348747253,234900,https://www.zillow.com/homedetails/9637-W-Tonto-Ln-Peoria-AZ-85382/7895900_zpid/,33.6617,-112.26799999999999,2017-10-25,2017-10-25
9012842,23818998,"8008 W Corrine Dr, Peoria, AZ 85381 ",85381,0.590448796749115,224900,https://www.zillow.com/homedetails/8008-W-Corrine-Dr-Peoria-AZ-85381/8101079_zpid/,33.6,-112.23200000000001,2017-11-01,2017-11-01
9013787,22693106,"5647 W Villa Theresa Dr, Glendale, AZ 85308 ",85308,0.5903050482273102,210000,https://www.zillow.com/homedetails/5647-W-Villa-Theresa-Dr-Glendale-AZ-85308/7901269_zpid/,33.6537,-112.182,2017-09-19,2017-09-19
256392,23822269,"4228 W Hearn Rd, Phoenix, AZ 85053 ",85053,0.5893099129199981,229500,https://www.zillow.com/homedetails/4228-W-Hearn-Rd-Phoenix-AZ-85053/7944988_zpid/,33.6147,-112.15100000000001,2017-11-05,2017-11-05
9019065,23797419,"8139 W Heatherbrae Dr, Phoenix, AZ 85033 ",85033,0.5892542839050293,178000,https://www.zillow.com/homedetails/8139-W-Heatherbrae-Dr-Phoenix-AZ-85033/7481875_zpid/,33.4976,-112.236,2017-10-24,2017-10-24
384656,23831441,"13642 N 31st Dr, Phoenix, AZ 85029 ",85029,0.5892399162054062,239700,https://www.zillow.com/homedetails/13642-N-31st-Dr-Phoenix-AZ-85029/7747907_zpid/,33.6105,-112.126,2017-11-08,2017-11-08
15292,22708244,"8334 W Ocotillo Rd, Glendale, AZ 85305 ",85305,0.5891971528530121,215900,https://www.zillow.com/homedetails/8334-W-Ocotillo-Rd-Glendale-AZ-85305/7461418_zpid/,33.534,-112.23899999999999,2017-09-20,2017-09-20
8968853,23825270,"9243 W Cinnabar Ave, Peoria, AZ 85345 ",85345,0.5881185919046402,209900,https://www.zillow.com/homedetails/9243-W-Cinnabar-Ave-Peoria-AZ-85345/7697503_zpid/,33.575,-112.259,2017-11-10,2017-11-10
386285,23809974,"3631 W Caron St, Phoenix, AZ 85051 ",85051,0.5880223929882049,245000,https://www.zillow.com/homedetails/3631-W-Caron-St-Phoenix-AZ-85051/7746596_zpid/,33.5684,-112.13799999999999,2017-10-26,2017-10-26
9021710,23828389,"6608 W Columbus Ave, Phoenix, AZ 85033 ",85033,0.5878543138504029,165000,https://www.zillow.com/homedetails/6608-W-Columbus-Ave-Phoenix-AZ-85033/7489064_zpid/,33.49,-112.20200000000001,2017-10-24,2017-10-24
9020725,23815067,"9537 W Sunnyslope Ln, Peoria, AZ 85345 ",85345,0.5876079082489014,224000,https://www.zillow.com/homedetails/9537-W-Sunnyslope-Ln-Peoria-AZ-85345/7697879_zpid/,33.5693,-112.265,2017-10-30,2017-10-30
9000590,22678276,"2725 N 40th Ave, Phoenix, AZ 85009 ",85009,0.5873093754053116,162900,https://www.zillow.com/homedetails/2725-N-40th-Ave-Phoenix-AZ-85009/7512795_zpid/,33.4798,-112.145,2017-09-15,2017-09-15
483971,22688771,"2734 N 73rd Gln, Phoenix, AZ 85035 ",85035,0.5872563302516938,209900,https://www.zillow.com/homedetails/2734-N-73rd-Gln-Phoenix-AZ-85035/95167972_zpid/,33.4783,-112.21799999999999,2017-09-18,2017-09-18
342845,23806367,"1927 W Palm Ln, Phoenix, AZ 85009 ",85009,0.5867509841918945,210000,https://www.zillow.com/homedetails/1927-W-Palm-Ln-Phoenix-AZ-85009/7519865_zpid/,33.4691,-112.102,2017-10-25,2017-10-25
8850973,23814108,"2525 E Michigan Ave, Phoenix, AZ 85032 ",85032,0.5866145700216293,225000,https://www.zillow.com/homedetails/2525-E-Michigan-Ave-Phoenix-AZ-85032/7999906_zpid/,33.6507,-112.027,2017-10-29,2017-10-29
448532,23828597,"8415 W Granada Rd, Phoenix, AZ 85037 ",85037,0.5865013599395752,149900,https://www.zillow.com/homedetails/8415-W-Granada-Rd-Phoenix-AZ-85037/7487944_zpid/,33.4684,-112.241,2017-10-24,2017-10-24
416663,23818792,"4542 W Golden Ln, Glendale, AZ 85302 ",85302,0.5862971514463424,200000,https://www.zillow.com/homedetails/4542-W-Golden-Ln-Glendale-AZ-85302/7731410_zpid/,33.5651,-112.15799999999999,2017-11-02,2017-11-02
9022772,23820307,"8547 W Cinnabar Ave, Peoria, AZ 85345 ",85345,0.5862726747989655,249900,https://www.zillow.com/homedetails/8547-W-Cinnabar-Ave-Peoria-AZ-85345/62728560_zpid/,33.576,-112.243,2017-11-03,2017-11-03
249188,23819198,"404 E Sack Dr, Phoenix, AZ 85024 ",85024,0.5859266877174377,244000,https://www.zillow.com/homedetails/404-E-Sack-Dr-Phoenix-AZ-85024/7968312_zpid/,33.6583,-112.069,2017-11-02,2017-11-02
24671,23824391,"902 E Wagoner Rd, Phoenix, AZ 85022 ",85022,0.58590147793293,199500,https://www.zillow.com/homedetails/902-E-Wagoner-Rd-Phoenix-AZ-85022/8002555_zpid/,33.6526,-112.061,2017-11-09,2017-11-09
9021086,23815044,"8137 W Aster Dr, Peoria, AZ 85381 ",85381,0.5858741253614426,239000,https://www.zillow.com/homedetails/8137-W-Aster-Dr-Peoria-AZ-85381/8100990_zpid/,33.6013,-112.235,2017-10-30,2017-10-30
9023241,23825239,"7710 W Cheryl Dr, Peoria, AZ 85345 ",85345,0.5857483983039856,199900,https://www.zillow.com/homedetails/7710-W-Cheryl-Dr-Peoria-AZ-85345/7682371_zpid/,33.5776,-112.225,2017-11-10,2017-11-10
413890,23835252,"6209 W Bloomfield Rd, Glendale, AZ 85304 ",85304,0.5856803506612778,229999,https://www.zillow.com/homedetails/6209-W-Bloomfield-Rd-Glendale-AZ-85304/7912238_zpid/,33.5984,-112.19200000000001,2017-11-18,2017-11-18
256281,23819820,"4218 W Boca Raton Rd, Phoenix, AZ 85053 ",85053,0.5851596236228943,168000,https://www.zillow.com/homedetails/4218-W-Boca-Raton-Rd-Phoenix-AZ-85053/7945462_zpid/,33.6112,-112.15,2017-11-03,2017-11-03
440716,23758544,"8150 W Clarendon Ave, Phoenix, AZ 85033 ",85033,0.5851569592952728,159000,https://www.zillow.com/homedetails/8150-W-Clarendon-Ave-Phoenix-AZ-85033/7479062_zpid/,33.4895,-112.235,2017-10-20,2017-10-20
224538,23818658,"14264 N 33rd Ave, Phoenix, AZ 85053 ",85053,0.5850594878196717,244900,https://www.zillow.com/homedetails/14264-N-33rd-Ave-Phoenix-AZ-85053/7943194_zpid/,33.6163,-112.12899999999999,2017-11-02,2017-11-02
1407968,23823746,"6861 W State Ave, Glendale, AZ 85303 ",85303,0.5849134951829911,159888,https://www.zillow.com/homedetails/6861-W-State-Ave-Glendale-AZ-85303/7704780_zpid/,33.5438,-112.20700000000001,2017-11-07,2017-11-07
1114416,23820184,"1617 W Stottler Dr, Chandler, AZ 85224 ",85224,0.5846735119819642,229900,https://www.zillow.com/homedetails/1617-W-Stottler-Dr-Chandler-AZ-85224/8193816_zpid/,33.3325,-111.87,2017-11-03,2017-11-03
7505834,23829318,"1250 E Rosemonte Dr, Phoenix, AZ 85024 ",85024,0.5845280528068543,233900,https://www.zillow.com/homedetails/1250-E-Rosemonte-Dr-Phoenix-AZ-85024/7995969_zpid/,33.6573,-112.055,2017-11-14,2017-11-14
1345978,23817191,"4812 W Sierra Vista Dr, Glendale, AZ 85301 ",85301,0.5843955099582672,179900,https://www.zillow.com/homedetails/4812-W-Sierra-Vista-Dr-Glendale-AZ-85301/7722682_zpid/,33.533,-112.163,2017-11-01,2017-11-01
828736,22708030,"3602 W Pasadena Ave, Phoenix, AZ 85019 ",85019,0.5833092987537384,197500,https://www.zillow.com/homedetails/3602-W-Pasadena-Ave-Phoenix-AZ-85019/7719981_zpid/,33.5109,-112.137,2017-09-20,2017-09-20
424532,23814472,"9410 N 49th Ave, Glendale, AZ 85302 ",85302,0.5832971930503845,221000,https://www.zillow.com/homedetails/9410-N-49th-Ave-Glendale-AZ-85302/7730248_zpid/,33.5719,-112.165,2017-10-28,2017-10-28
362517,23822656,"8838 W Hilton Ave, Tolleson, AZ 85353 ",85353,0.5832865625619889,184900,https://www.zillow.com/homedetails/8838-W-Hilton-Ave-Tolleson-AZ-85353/62726881_zpid/,33.4279,-112.251,2017-11-06,2017-11-06
402261,23811006,"14814 N 62nd Ave, Glendale, AZ 85306 ",85306,0.5832010209560394,200000,https://www.zillow.com/homedetails/14814-N-62nd-Ave-Glendale-AZ-85306/8098781_zpid/,33.6185,-112.191,2017-10-27,2017-10-27
330130,23649302,"3841 N 21st Ave, Phoenix, AZ 85015 ",85015,0.5831918597221375,165000,https://www.zillow.com/homedetails/3841-N-21st-Ave-Phoenix-AZ-85015/7516223_zpid/,33.4929,-112.104,2017-10-13,2017-10-13
451535,23821794,"8801 W Mariposa St, Phoenix, AZ 85037 ",85037,0.5827510535717011,179900,https://www.zillow.com/homedetails/8801-W-Mariposa-St-Phoenix-AZ-85037/7483286_zpid/,33.5074,-112.249,2017-11-01,2017-11-01
379250,23806503,"2622 W Northview Ave, Phoenix, AZ 85051 ",85051,0.5827034950256348,169900,https://www.zillow.com/homedetails/2622-W-Northview-Ave-Phoenix-AZ-85051/7779483_zpid/,33.5439,-112.115,2017-10-25,2017-10-25
252027,23824404,"3725 W Waltann Ln, Phoenix, AZ 85053 ",85053,0.5826850861310959,183000,https://www.zillow.com/homedetails/3725-W-Waltann-Ln-Phoenix-AZ-85053/7946003_zpid/,33.6274,-112.139,2017-11-09,2017-11-09
9022959,23825235,"7726 W Shangri La Rd, Peoria, AZ 85345 ",85345,0.5825048685073853,224900,https://www.zillow.com/homedetails/7726-W-Shangri-La-Rd-Peoria-AZ-85345/7681844_zpid/,33.5866,-112.229,2017-11-10,2017-11-10
9022220,23813743,"3934 W Sheridan St, Phoenix, AZ 85009 ",85009,0.5823875963687897,175000,https://www.zillow.com/homedetails/3934-W-Sheridan-St-Phoenix-AZ-85009/7512512_zpid/,33.4754,-112.145,2017-10-28,2017-10-28
390775,23814136,"4034 W Hatcher Rd, Phoenix, AZ 85051 ",85051,0.5819677233695983,225000,https://www.zillow.com/homedetails/4034-W-Hatcher-Rd-Phoenix-AZ-85051/7746477_zpid/,33.5721,-112.147,2017-10-29,2017-10-29
1092802,23820224,"731 W Palomino Dr, Chandler, AZ 85225 ",85225,0.5818591564893723,245900,https://www.zillow.com/homedetails/731-W-Palomino-Dr-Chandler-AZ-85225/8177603_zpid/,33.3404,-111.855,2017-11-03,2017-11-03
354996,23822233,"2341 E Evans Dr, Phoenix, AZ 85022 ",85022,0.5817457407712936,234900,https://www.zillow.com/homedetails/2341-E-Evans-Dr-Phoenix-AZ-85022/8010512_zpid/,33.6182,-112.03299999999999,2017-11-06,2017-11-06
249634,23819195,"2238 W Village Dr, Phoenix, AZ 85023 ",85023,0.5814755082130432,224900,https://www.zillow.com/homedetails/2238-W-Village-Dr-Phoenix-AZ-85023/7963982_zpid/,33.6458,-112.10799999999999,2017-11-03,2017-11-03
406153,23823704,"5114 W Acoma Dr, Glendale, AZ 85306 ",85306,0.5812314093112946,240000,https://www.zillow.com/homedetails/5114-W-Acoma-Dr-Glendale-AZ-85306/7910898_zpid/,33.6179,-112.17,2017-11-08,2017-11-08
403650,23818785,"15830 N 59th Dr, Glendale, AZ 85306 ",85306,0.5810659110546113,220000,https://www.zillow.com/homedetails/15830-N-59th-Dr-Glendale-AZ-85306/8096976_zpid/,33.6301,-112.18700000000001,2017-11-02,2017-11-02
394581,23831766,"3626 W Rue De Lamour Ave, Phoenix, AZ 85029 ",85029,0.5810565859079361,199900,https://www.zillow.com/homedetails/3626-W-Rue-De-Lamour-Ave-Phoenix-AZ-85029/7741437_zpid/,33.6102,-112.137,2017-11-09,2017-11-09
250720,23821217,"3627 W Hearn Rd, Phoenix, AZ 85053 ",85053,0.5809016525745392,239900,https://www.zillow.com/homedetails/3627-W-Hearn-Rd-Phoenix-AZ-85053/7944489_zpid/,33.6144,-112.137,2017-11-04,2017-11-04
1355576,23760088,"6629 N 54th Dr, Glendale, AZ 85301 ",85301,0.5806529641151428,119997,https://www.zillow.com/homedetails/6629-N-54th-Dr-Glendale-AZ-85301/7722242_zpid/,33.5342,-112.176,2017-10-20,2017-10-20
333024,22724856,"5523 N 23rd Ave, Phoenix, AZ 85015 ",85015,0.5806161999702454,186500,https://www.zillow.com/homedetails/5523-N-23rd-Ave-Phoenix-AZ-85015/7763546_zpid/,33.5178,-112.10799999999999,2017-09-26,2017-09-26
395402,23831771,"3741 W Poinsettia Dr, Phoenix, AZ 85029 ",85029,0.5805670648813248,227000,https://www.zillow.com/homedetails/3741-W-Poinsettia-Dr-Phoenix-AZ-85029/7743913_zpid/,33.5926,-112.14,2017-11-07,2017-11-07
8977160,23825434,"16231 N 91st Dr, Peoria, AZ 85382 ",85382,0.5805651426315308,233000,https://www.zillow.com/homedetails/16231-N-91st-Dr-Peoria-AZ-85382/2123153916_zpid/,33.6316,-112.25200000000001,2017-11-13,2017-11-13
8978879,23830053,"3626 W Villa Maria Dr, Glendale, AZ 85308 ",85308,0.5804564118385315,249900,https://www.zillow.com/homedetails/3626-W-Villa-Maria-Dr-Glendale-AZ-85308/7947889_zpid/,33.6518,-112.137,2017-11-03,2017-11-03
40212,23823118,"2916 S 72nd Ln, Phoenix, AZ 85043 ",85043,0.5795154005289078,175000,https://www.zillow.com/homedetails/2916-S-72nd-Ln-Phoenix-AZ-85043/67788654_zpid/,33.4218,-112.21700000000001,2017-11-09,2017-11-09
449105,23819968,"8515 W College Dr, Phoenix, AZ 85037 ",85037,0.579375970363617,162750,https://www.zillow.com/homedetails/8515-W-College-Dr-Phoenix-AZ-85037/7483595_zpid/,33.5081,-112.243,2017-11-03,2017-11-03
497164,23820780,"6725 W Holly St, Phoenix, AZ 85035 ",85035,0.5789165139198303,160000,https://www.zillow.com/homedetails/6725-W-Holly-St-Phoenix-AZ-85035/7481511_zpid/,33.4707,-112.204,2017-11-03,2017-11-03
8958968,23829412,"14401 N 36th St, Phoenix, AZ 85032 ",85032,0.5788752734661102,249900,https://www.zillow.com/homedetails/14401-N-36th-St-Phoenix-AZ-85032/8012925_zpid/,33.6169,-112.005,2017-11-07,2017-11-07
9017511,23821775,"7346 W Coolidge St, Phoenix, AZ 85033 ",85033,0.5787878394126892,210000,https://www.zillow.com/homedetails/7346-W-Coolidge-St-Phoenix-AZ-85033/7710836_zpid/,33.5042,-112.21799999999999,2017-11-02,2017-11-02
434848,23811348,"2008 N 89th Dr, Phoenix, AZ 85037 ",85037,0.578776267170906,170000,https://www.zillow.com/homedetails/2008-N-89th-Dr-Phoenix-AZ-85037/7486878_zpid/,33.469,-112.25200000000001,2017-10-27,2017-10-27
43818,23819082,"8128 W Papago St, Phoenix, AZ 85043 ",85043,0.5784508943557739,199900,https://www.zillow.com/homedetails/8128-W-Papago-St-Phoenix-AZ-85043/60047290_zpid/,33.4345,-112.235,2017-11-02,2017-11-02
326659,22740088,"1824 W Stella Ln, Phoenix, AZ 85015 ",85015,0.5784307777881622,238900,https://www.zillow.com/homedetails/1824-W-Stella-Ln-Phoenix-AZ-85015/7774085_zpid/,33.5301,-112.098,2017-10-05,2017-10-05
415785,22699422,"4307 W Seldon Ln, Glendale, AZ 85302 ",85302,0.5784305900335311,239900,https://www.zillow.com/homedetails/4307-W-Seldon-Ln-Glendale-AZ-85302/7731074_zpid/,33.5611,-112.152,2017-09-13,2017-09-13
23522,23512121,"1903 W 2nd St, Mesa, AZ 85201 ",85201,0.5784057378768921,174900,https://www.zillow.com/homedetails/1903-W-2nd-St-Mesa-AZ-85201/7612268_zpid/,33.4195,-111.87299999999999,2017-10-08,2017-10-08
260981,23820604,"4449 W Oraibi Dr, Glendale, AZ 85308 ",85308,0.5783504217863082,189900,https://www.zillow.com/homedetails/4449-W-Oraibi-Dr-Glendale-AZ-85308/7938341_zpid/,33.663000000000004,-112.155,2017-11-03,2017-11-03
404082,23831516,"16245 N 43rd Dr, Glendale, AZ 85306 ",85306,0.5782569080591202,244900,https://www.zillow.com/homedetails/16245-N-43rd-Dr-Glendale-AZ-85306/7950704_zpid/,33.6339,-112.152,2017-11-14,2017-11-14
9021554,23833490,"19212 N 15th Pl, Phoenix, AZ 85024 ",85024,0.5781746059656143,207990,https://www.zillow.com/homedetails/19212-N-15th-Pl-Phoenix-AZ-85024/7995840_zpid/,33.6606,-112.04899999999999,2017-11-13,2017-11-13
833133,23834231,"5231 N 41st Ave, Phoenix, AZ 85019 ",85019,0.5777707368135452,154900,https://www.zillow.com/homedetails/5231-N-41st-Ave-Phoenix-AZ-85019/7721532_zpid/,33.5139,-112.146,2017-11-07,2017-11-07
501018,22711998,"7420 W Alvarado Rd, Phoenix, AZ 85035 ",85035,0.577728271484375,119900,https://www.zillow.com/homedetails/7420-W-Alvarado-Rd-Phoenix-AZ-85035/7474905_zpid/,33.4717,-112.22,2017-09-23,2017-09-23
329167,22718810,"2340 W Mulberry Dr, Phoenix, AZ 85015 ",85015,0.5772645235061645,210000,https://www.zillow.com/homedetails/2340-W-Mulberry-Dr-Phoenix-AZ-85015/7517577_zpid/,33.4872,-112.11,2017-09-25,2017-09-25
9024040,23836165,"2215 S 99th Ln, Tolleson, AZ 85353 ",85353,0.5770571738481521,227000,https://www.zillow.com/homedetails/2215-S-99th-Ln-Tolleson-AZ-85353/95076703_zpid/,33.4261,-112.273,2017-11-18,2017-11-18
955402,23827093,"117 S Crestview St, Chandler, AZ 85226 ",85226,0.5766013145446778,245000,https://www.zillow.com/homedetails/117-S-Crestview-St-Chandler-AZ-85226/8262999_zpid/,33.3011,-111.94,2017-11-13,2017-11-13
9021527,23824183,"7384 W Greer Ave, Peoria, AZ 85345 ",85345,0.5764055699110031,209900,https://www.zillow.com/homedetails/7384-W-Greer-Ave-Peoria-AZ-85345/7701234_zpid/,33.5882,-112.21799999999999,2017-11-09,2017-11-09
388342,23817469,"2312 W Laurel Ln, Phoenix, AZ 85029 ",85029,0.5763249725103379,191000,https://www.zillow.com/homedetails/2312-W-Laurel-Ln-Phoenix-AZ-85029/7749464_zpid/,33.5944,-112.109,2017-11-01,2017-11-01
359312,23822645,"2024 S 85th Ln, Tolleson, AZ 85353 ",85353,0.5762624442577362,180000,https://www.zillow.com/homedetails/2024-S-85th-Ln-Tolleson-AZ-85353/59271383_zpid/,33.4284,-112.244,2017-11-08,2017-11-08
402050,23823691,"14629 N 63rd Dr, Glendale, AZ 85306 ",85306,0.5759545385837554,220000,https://www.zillow.com/homedetails/14629-N-63rd-Dr-Glendale-AZ-85306/8098816_zpid/,33.6179,-112.193,2017-11-06,2017-11-06
229748,23837051,"16450 N 29th Ln, Phoenix, AZ 85053 ",85053,0.5759192526340484,162500,https://www.zillow.com/homedetails/16450-N-29th-Ln-Phoenix-AZ-85053/7955346_zpid/,33.6357,-112.12200000000001,2017-11-18,2017-11-18
410898,23823665,"5031 W Windrose Dr, Glendale, AZ 85304 ",85304,0.5757601916790008,229000,https://www.zillow.com/homedetails/5031-W-Windrose-Dr-Glendale-AZ-85304/7954728_zpid/,33.6006,-112.167,2017-11-08,2017-11-08
252997,23822096,"3801 W Tierra Buena Ln, Phoenix, AZ 85053 ",85053,0.5757601290941239,245000,https://www.zillow.com/homedetails/3801-W-Tierra-Buena-Ln-Phoenix-AZ-85053/7945818_zpid/,33.6286,-112.14,2017-11-06,2017-11-06
1356244,23823740,"6825 N 60th Ave, Glendale, AZ 85301 ",85301,0.5756622701883316,182000,https://www.zillow.com/homedetails/6825-N-60th-Ave-Glendale-AZ-85301/7707716_zpid/,33.5378,-112.189,2017-11-08,2017-11-08
8987564,23814063,"14067 N 35th St, Phoenix, AZ 85032 ",85032,0.5756558001041412,215000,https://www.zillow.com/homedetails/14067-N-35th-St-Phoenix-AZ-85032/8011904_zpid/,33.6149,-112.007,2017-10-29,2017-10-29
389548,23813548,"2610 W Corrine Dr, Phoenix, AZ 85029 ",85029,0.5755234032869339,189900,https://www.zillow.com/homedetails/2610-W-Corrine-Dr-Phoenix-AZ-85029/7748242_zpid/,33.601,-112.115,2017-10-26,2017-10-26
408932,23816436,"6425 W Monte Cristo Ave, Glendale, AZ 85306 ",85306,0.5753691822290421,214900,https://www.zillow.com/homedetails/6425-W-Monte-Cristo-Ave-Glendale-AZ-85306/7902187_zpid/,33.631,-112.197,2017-10-31,2017-10-31
9012379,22682953,"928 N Central Dr, Chandler, AZ 85224 ",85224,0.5753446996212006,249000,https://www.zillow.com/homedetails/928-N-Central-Dr-Chandler-AZ-85224/8186076_zpid/,33.3193,-111.863,2017-09-15,2017-09-15
9021795,23822865,"747 W Rosal Pl, Chandler, AZ 85225 ",85225,0.5750731259584427,249800,https://www.zillow.com/homedetails/747-W-Rosal-Pl-Chandler-AZ-85225/8177685_zpid/,33.3412,-111.855,2017-11-07,2017-11-07
237449,23825435,"1633 W Michigan Ave, Phoenix, AZ 85023 ",85023,0.5749890059232712,204900,https://www.zillow.com/homedetails/1633-W-Michigan-Ave-Phoenix-AZ-85023/7957245_zpid/,33.6508,-112.095,2017-11-10,2017-11-10
418832,23830316,"5234 W Diana Ave, Glendale, AZ 85302 ",85302,0.5748268038034439,249999,https://www.zillow.com/homedetails/5234-W-Diana-Ave-Glendale-AZ-85302/7733937_zpid/,33.5632,-112.17299999999999,2017-11-09,2017-11-09
9021813,23820289,"8528 W Eva St, Peoria, AZ 85345 ",85345,0.5745339751243591,186000,https://www.zillow.com/homedetails/8528-W-Eva-St-Peoria-AZ-85345/7696910_zpid/,33.5674,-112.243,2017-11-03,2017-11-03
246622,23830003,"3408 W Port Au Prince Ln, Phoenix, AZ 85053 ",85053,0.5744960099458695,194900,https://www.zillow.com/homedetails/3408-W-Port-Au-Prince-Ln-Phoenix-AZ-85053/7943618_zpid/,33.6233,-112.132,2017-11-09,2017-11-09
9021367,23757594,"9414 W Timberline Dr, Sun City, AZ 85351 ",85351,0.5742656588554382,178500,https://www.zillow.com/homedetails/9414-W-Timberline-Dr-Sun-City-AZ-85351/7922214_zpid/,33.6158,-112.26299999999999,2017-10-12,2017-10-12
330099,22738563,"3820 N 23rd Ave, Phoenix, AZ 85015 ",85015,0.5737909287214279,245000,https://www.zillow.com/homedetails/3820-N-23rd-Ave-Phoenix-AZ-85015/7516043_zpid/,33.4921,-112.10799999999999,2017-10-05,2017-10-05
9017508,23796415,"6407 W Mulberry Dr, Phoenix, AZ 85033 ",85033,0.5734551519155502,162500,https://www.zillow.com/homedetails/6407-W-Mulberry-Dr-Phoenix-AZ-85033/7498482_zpid/,33.4866,-112.197,2017-10-23,2017-10-23
9019398,23819886,"2116 E Vista Dr, Phoenix, AZ 85022 ",85022,0.573147389292717,249900,https://www.zillow.com/homedetails/2116-E-Vista-Dr-Phoenix-AZ-85022/8010925_zpid/,33.6222,-112.037,2017-11-03,2017-11-03
9012601,23824429,"8709 W C P Hayes Dr, Tolleson, AZ 85353 ",85353,0.5731383502483368,215000,https://www.zillow.com/homedetails/8709-W-C-P-Hayes-Dr-Tolleson-AZ-85353/7476816_zpid/,33.4541,-112.24799999999999,2017-11-09,2017-11-09
402127,23814880,"14638 N 62nd Ave, Glendale, AZ 85306 ",85306,0.5731081426143646,230000,https://www.zillow.com/homedetails/14638-N-62nd-Ave-Glendale-AZ-85306/8098778_zpid/,33.6177,-112.191,2017-10-30,2017-10-30
415220,23821258,"10031 N 56th Dr, Glendale, AZ 85302 ",85302,0.5730340778827667,203000,https://www.zillow.com/homedetails/10031-N-56th-Dr-Glendale-AZ-85302/7735304_zpid/,33.5778,-112.18,2017-11-04,2017-11-04
414937,23823742,"6625 W Poinsettia Dr, Glendale, AZ 85304 ",85304,0.5726810902357101,234900,https://www.zillow.com/homedetails/6625-W-Poinsettia-Dr-Glendale-AZ-85304/7699539_zpid/,33.5931,-112.20200000000001,2017-11-08,2017-11-08
463158,22747298,"2733 W Berridge Ln, Phoenix, AZ 85017 ",85017,0.5726114690303803,170000,https://www.zillow.com/homedetails/2733-W-Berridge-Ln-Phoenix-AZ-85017/7759928_zpid/,33.5253,-112.118,2017-10-10,2017-10-10
9022649,23818996,"7133 W Mountain View Rd, Peoria, AZ 85345 ",85345,0.5725212693214417,209900,https://www.zillow.com/homedetails/7133-W-Mountain-View-Rd-Peoria-AZ-85345/7702397_zpid/,33.5743,-112.213,2017-11-02,2017-11-02
252724,23825542,"3745 W Tierra Buena Ln, Phoenix, AZ 85053 ",85053,0.5724181175231934,209900,https://www.zillow.com/homedetails/3745-W-Tierra-Buena-Ln-Phoenix-AZ-85053/7945954_zpid/,33.6286,-112.14,2017-11-10,2017-11-10
9021845,23828309,"6123 W Indianola Ave, Phoenix, AZ 85033 ",85033,0.5723047137260437,184900,https://www.zillow.com/homedetails/6123-W-Indianola-Ave-Phoenix-AZ-85033/7496562_zpid/,33.4921,-112.19200000000001,2017-10-25,2017-10-25
345732,23837836,"17438 N 20th St, Phoenix, AZ 85022 ",85022,0.5719528555870056,159900,https://www.zillow.com/homedetails/17438-N-20th-St-Phoenix-AZ-85022/8000682_zpid/,33.6456,-112.039,2017-11-16,2017-11-16
9019057,23796416,"3122 N 63rd Ave, Phoenix, AZ 85033 ",85033,0.5716454654932022,160000,https://www.zillow.com/homedetails/3122-N-63rd-Ave-Phoenix-AZ-85033/7498587_zpid/,33.4849,-112.195,2017-10-23,2017-10-23
359603,23837384,"2538 S 88th Ln, Tolleson, AZ 85353 ",85353,0.5713522732257843,209900,https://www.zillow.com/homedetails/2538-S-88th-Ln-Tolleson-AZ-85353/67772866_zpid/,33.4242,-112.251,2017-11-20,2017-11-20
390721,23808934,"4031 W North Ln, Phoenix, AZ 85051 ",85051,0.5710055768489838,184900,https://www.zillow.com/homedetails/4031-W-North-Ln-Phoenix-AZ-85051/7746050_zpid/,33.5813,-112.146,2017-10-26,2017-10-26
9022423,23821993,"8509 W Watkins St, Tolleson, AZ 85353 ",85353,0.5707989364862442,200000,https://www.zillow.com/homedetails/8509-W-Watkins-St-Tolleson-AZ-85353/59271432_zpid/,33.4257,-112.244,2017-11-06,2017-11-06
9023131,23824208,"7074 W Eva St, Peoria, AZ 85345 ",85345,0.570752939581871,197000,https://www.zillow.com/homedetails/7074-W-Eva-St-Peoria-AZ-85345/7703088_zpid/,33.5682,-112.211,2017-11-09,2017-11-09
9006569,23813547,"2520 E Hillery Dr, Phoenix, AZ 85032 ",85032,0.5706060528755188,240000,https://www.zillow.com/homedetails/2520-E-Hillery-Dr-Phoenix-AZ-85032/8013787_zpid/,33.6223,-112.027,2017-10-26,2017-10-26
9012867,23821644,"13235 N 31st Way, Phoenix, AZ 85032 ",85032,0.570542722940445,239900,https://www.zillow.com/homedetails/13235-N-31st-Way-Phoenix-AZ-85032/50188569_zpid/,33.6073,-112.014,2017-11-01,2017-11-01
9019753,22739028,"517 N Center St, Mesa, AZ 85201 ",85201,0.57032810151577,155000,https://www.zillow.com/homedetails/517-N-Center-St-Mesa-AZ-85201/7622095_zpid/,33.4245,-111.831,2017-10-04,2017-10-04
9021895,23808688,"10205 N 87th Ln, Peoria, AZ 85345 ",85345,0.5703220546245575,189950,https://www.zillow.com/homedetails/10205-N-87th-Ln-Peoria-AZ-85345/7684497_zpid/,33.5776,-112.24799999999999,2017-10-26,2017-10-26
478899,23821673,"1835 N 46th Ave, Phoenix, AZ 85035 ",85035,0.5700344860553741,155000,https://www.zillow.com/homedetails/1835-N-46th-Ave-Phoenix-AZ-85035/7495019_zpid/,33.4693,-112.15799999999999,2017-11-01,2017-11-01
408027,23819948,"6041 W Mary Jane Ln, Glendale, AZ 85306 ",85306,0.5699157774448395,234000,https://www.zillow.com/homedetails/6041-W-Mary-Jane-Ln-Glendale-AZ-85306/8097191_zpid/,33.6273,-112.19,2017-11-03,2017-11-03
701826,23809249,"2733 W Jacinto Cir, Mesa, AZ 85202 ",85202,0.569834154844284,205000,https://www.zillow.com/homedetails/2733-W-Jacinto-Cir-Mesa-AZ-85202/8250117_zpid/,33.3796,-111.891,2017-10-26,2017-10-26
972401,23821511,"5810 W Frye Rd, Chandler, AZ 85226 ",85226,0.5696155160665513,219900,https://www.zillow.com/homedetails/5810-W-Frye-Rd-Chandler-AZ-85226/8262620_zpid/,33.2971,-111.943,2017-11-05,2017-11-05
9021461,23758479,"2442 E Adams St, Phoenix, AZ 85034 ",85034,0.5693674951791763,175000,https://www.zillow.com/homedetails/2442-E-Adams-St-Phoenix-AZ-85034/7544716_zpid/,33.4495,-112.02799999999999,2017-10-20,2017-10-20
217475,23512287,"520 E Orchid Ln, Phoenix, AZ 85020 ",85020,0.5692312955856323,229900,https://www.zillow.com/homedetails/520-E-Orchid-Ln-Phoenix-AZ-85020/7793796_zpid/,33.562,-112.06700000000001,2017-10-10,2017-10-10
421390,23831067,"6321 W Mountain View Rd, Glendale, AZ 85302 ",85302,0.5690821558237076,200000,https://www.zillow.com/homedetails/6321-W-Mountain-View-Rd-Glendale-AZ-85302/7703351_zpid/,33.5743,-112.196,2017-11-13,2017-11-13
342848,23829559,"16841 N 18th Pl, Phoenix, AZ 85022 ",85022,0.5690683960914612,238900,https://www.zillow.com/homedetails/16841-N-18th-Pl-Phoenix-AZ-85022/8004961_zpid/,33.6391,-112.04299999999999,2017-11-09,2017-11-09
1373229,23823765,"8731 W Mclellan Rd, Glendale, AZ 85305 ",85305,0.5690148353576661,220000,https://www.zillow.com/homedetails/8731-W-Mclellan-Rd-Glendale-AZ-85305/7461580_zpid/,33.5321,-112.24799999999999,2017-11-06,2017-11-06
333228,23806505,"5702 N 19th Dr, Phoenix, AZ 85015 ",85015,0.569004374742508,235000,https://www.zillow.com/homedetails/5702-N-19th-Dr-Phoenix-AZ-85015/7763351_zpid/,33.5212,-112.101,2017-10-25,2017-10-25
409027,23831079,"6509 W Grandview Rd, Glendale, AZ 85306 ",85306,0.5688744843006134,232900,https://www.zillow.com/homedetails/6509-W-Grandview-Rd-Glendale-AZ-85306/7902066_zpid/,33.6342,-112.198,2017-11-10,2017-11-10
9022859,23821620,"5030 W Taro Dr, Glendale, AZ 85308 ",85308,0.5685815513134003,228000,https://www.zillow.com/homedetails/5030-W-Taro-Dr-Glendale-AZ-85308/7939791_zpid/,33.6587,-112.16799999999999,2017-11-04,2017-11-04
412368,23816556,"5432 W Becker Ln, Glendale, AZ 85304 ",85304,0.5681954205036164,229900,https://www.zillow.com/homedetails/5432-W-Becker-Ln-Glendale-AZ-85304/7736570_zpid/,33.5824,-112.177,2017-11-01,2017-11-01
404210,23821259,"16410 N 66th Dr, Glendale, AZ 85306 ",85306,0.5681480228900909,205000,https://www.zillow.com/homedetails/16410-N-66th-Dr-Glendale-AZ-85306/7901919_zpid/,33.6346,-112.20200000000001,2017-11-04,2017-11-04
