property_id,transaction_id,address,zipcode,any_sell,good_sell,bayesian,list,url,lat,long,date_listed,transaction_date
237883,17872058,"3009 W Charleston Ave, Phoenix, AZ 85053 ",85053,0.8584150969982147,0.9769851267337799,0.8386587823309908,220000,https://www.zillow.com/homedetails/3009-W-Charleston-Ave-Phoenix-AZ-85053/7940776_zpid/,33.6487,-112.124,6284,2017-03-16
240418,17871990,"17441 N 9th Ave, Phoenix, AZ 85023 ",85023,0.8309663236141205,0.9769851267337799,0.8118417389876447,219900,https://www.zillow.com/homedetails/17441-N-9th-Ave-Phoenix-AZ-85023/7963646_zpid/,33.6458,-112.085,6284,2017-03-16
646296,17862449,"2248 W Del Oro Cir, Mesa, AZ 85202 ",85202,0.8261586129665375,0.9769851267337799,0.8071446771913164,230000,https://www.zillow.com/homedetails/2248-W-Del-Oro-Cir-Mesa-AZ-85202/7602090_zpid/,33.4019,-111.88,6291,2017-03-23
8977160,23825434,"16231 N 91st Dr, Peoria, AZ 85382 ",85382,0.8587686419487,0.8930388391017914,0.766913751062889,233000,https://www.zillow.com/homedetails/16231-N-91st-Dr-Peoria-AZ-85382/2123153916_zpid/,33.6316,-112.25200000000001,6526,2017-11-13
9023243,23866706,"9140 W Gelding Dr, Peoria, AZ 85381 ",85381,0.8469483852386475,0.8974019289016724,0.7600531145933189,247000,https://www.zillow.com/homedetails/9140-W-Gelding-Dr-Peoria-AZ-85381/7908642_zpid/,33.6153,-112.255,6579,2018-01-05
9026266,23865520,"11403 N Arbor Ct, Sun City, AZ 85351 ",85351,0.8585160672664642,0.8849810361862183,0.7597704387919926,190000,https://www.zillow.com/homedetails/11403-N-Arbor-Ct-Sun-City-AZ-85351/7685894_zpid/,33.5879,-112.26799999999999,6559,2017-12-16
9026050,23861695,"19901 N 98th Ave, Peoria, AZ 85382 ",85382,0.851131409406662,0.892291247844696,0.7594571073792853,239000,https://www.zillow.com/homedetails/19901-N-98th-Ave-Peoria-AZ-85382/7896097_zpid/,33.6647,-112.271,6571,2017-12-28
1864574,23822334,"9873 W Escuda Dr, Peoria, AZ 85382 ",85382,0.8688774108886719,0.8717678785324097,0.7574594171951503,245000,https://www.zillow.com/homedetails/9873-W-Escuda-Dr-Peoria-AZ-85382/7896125_zpid/,33.6652,-112.271,6519,2017-11-06
1667493,23859750,"18423 N 94TH Dr, Sun City, AZ 85373 ",85373,0.8512479960918427,0.8865952491760254,0.7547124292056395,249900,https://www.zillow.com/homedetails/18423-N-94th-Dr-Sun-City-AZ-85373/7897476_zpid/,33.6522,-112.26299999999999,6571,2017-12-28
9025615,23856149,"17636 N 35th St, Phoenix, AZ 85032 ",85032,0.8672346472740173,0.8696361184120178,0.7541785724077918,235000,https://www.zillow.com/homedetails/17636-N-35th-St-Phoenix-AZ-85032/7998341_zpid/,33.6469,-112.005,6557,2017-12-14
9007274,23854421,"8426 W Bluefield Ave, Peoria, AZ 85382 ",85382,0.8514755070209503,0.8820865750312805,0.7510751137111331,229000,https://www.zillow.com/homedetails/8426-W-Bluefield-Ave-Peoria-AZ-85382/8129054_zpid/,33.6509,-112.241,6552,2017-12-09
9021795,23854390,"747 W Rosal Pl, Chandler, AZ 85225 ",85225,0.8301023244857788,0.9014226794242859,0.7482730615342987,244800,https://www.zillow.com/homedetails/747-W-Rosal-Pl-Chandler-AZ-85225/8177685_zpid/,33.3412,-111.855,6551,2017-12-08
9021586,23838024,"8142 W Sweetwater Ave, Peoria, AZ 85381 ",85381,0.8440002799034119,0.8864956200122833,0.7482025514235158,240000,https://www.zillow.com/homedetails/8142-W-Sweetwater-Ave-Peoria-AZ-85381/7913307_zpid/,33.6028,-112.235,6529,2017-11-16
629569,23853723,"1645 W Peralta Ave, Mesa, AZ 85202 ",85202,0.8366314470767975,0.8939342796802521,0.7478935300004439,222900,https://www.zillow.com/homedetails/1645-W-Peralta-Ave-Mesa-AZ-85202/8191627_zpid/,33.3572,-111.87,6553,2017-12-10
7389079,23836128,"12207 N Sun Valley Dr, Sun City, AZ 85351 ",85351,0.8621082007884979,0.8665050864219666,0.7470211410293235,209900,https://www.zillow.com/homedetails/12207-N-Sun-Valley-Dr-Sun-City-AZ-85351/7686174_zpid/,33.5952,-112.271,6530,2017-11-17
9021086,23815044,"8137 W Aster Dr, Peoria, AZ 85381 ",85381,0.8477549254894257,0.8802944421768188,0.7462739492363646,239000,https://www.zillow.com/homedetails/8137-W-Aster-Dr-Peoria-AZ-85381/8100990_zpid/,33.6013,-112.235,6512,2017-10-30
1091154,23858452,"668 W Shawnee Dr, Chandler, AZ 85225 ",85225,0.8303956687450409,0.8963525295257568,0.7443272581868499,239900,https://www.zillow.com/homedetails/668-W-Shawnee-Dr-Chandler-AZ-85225/8200509_zpid/,33.3448,-111.852,6535,2017-11-22
9021585,23824122,"12612 N 79TH Ave, Peoria, AZ 85381 ",85381,0.8443421721458435,0.8808989226818085,0.7437801098180916,225000,https://www.zillow.com/homedetails/12612-N-79th-Ave-Peoria-AZ-85381/8101178_zpid/,33.5997,-112.229,6522,2017-11-09
9018003,23819878,"1842 W Alamo Dr, Chandler, AZ 85224 ",85224,0.8330805003643036,0.892676591873169,0.7436714618212008,244500,https://www.zillow.com/homedetails/1842-W-Alamo-Dr-Chandler-AZ-85224/8199834_zpid/,33.3482,-111.875,6516,2017-11-03
9023475,23827261,"12202 N Balboa Dr, Sun City, AZ 85351 ",85351,0.8578861951828003,0.8663407564163208,0.7432217752537866,159500,https://www.zillow.com/homedetails/12202-N-Balboa-Dr-Sun-City-AZ-85351/7916635_zpid/,33.5958,-112.274,6526,2017-11-13
7564801,23760240,"9711 W Alabama Ave, Sun City, AZ 85351 ",85351,0.8723130226135254,0.8517423868179321,0.7429859759332089,199900,https://www.zillow.com/homedetails/9711-W-Alabama-Ave-Sun-City-AZ-85351/7685981_zpid/,33.5933,-112.266,6502,2017-10-20
9025829,23859165,"4109 E Winchcomb Dr, Phoenix, AZ 85032 ",85032,0.8572524785995483,0.8634474873542786,0.7401924986750075,185000,https://www.zillow.com/homedetails/4109-E-Winchcomb-Dr-Phoenix-AZ-85032/8030117_zpid/,33.617,-111.993,6558,2017-12-15
976127,23846057,"734 N Tangerine Dr, Chandler, AZ 85226 ",85226,0.8303392231464386,0.8908246159553528,0.7396866195720921,204900,https://www.zillow.com/homedetails/734-N-Tangerine-Dr-Chandler-AZ-85226/8156625_zpid/,33.3162,-111.928,6544,2017-12-01
9025869,23860030,"11848 N 79th Dr, Peoria, AZ 85345 ",85345,0.8268322944641113,0.8927774429321289,0.7381772215853744,215000,https://www.zillow.com/homedetails/11848-N-79th-Dr-Peoria-AZ-85345/2091778016_zpid/,33.5928,-112.23,6557,2017-12-14
392547,17866420,"3301 W Paradise Dr, Phoenix, AZ 85029 ",85029,0.7538227736949921,0.9769851267337799,0.7364736380932113,217500,https://www.zillow.com/homedetails/3301-W-Paradise-Dr-Phoenix-AZ-85029/7748604_zpid/,33.5947,-112.13,6275,2017-03-07
9012841,23819608,"8121 W Hatcher Rd, Peoria, AZ 85345 ",85345,0.8363525867462158,0.8793777525424957,0.73546985806599,239000,https://www.zillow.com/homedetails/8121-W-Hatcher-Rd-Peoria-AZ-85345/7682649_zpid/,33.57,-112.234,6515,2017-11-02
261662,23863593,"4827 W Topeka Dr, Glendale, AZ 85308 ",85308,0.8261894285678864,0.888893723487854,0.7343945974660109,230000,https://www.zillow.com/homedetails/4827-W-Topeka-Dr-Glendale-AZ-85308/7939843_zpid/,33.6597,-112.166,6569,2017-12-26
1092802,23820224,"731 W Palomino Dr, Chandler, AZ 85225 ",85225,0.8249668180942535,0.8890342712402344,0.7334237739217997,245900,https://www.zillow.com/homedetails/731-W-Palomino-Dr-Chandler-AZ-85225/8177603_zpid/,33.3404,-111.855,6516,2017-11-03
419470,23882476,"5428 W Puget Ave, Glendale, AZ 85302 ",85302,0.8210142552852631,0.8921808302402496,0.7324931799194863,180000,https://www.zillow.com/homedetails/5428-W-Puget-Ave-Glendale-AZ-85302/7733603_zpid/,33.567,-112.177,6559,2017-12-16
1665351,23862007,"17415 N Country Club Dr, Sun City, AZ 85373 ",85373,0.8271468281745911,0.8852104246616364,0.7321989950259553,219500,https://www.zillow.com/homedetails/17415-N-Country-Club-Dr-Sun-City-AZ-85373/7897399_zpid/,33.6428,-112.26,6574,2017-12-31
332059,23858248,"115 E Hartford Ave, Phoenix, AZ 85022 ",85022,0.8283352553844452,0.8831641674041748,0.731556016153128,215000,https://www.zillow.com/homedetails/115-E-Hartford-Ave-Phoenix-AZ-85022/79527909_zpid/,33.6426,-112.073,6562,2017-12-19
1356244,23823740,"6825 N 60th Ave, Glendale, AZ 85301 ",85301,0.830667644739151,0.8788234293460846,0.7300101881964958,182000,https://www.zillow.com/homedetails/6825-N-60th-Ave-Glendale-AZ-85301/7707716_zpid/,33.5378,-112.189,6521,2017-11-08
9024615,23850383,"4345 W Morrow Dr, Glendale, AZ 85308 ",85308,0.850735068321228,0.8568763434886932,0.7289747546206975,245000,https://www.zillow.com/homedetails/4345-W-Morrow-Dr-Glendale-AZ-85308/7938791_zpid/,33.6569,-112.154,6552,2017-12-09
2042666,23866719,"9694 N 82nd Gln, Peoria, AZ 85345 ",85345,0.8187224566936493,0.8893553614616394,0.7281352064095419,219000,https://www.zillow.com/homedetails/9694-N-82nd-Gln-Peoria-AZ-85345/60978309_zpid/,33.5735,-112.23700000000001,6578,2018-01-04
405758,23864265,"4841 W Paradise Ln, Glendale, AZ 85306 ",85306,0.8208766281604767,0.8855648636817932,0.7269394993165026,249999,https://www.zillow.com/homedetails/4841-W-Paradise-Ln-Glendale-AZ-85306/7951435_zpid/,33.6321,-112.163,6579,2018-01-05
235380,23862487,"2831 W Grovers Ave, Phoenix, AZ 85053 ",85053,0.822253406047821,0.8831954896450043,0.7262104995666778,200000,https://www.zillow.com/homedetails/2831-W-Grovers-Ave-Phoenix-AZ-85053/7942333_zpid/,33.6472,-112.12200000000001,6578,2018-01-04
9025997,23861142,"15848 N 99th Dr, Sun City, AZ 85351 ",85351,0.8221151530742645,0.8831799328327179,0.7260756056728885,239500,https://www.zillow.com/homedetails/15848-N-99th-Dr-Sun-City-AZ-85351/8091359_zpid/,33.6291,-112.272,6558,2017-12-15
379528,23846192,"11438 N 30TH Ave, Phoenix, AZ 85029 ",85029,0.8509642481803894,0.8492953479290009,0.7227199772335045,235000,https://www.zillow.com/homedetails/11438-N-30th-Ave-Phoenix-AZ-85029/7739912_zpid/,33.5907,-112.124,6544,2017-12-01
9006564,23814082,"16612 N 28th Way, Phoenix, AZ 85032 ",85032,0.858942449092865,0.8400856256484985,0.7215852047422331,194900,https://www.zillow.com/homedetails/16612-N-28th-Way-Phoenix-AZ-85032/8005824_zpid/,33.6376,-112.021,6511,2017-10-29
413890,23882883,"6209 W Bloomfield Rd, Glendale, AZ 85304 ",85304,0.8048768937587738,0.89378622174263,0.7193878778405987,225000,https://www.zillow.com/homedetails/6209-W-Bloomfield-Rd-Glendale-AZ-85304/7912238_zpid/,33.5984,-112.19200000000001,6561,2017-12-18
416064,23818791,"4416 W Turquoise Ave, Glendale, AZ 85302 ",85302,0.8416028618812561,0.854461282491684,0.7191170607117296,249900,https://www.zillow.com/homedetails/4416-W-Turquoise-Ave-Glendale-AZ-85302/7729268_zpid/,33.5757,-112.154,6515,2017-11-02
237433,23843870,"2957 W Michelle Dr, Phoenix, AZ 85053 ",85053,0.8531520068645477,0.8415634036064148,0.7179815066905721,225000,https://www.zillow.com/homedetails/2957-W-Michelle-Dr-Phoenix-AZ-85053/7940747_zpid/,33.6492,-112.124,6542,2017-11-29
424918,23883758,"9803 N 50th Ave, Glendale, AZ 85302 ",85302,0.8051997125148773,0.8915460705757141,0.7178726397213335,224500,https://www.zillow.com/homedetails/9803-N-50th-Ave-Glendale-AZ-85302/7728972_zpid/,33.575,-112.167,6571,2017-12-28
9025717,23858269,"3333 W Grovers Ave, Phoenix, AZ 85053 ",85053,0.8151551485061646,0.8802281320095062,0.7175224936675129,162000,https://www.zillow.com/homedetails/3333-W-Grovers-Ave-Phoenix-AZ-85053/2091717911_zpid/,33.6474,-112.131,6564,2017-12-21
225614,23844378,"1303 W Michelle Dr, Phoenix, AZ 85023 ",85023,0.8419276475906372,0.8513637483119965,0.7167866778602665,249900,https://www.zillow.com/homedetails/1303-W-Michelle-Dr-Phoenix-AZ-85023/7956957_zpid/,33.6494,-112.09,6543,2017-11-30
450270,23853373,"8713 W Wilshire Dr, Phoenix, AZ 85037 ",85037,0.8009257018566132,0.8946471810340881,0.7165459213837675,200000,https://www.zillow.com/homedetails/8713-W-Wilshire-Dr-Phoenix-AZ-85037/7473941_zpid/,33.4756,-112.24700000000001,6526,2017-11-13
242869,23862343,"18216 N 24TH Dr, Phoenix, AZ 85023 ",85023,0.8164087235927582,0.8776156604290009,0.7164930811358561,197899,https://www.zillow.com/homedetails/18216-N-24th-Dr-Phoenix-AZ-85023/7957934_zpid/,33.6523,-112.111,6576,2018-01-02
9023033,23823351,"437 E Wescott Dr, Phoenix, AZ 85024 ",85024,0.8523944914340973,0.8402394652366638,0.7162154916532639,225000,https://www.zillow.com/homedetails/437-E-Wescott-Dr-Phoenix-AZ-85024/2092120604_zpid/,33.6585,-112.068,6521,2017-11-08
422815,23883544,"8324 N 56th Ln, Glendale, AZ 85302 ",85302,0.8016211688518524,0.8929071426391602,0.7157732673585713,242900,https://www.zillow.com/homedetails/8324-N-56th-Ln-Glendale-AZ-85302/7732897_zpid/,33.5576,-112.181,6568,2017-12-25
402127,23814880,"14638 N 62nd Ave, Glendale, AZ 85306 ",85306,0.8465041816234589,0.8451243340969086,0.7154012828047742,230000,https://www.zillow.com/homedetails/14638-N-62nd-Ave-Glendale-AZ-85306/8098778_zpid/,33.6177,-112.191,6512,2017-10-30
9021439,23856224,"17630 N 33RD Ln, Phoenix, AZ 85053 ",85053,0.8187600076198578,0.873353898525238,0.7150672446113564,215000,https://www.zillow.com/homedetails/17630-N-33rd-Ln-Phoenix-AZ-85053/7942069_zpid/,33.6462,-112.131,6558,2017-12-15
561112,23847992,"1043 W Frito Ave, Mesa, AZ 85210 ",85210,0.8204372227191925,0.8710486888885498,0.7146407671649158,195000,https://www.zillow.com/homedetails/1043-W-Frito-Ave-Mesa-AZ-85210/7598695_zpid/,33.3951,-111.854,6543,2017-11-30
411351,23831053,"5194 W Paradise Dr, Glendale, AZ 85304 ",85304,0.8224644362926483,0.8676770329475403,0.7136335017872764,214900,https://www.zillow.com/homedetails/5194-W-Paradise-Dr-Glendale-AZ-85304/60978690_zpid/,33.5953,-112.171,6526,2017-11-13
409785,23870370,"4531 W Wethersfield Rd, Glendale, AZ 85304 ",85304,0.8074703216552734,0.8831024765968323,0.7130790408322127,235000,https://www.zillow.com/homedetails/4531-W-Wethersfield-Rd-Glendale-AZ-85304/7955091_zpid/,33.5969,-112.15700000000001,6577,2018-01-03
8989113,22740158,"19153 N 75TH Dr, Glendale, AZ 85308 ",85308,0.8809021413326263,0.8088052272796631,0.7124782566316767,235000,https://www.zillow.com/homedetails/19153-N-75th-Dr-Glendale-AZ-85308/7892099_zpid/,33.6583,-112.221,6487,2017-10-05
9025718,23861001,"2944 W Villa Theresa Dr, Phoenix, AZ 85053 ",85053,0.8015379011631012,0.8884409368038177,0.7121190837931115,210000,https://www.zillow.com/homedetails/2944-W-Villa-Theresa-Dr-Phoenix-AZ-85053/7940561_zpid/,33.6541,-112.12299999999999,6573,2017-12-30
255987,23850390,"506 W Beverly Ln, Phoenix, AZ 85023 ",85023,0.8343056738376617,0.853248655796051,0.7118701947250035,229900,https://www.zillow.com/homedetails/506-W-Beverly-Ln-Phoenix-AZ-85023/7965481_zpid/,33.6337,-112.081,6552,2017-12-09
354621,23808089,"2310 E Winchcomb Dr, Phoenix, AZ 85022 ",85022,0.8515533804893494,0.835699200630188,0.7116424793688836,224900,https://www.zillow.com/homedetails/2310-E-Winchcomb-Dr-Phoenix-AZ-85022/8010116_zpid/,33.6168,-112.03399999999999,6507,2017-10-25
225687,23849553,"1306 W Charleston Ave, Phoenix, AZ 85023 ",85023,0.8358412086963654,0.8513637483119965,0.7116049044293673,245000,https://www.zillow.com/homedetails/1306-W-Charleston-Ave-Phoenix-AZ-85023/7956977_zpid/,33.6491,-112.09,6550,2017-12-07
9017511,23846619,"7346 W Coolidge St, Phoenix, AZ 85033 ",85033,0.7993450164794922,0.8901852667331696,0.7115651567066266,199900,https://www.zillow.com/homedetails/7346-W-Coolidge-St-Phoenix-AZ-85033/7710836_zpid/,33.5042,-112.21799999999999,6544,2017-12-01
222394,23848564,"1010 W Campo Bello Dr, Phoenix, AZ 85023 ",85023,0.8314194977283478,0.8550701141357422,0.7109219648172598,199900,https://www.zillow.com/homedetails/1010-W-Campo-Bello-Dr-Phoenix-AZ-85023/7963596_zpid/,33.644,-112.087,6549,2017-12-06
393911,23884959,"7111 N 27th Ln, Phoenix, AZ 85051 ",85051,0.8202932775020599,0.8661051392555237,0.7104602233412916,225000,https://www.zillow.com/homedetails/7111-N-27th-Ln-Phoenix-AZ-85051/81986825_zpid/,33.5411,-112.118,6561,2017-12-18
1093584,23859955,"781 W Del Rio St, Chandler, AZ 85225 ",85225,0.7925156354904175,0.8949133455753326,0.7092328187774903,248900,https://www.zillow.com/homedetails/781-W-Del-Rio-St-Chandler-AZ-85225/8186554_zpid/,33.3158,-111.854,6565,2017-12-22
232170,23847359,"17834 N 33RD Dr, Phoenix, AZ 85053 ",85053,0.8314671814441681,0.8523461818695068,0.7086978774537371,249999,https://www.zillow.com/homedetails/17834-N-33RD-Dr-Phoenix-AZ-85053/7941287_zpid/,33.6484,-112.131,6543,2017-11-30
347157,23863475,"17828 N 1ST St, Phoenix, AZ 85022 ",85022,0.8221677541732788,0.8613929748535156,0.7082095275959546,104990,https://www.zillow.com/homedetails/17828-N-1st-St-Phoenix-AZ-85022/7956061_zpid/,33.6483,-112.074,6567,2017-12-24
412003,23883799,"5331 W Voltaire Dr, Glendale, AZ 85304 ",85304,0.7997508943080902,0.8853918313980103,0.7080929089736365,206000,https://www.zillow.com/homedetails/5331-W-Voltaire-Dr-Glendale-AZ-85304/7911791_zpid/,33.6084,-112.17399999999999,6572,2017-12-29
234034,23855362,"18447 N 31ST Ave, Phoenix, AZ 85053 ",85053,0.8402775228023529,0.8419461250305176,0.7074684042736834,209000,https://www.zillow.com/homedetails/18447-N-31st-Ave-Phoenix-AZ-85053/7940519_zpid/,33.6544,-112.126,6551,2017-12-08
410898,23823665,"5031 W Windrose Dr, Glendale, AZ 85304 ",85304,0.8229773640632629,0.8596340119838715,0.7074593332416139,229000,https://www.zillow.com/homedetails/5031-W-Windrose-Dr-Glendale-AZ-85304/7954728_zpid/,33.6006,-112.167,6521,2017-11-08
7449241,23819586,"11935 N 68th Ave, Peoria, AZ 85345 ",85345,0.7997281849384308,0.8839854896068573,0.7069481111152021,245000,https://www.zillow.com/homedetails/11935-N-68th-Ave-Peoria-AZ-85345/7700139_zpid/,33.594,-112.204,6516,2017-11-03
225855,23847348,"1461 E Renee Dr, Phoenix, AZ 85024 ",85024,0.8192227184772491,0.8624212145805359,0.7065150518811176,249000,https://www.zillow.com/homedetails/1461-E-Renee-Dr-Phoenix-AZ-85024/7996071_zpid/,33.6554,-112.05,6545,2017-12-02
232395,23858251,"19615 N 6th Pl, Phoenix, AZ 85024 ",85024,0.832040011882782,0.8489478230476379,0.7063585567764186,179990,https://www.zillow.com/homedetails/19615-N-6th-Pl-Phoenix-AZ-85024/7967758_zpid/,33.6645,-112.066,6553,2017-12-10
350999,23875711,"6522 W Preston Ln, Phoenix, AZ 85043 ",85043,0.7805041074752808,0.9047737121582031,0.7061795986751349,230000,https://www.zillow.com/homedetails/6522-W-Preston-Ln-Phoenix-AZ-85043/62727413_zpid/,33.4236,-112.20100000000001,6561,2017-12-18
9022649,23862722,"7133 W Mountain View Rd, Peoria, AZ 85345 ",85345,0.7878606617450714,0.8944211602210999,0.7046792471705903,205000,https://www.zillow.com/homedetails/7133-W-Mountain-View-Rd-Peoria-AZ-85345/7702397_zpid/,33.5743,-112.213,6576,2018-01-02
352916,23863486,"213 E Campo Bello Dr, Phoenix, AZ 85022 ",85022,0.7974732220172882,0.8814021646976471,0.7028946241744451,225000,https://www.zillow.com/homedetails/213-E-Campo-Bello-Dr-Phoenix-AZ-85022/7959267_zpid/,33.6435,-112.071,6579,2018-01-05
499623,23853309,"7113 W Holly St, Phoenix, AZ 85035 ",85035,0.7989514470100403,0.8796859979629517,0.7028264009869716,135000,https://www.zillow.com/homedetails/7113-W-Holly-St-Phoenix-AZ-85035/7475387_zpid/,33.4699,-112.213,6548,2017-12-05
447418,23856851,"8311 W Coolidge St, Phoenix, AZ 85037 ",85037,0.781170666217804,0.8991580605506897,0.7023959011954908,189900,https://www.zillow.com/homedetails/8311-W-Coolidge-St-Phoenix-AZ-85037/7480994_zpid/,33.5048,-112.238,6560,2017-12-17
415049,23846150,"10006 N 66TH Ave, Glendale, AZ 85302 ",85302,0.7895416617393494,0.8891140520572662,0.7019925861371004,199000,https://www.zillow.com/homedetails/10006-N-66th-Ave-Glendale-AZ-85302/7706542_zpid/,33.5765,-112.20100000000001,6544,2017-12-01
415297,23835189,"10114 N 66TH Ln, Glendale, AZ 85302 ",85302,0.7893738448619843,0.8884488642215729,0.701318295913846,197500,https://www.zillow.com/homedetails/10114-N-66th-Ln-Glendale-AZ-85302/67083300_zpid/,33.5779,-112.20299999999999,6528,2017-11-15
410719,23854939,"4923 W Larkspur Dr, Glendale, AZ 85304 ",85304,0.7947681248188019,0.8823472559452057,0.7012614740465866,236000,https://www.zillow.com/homedetails/4923-W-Larkspur-Dr-Glendale-AZ-85304/7954371_zpid/,33.5993,-112.165,6557,2017-12-14
381077,23870349,"12217 N 30TH Ave, Phoenix, AZ 85029 ",85029,0.7959710359573364,0.8802236616611481,0.700632539846584,239000,https://www.zillow.com/homedetails/12217-N-30th-Ave-Phoenix-AZ-85029/7747117_zpid/,33.5971,-112.12299999999999,6577,2018-01-03
408219,23882796,"6118 W Tierra Buena Ln, Glendale, AZ 85306 ",85306,0.8229550719261169,0.850572407245636,0.6999828765832028,199000,https://www.zillow.com/homedetails/6118-W-Tierra-Buena-Ln-Glendale-AZ-85306/8096943_zpid/,33.6295,-112.18700000000001,6529,2017-11-16
359220,23854837,"1816 S 84TH Dr, Tolleson, AZ 85353 ",85353,0.7782645523548126,0.899341881275177,0.6999259066445607,225000,https://www.zillow.com/homedetails/1816-S-84th-Dr-Tolleson-AZ-85353/59249294_zpid/,33.4304,-112.241,6557,2017-12-14
243942,23854107,"18463 N 5TH Ave, Phoenix, AZ 85023 ",85023,0.8231739699840546,0.8502454161643982,0.6998998946847923,249000,https://www.zillow.com/homedetails/18463-N-5th-Ave-Phoenix-AZ-85023/7956457_zpid/,33.6543,-112.08,6552,2017-12-09
152639,23860420,"1133 N Granite Reef Rd, Scottsdale, AZ 85257 ",85257,0.8334782421588898,0.8395747244358063,0.6997672654837901,139500,https://www.zillow.com/homedetails/1133-N-Granite-Reef-Rd-Scottsdale-AZ-85257/7577718_zpid/,33.4606,-111.9,6546,2017-12-03
9206,23840092,"1220 W Ironwood Dr, Phoenix, AZ 85021 ",85021,0.8339113593101501,0.8389229774475098,0.6995874004797713,169000,https://www.zillow.com/homedetails/1220-W-Ironwood-Dr-Phoenix-AZ-85021/7781692_zpid/,33.576,-112.089,6534,2017-11-21
5088735,23778838,"1314 W Cortez Ct, Chandler, AZ 85224 ",85224,0.8432935178279877,0.8285520970821381,0.6987126126521526,239900,https://www.zillow.com/homedetails/1314-W-Cortez-Ct-Chandler-AZ-85224/8172443_zpid/,33.3557,-111.865,6270,2017-03-02
332879,23849200,"5333 N 22nd Dr, Phoenix, AZ 85015 ",85015,0.8296984732151031,0.8416576981544495,0.6983221071284849,240000,https://www.zillow.com/homedetails/5333-N-22nd-Dr-Phoenix-AZ-85015/7764971_zpid/,33.5163,-112.10700000000001,6549,2017-12-06
9020725,23815067,"9537 W Sunnyslope Ln, Peoria, AZ 85345 ",85345,0.7933363616466522,0.87996906042099,0.6981114527560113,224000,https://www.zillow.com/homedetails/9537-W-Sunnyslope-Ln-Peoria-AZ-85345/7697879_zpid/,33.5693,-112.265,6512,2017-10-30
395130,23830853,"3719 W Joan De Arc Ave, Phoenix, AZ 85029 ",85029,0.8147960603237152,0.856048196554184,0.6975046979995705,205900,https://www.zillow.com/homedetails/3719-W-Joan-De-Arc-Ave-Phoenix-AZ-85029/7741718_zpid/,33.607,-112.139,6526,2017-11-13
1090754,23886112,"649 W Ivanhoe St, Chandler, AZ 85225 ",85225,0.7963303029537201,0.8734814524650574,0.6955797496659546,190000,https://www.zillow.com/homedetails/649-W-Ivanhoe-St-Chandler-AZ-85225/8189345_zpid/,33.3174,-111.851,6536,2017-11-23
423007,23883750,"8427 N 47th Dr, Glendale, AZ 85302 ",85302,0.7891786098480225,0.8812792599201202,0.6954867412316545,246999,https://www.zillow.com/homedetails/8427-N-47th-Dr-Glendale-AZ-85302/7731867_zpid/,33.5593,-112.161,6578,2018-01-04
627067,23856639,"1610 W 7th Ave, Mesa, AZ 85202 ",85202,0.7773256003856659,0.8946914374828339,0.6954665588012583,218900,https://www.zillow.com/homedetails/1610-W-7th-Ave-Mesa-AZ-85202/7604416_zpid/,33.4024,-111.866,6560,2017-12-17
8850973,23814108,"2525 E Michigan Ave, Phoenix, AZ 85032 ",85032,0.8386358916759491,0.8291495144367218,0.6953545423723204,225000,https://www.zillow.com/homedetails/2525-E-Michigan-Ave-Phoenix-AZ-85032/7999906_zpid/,33.6507,-112.027,6511,2017-10-29
411064,23882421,"5118 W Columbine Dr, Glendale, AZ 85304 ",85304,0.7811232805252075,0.8898618221282959,0.6950917857149932,239000,https://www.zillow.com/homedetails/5118-W-Columbine-Dr-Glendale-AZ-85304/7911366_zpid/,33.5987,-112.17,6579,2018-01-05
834399,23856892,"3514 W Mariposa St, Phoenix, AZ 85019 ",85019,0.7889478802680969,0.8810246288776398,0.6950825134170007,195000,https://www.zillow.com/homedetails/3514-W-Mariposa-St-Phoenix-AZ-85019/7506769_zpid/,33.5079,-112.135,6560,2017-12-17
1990166,23862524,"3227 W Corrine Dr, Phoenix, AZ 85029 ",85029,0.7933547794818878,0.8760989606380463,0.6950572977213083,180000,https://www.zillow.com/homedetails/3227-W-Corrine-Dr-Phoenix-AZ-85029/7747533_zpid/,33.6005,-112.12799999999999,6578,2018-01-04
9019728,23843826,"17413 N 8TH Ave, Phoenix, AZ 85023 ",85023,0.8235074579715729,0.8439536690711975,0.6950021406626039,184500,https://www.zillow.com/homedetails/17413-N-8th-Ave-Phoenix-AZ-85023/7963487_zpid/,33.6445,-112.085,6542,2017-11-29
233478,23794869,"19046 N 15TH Ave, Phoenix, AZ 85027 ",85027,0.8512437045574188,0.8150410652160645,0.6937985757209475,229900,https://www.zillow.com/homedetails/19046-N-15th-Ave-Phoenix-AZ-85027/7969522_zpid/,33.6598,-112.09200000000001,6504,2017-10-22
1421999,23820040,"8134 W Mclellan Rd, Glendale, AZ 85303 ",85303,0.7869806587696075,0.881166398525238,0.6934609127970344,222500,https://www.zillow.com/homedetails/8134-W-Mclellan-Rd-Glendale-AZ-85303/7462575_zpid/,33.5326,-112.235,6516,2017-11-03
501068,23853288,"7426 W Monte Vista Rd, Phoenix, AZ 85035 ",85035,0.7849107980728149,0.880617082118988,0.6912058567225685,155000,https://www.zillow.com/homedetails/7426-W-Monte-Vista-Rd-Phoenix-AZ-85035/7474922_zpid/,33.471,-112.22,6528,2017-11-15
9025999,23861141,"9232 W Meadow Hills Dr, Sun City, AZ 85351 ",85351,0.7950568199157715,0.8682625591754913,0.6903180691499955,241800,https://www.zillow.com/homedetails/9232-W-Meadow-Hills-Dr-Sun-City-AZ-85351/2091823839_zpid/,33.6111,-112.259,6553,2017-12-10
1372616,23883622,"8549 W Tuckey Ln, Glendale, AZ 85305 ",85305,0.7803923487663269,0.8843182027339935,0.6901151592883981,206000,https://www.zillow.com/homedetails/8549-W-Tuckey-Ln-Glendale-AZ-85305/7461499_zpid/,33.533,-112.245,6532,2017-11-19
484854,23817893,"2833 N 73RD Dr, Phoenix, AZ 85035 ",85035,0.7907050251960754,0.8725321590900421,0.6899155628376779,190000,https://www.zillow.com/homedetails/2833-N-73rd-Dr-Phoenix-AZ-85035/92692586_zpid/,33.4796,-112.21600000000001,6514,2017-11-01
337615,23862924,"2310 W Echo Ln, Phoenix, AZ 85021 ",85021,0.7896508574485779,0.8725520372390747,0.6890114643743388,190000,https://www.zillow.com/homedetails/2310-W-Echo-Ln-Phoenix-AZ-85021/7782737_zpid/,33.5598,-112.109,6558,2017-12-15
8964694,23800320,"9084 N 80th Ln, Peoria, AZ 85345 ",85345,0.8318246304988861,0.8282924294471741,0.6889940440699203,170000,https://www.zillow.com/homedetails/9084-N-80th-Ln-Peoria-AZ-85345/50187199_zpid/,33.5677,-112.23299999999999,6422,2017-08-01
9024048,23836145,"9411 W Glen Oaks Cir, Sun City, AZ 85351 ",85351,0.7914453744888306,0.8701279759407043,0.6886587617715989,140000,https://www.zillow.com/homedetails/9411-W-Glen-Oaks-Cir-Sun-City-AZ-85351/7922837_zpid/,33.6297,-112.26299999999999,6530,2017-11-17
9023482,23827286,"15606 N 99th Dr, Sun City, AZ 85351 ",85351,0.791703075170517,0.868833601474762,0.6878582340990445,192500,https://www.zillow.com/homedetails/15606-N-99th-Dr-Sun-City-AZ-85351/2092083796_zpid/,33.6257,-112.271,6526,2017-11-13
484005,23821708,"2696 N 73RD Gln, Phoenix, AZ 85035 ",85035,0.7878077626228333,0.8720374703407288,0.6869978884324048,210000,https://www.zillow.com/homedetails/2696-N-73rd-Gln-Phoenix-AZ-85035/95155175_zpid/,33.4779,-112.21799999999999,6513,2017-10-31
417610,23855747,"4832 W Beryl Ave, Glendale, AZ 85302 ",85302,0.7849012911319733,0.8743098378181458,0.6862469205528487,217500,https://www.zillow.com/homedetails/4832-W-Beryl-Ave-Glendale-AZ-85302/7728604_zpid/,33.5797,-112.163,6557,2017-12-14
389970,22302502,"2910 W Altadena Ave, Phoenix, AZ 85029 ",85029,0.8671382367610931,0.7909625768661499,0.6858738942477238,220000,https://www.zillow.com/homedetails/2910-W-Altadena-Ave-Phoenix-AZ-85029/7739875_zpid/,33.5927,-112.12200000000001,6401,2017-07-11
355855,23833551,"702 E Rose Marie Ln, Phoenix, AZ 85022 ",85022,0.809441328048706,0.8470898568630219,0.6856695387157927,247000,https://www.zillow.com/homedetails/702-E-Rose-Marie-Ln-Phoenix-AZ-85022/49942677_zpid/,33.6527,-112.065,6527,2017-11-14
8952180,23860567,"3408 N 67TH Ln, Phoenix, AZ 85033 ",85033,0.7649568319320679,0.8961869180202484,0.685544305627733,195000,https://www.zillow.com/homedetails/3408-N-67th-Ln-Phoenix-AZ-85033/7485759_zpid/,33.4878,-112.205,6570,2017-12-27
1350982,23882685,"5854 W Morten Ave, Glendale, AZ 85301 ",85301,0.7881959676742554,0.8693734407424927,0.6852366403963259,179000,https://www.zillow.com/homedetails/5854-W-Morten-Ave-Glendale-AZ-85301/7726731_zpid/,33.5479,-112.186,6544,2017-12-01
261479,23789366,"4757 W Topeka Dr, Glendale, AZ 85308 ",85308,0.8473095595836639,0.8084573447704315,0.6850136367396127,225000,https://www.zillow.com/homedetails/4757-W-Topeka-Dr-Glendale-AZ-85308/7939742_zpid/,33.6603,-112.164,6302,2017-04-03
8991893,23837557,"9352 W Jefferson St, Tolleson, AZ 85353 ",85353,0.7802869081497192,0.8778916597366333,0.685007368866323,229900,https://www.zillow.com/homedetails/9352-W-Jefferson-St-Tolleson-AZ-85353/7460100_zpid/,33.4464,-112.26100000000001,6533,2017-11-20
8976262,22541368,"2918 E Nisbet Ct, Phoenix, AZ 85032 ",85032,0.8449431359767914,0.8106994926929474,0.6849949716907728,219500,https://www.zillow.com/homedetails/2918-E-Nisbet-Ct-Phoenix-AZ-85032/8011642_zpid/,33.6234,-112.01899999999999,6440,2017-08-19
242590,22686911,"3202 W Angela Dr, Phoenix, AZ 85053 ",85053,0.8428371250629425,0.8095581531524658,0.6823256663742896,234900,https://www.zillow.com/homedetails/3202-W-Angela-Dr-Phoenix-AZ-85053/7942083_zpid/,33.6461,-112.12799999999999,6464,2017-09-12
234640,23785215,"2751 W Acoma Dr, Phoenix, AZ 85053 ",85053,0.8585213124752045,0.7945170402526855,0.6821098121816505,210000,https://www.zillow.com/homedetails/2751-W-Acoma-Dr-Phoenix-AZ-85053/7942788_zpid/,33.6166,-112.12,6283,2017-03-15
1410517,23856547,"7108 N 73rd Dr, Glendale, AZ 85303 ",85303,0.7746173441410065,0.8786397278308868,0.6806095724291383,222000,https://www.zillow.com/homedetails/7108-N-73rd-Dr-Glendale-AZ-85303/82823489_zpid/,33.5387,-112.21700000000001,6532,2017-11-19
243287,22690475,"3218 W Angela Dr, Phoenix, AZ 85053 ",85053,0.8381003439426422,0.8117715716362,0.6803460333911584,209000,https://www.zillow.com/homedetails/3218-W-Angela-Dr-Phoenix-AZ-85053/7942085_zpid/,33.6461,-112.12899999999999,6470,2017-09-18
391768,23866394,"3152 W Shangri La Rd, Phoenix, AZ 85029 ",85029,0.7698784172534943,0.8832551538944244,0.679999079911231,229999,https://www.zillow.com/homedetails/3152-W-Shangri-La-Rd-Phoenix-AZ-85029/7740605_zpid/,33.5881,-112.12799999999999,6577,2018-01-03
1422266,23883525,"8164 W Sierra Vista Dr, Glendale, AZ 85303 ",85303,0.7564305067062378,0.8964771032333374,0.6781226294493337,239900,https://www.zillow.com/homedetails/8164-W-Sierra-Vista-Dr-Glendale-AZ-85303/7462584_zpid/,33.5315,-112.236,6579,2018-01-05
404268,23780495,"16417 N 47th Dr, Glendale, AZ 85306 ",85306,0.8569397926330566,0.7910552024841309,0.6778866811780517,245000,https://www.zillow.com/homedetails/16417-N-47th-Dr-Glendale-AZ-85306/7951226_zpid/,33.6345,-112.161,6277,2017-03-09
349688,23875696,"6325 W Whyman Ave, Phoenix, AZ 85043 ",85043,0.74766606092453,0.9062828719615936,0.6775969449628949,225000,https://www.zillow.com/homedetails/6325-W-Whyman-Ave-Phoenix-AZ-85043/53206198_zpid/,33.4269,-112.197,6579,2018-01-05
392047,23856667,"3214 W Voltaire Ave, Phoenix, AZ 85029 ",85029,0.7728962898254395,0.8762014210224152,0.6772128274480025,229000,https://www.zillow.com/homedetails/3214-W-Voltaire-Ave-Phoenix-AZ-85029/7747954_zpid/,33.6091,-112.12799999999999,6560,2017-12-17
397286,23862957,"8437 N 36th Ave, Phoenix, AZ 85051 ",85051,0.7748502194881439,0.8733197748661041,0.6766920192383372,187000,https://www.zillow.com/homedetails/8437-N-36th-Ave-Phoenix-AZ-85051/7754435_zpid/,33.5599,-112.137,6550,2017-12-07
7445518,23781525,"18009 N 89th Dr, Peoria, AZ 85382 ",85382,0.8375257849693298,0.8065074682235718,0.6754708004075738,240000,https://www.zillow.com/homedetails/18009-N-89th-Dr-Peoria-AZ-85382/8105128_zpid/,33.6473,-112.251,6280,2017-03-12
7450963,23779216,"13854 N 91st Dr, Peoria, AZ 85381 ",85381,0.8593940138816833,0.7854754626750946,0.6750329106739219,225000,https://www.zillow.com/homedetails/13854-N-91st-Dr-Peoria-AZ-85381/7908457_zpid/,33.6103,-112.256,6284,2017-03-16
337572,23850351,"2307 W Alice Ave, Phoenix, AZ 85021 ",85021,0.8088889122009277,0.8340301811695099,0.6746377659889475,211900,https://www.zillow.com/homedetails/2307-W-Alice-Ave-Phoenix-AZ-85021/7782260_zpid/,33.5637,-112.109,6551,2017-12-08
450692,23753402,"8742 W Edgemont Ave, Phoenix, AZ 85037 ",85037,0.8038513660430908,0.8391384780406952,0.674542611872333,190000,https://www.zillow.com/homedetails/8742-W-Edgemont-Ave-Phoenix-AZ-85037/7473770_zpid/,33.4794,-112.249,6494,2017-10-12
9023486,23827318,"9908 W Crosby Cir N, Sun City, AZ 85351 ",85351,0.7822406589984894,0.8619242906570435,0.6742322251303712,140000,https://www.zillow.com/homedetails/9908-W-Crosby-Cir-N-Sun-City-AZ-85351/7694583_zpid/,33.5838,-112.273,6526,2017-11-13
411581,22708161,"5226 W Eugie Ave, Glendale, AZ 85304 ",85304,0.8370752036571503,0.8050422966480255,0.6738809444192659,220000,https://www.zillow.com/homedetails/5226-W-Eugie-Ave-Glendale-AZ-85304/7911821_zpid/,33.608000000000004,-112.17200000000001,6473,2017-09-21
559333,23871337,"1223 W 6TH Ave, Mesa, AZ 85202 ",85202,0.7573717832565308,0.8897458612918854,0.6738684096117531,199900,https://www.zillow.com/homedetails/1223-W-6th-Ave-Mesa-AZ-85202/7604271_zpid/,33.4035,-111.85799999999999,6576,2018-01-02
422357,23883112,"6612 W Brown St, Glendale, AZ 85302 ",85302,0.7874451875686646,0.8556252121925354,0.6737579557034294,199000,https://www.zillow.com/homedetails/6612-W-Brown-St-Glendale-AZ-85302/7706362_zpid/,33.5783,-112.20100000000001,6496,2017-10-14
381684,22380395,"3111 W Laurie Ln, Phoenix, AZ 85051 ",85051,0.8515436351299286,0.7897248268127441,0.6724851497764774,229900,https://www.zillow.com/homedetails/3111-W-Laurie-Ln-Phoenix-AZ-85051/7754882_zpid/,33.5587,-112.126,6403,2017-07-13
434601,23841755,"1838 N 83rd Ln, Phoenix, AZ 85037 ",85037,0.7563308477401733,0.8891170918941498,0.6724666838525799,195000,https://www.zillow.com/homedetails/1838-N-83rd-Ln-Phoenix-AZ-85037/7487940_zpid/,33.4683,-112.24,6536,2017-11-23
239765,21170292,"3054 W Acoma Dr, Phoenix, AZ 85053 ",85053,0.8679669201374054,0.773239016532898,0.6711458877101357,198500,http://www.zillow.com/homedetails/3054-W-Acoma-Dr-Phoenix-AZ-85053/7942812_zpid/,33.6179,-112.125,6272,2017-03-04
7520977,22428537,"7562 W Turquoise Ave, Peoria, AZ 85345 ",85345,0.8432145714759827,0.7959335446357727,0.671142762763413,189900,https://www.zillow.com/homedetails/7562-W-Turquoise-Ave-Peoria-AZ-85345/7682178_zpid/,33.5747,-112.223,6327,2017-04-28
329110,23884405,"2334 W Rose Ln, Phoenix, AZ 85015 ",85015,0.8026094734668732,0.8354741930961609,0.6705595022160704,199900,https://www.zillow.com/homedetails/2334-W-Rose-Ln-Phoenix-AZ-85015/7772689_zpid/,33.5279,-112.11,6547,2017-12-04
400713,23840251,"10843 N 45TH Ln, Glendale, AZ 85304 ",85304,0.786908894777298,0.8513064980506897,0.6699006554978002,220000,https://www.zillow.com/homedetails/10843-N-45th-Ln-Glendale-AZ-85304/7727914_zpid/,33.5861,-112.156,6534,2017-11-21
7450958,21944041,"12172 N 86th Ln, Peoria, AZ 85345 ",85345,0.8491356670856476,0.7885852754116058,0.669615883890553,215000,https://www.zillow.com/homedetails/12172-N-86th-Ln-Peoria-AZ-85345/7685390_zpid/,33.5947,-112.24600000000001,6289,2017-03-21
410256,23810938,"4730 W Shaw Butte Dr, Glendale, AZ 85304 ",85304,0.801289826631546,0.8341428339481354,0.6683901668002479,240000,https://www.zillow.com/homedetails/4730-W-Shaw-Butte-Dr-Glendale-AZ-85304/7727507_zpid/,33.5952,-112.161,6509,2017-10-27
243119,22391945,"18226 N 10th Dr, Phoenix, AZ 85023 ",85023,0.8432326018810272,0.7919614315032959,0.6678076984759471,225000,https://www.zillow.com/homedetails/18226-N-10th-Dr-Phoenix-AZ-85023/7956715_zpid/,33.652,-112.086,6401,2017-07-11
409622,23825573,"4447 W Mercer Ln, Glendale, AZ 85304 ",85304,0.7855022251605988,0.8487195670604706,0.6666711084633397,227000,https://www.zillow.com/homedetails/4447-W-Mercer-Ln-Glendale-AZ-85304/7727953_zpid/,33.5852,-112.156,6526,2017-11-13
436097,23866308,"2311 N 91st Gln, Phoenix, AZ 85037 ",85037,0.7493498623371124,0.8895249962806702,0.6665654335083406,239900,https://www.zillow.com/homedetails/2311-N-91st-Gln-Phoenix-AZ-85037/60974969_zpid/,33.4747,-112.257,6579,2018-01-05
417420,23882392,"4809 W Laurie Ln, Glendale, AZ 85302 ",85302,0.7537007629871368,0.8840721547603607,0.666325857578566,243000,https://www.zillow.com/homedetails/4809-W-Laurie-Ln-Glendale-AZ-85302/7731926_zpid/,33.5587,-112.163,6556,2017-12-13
8946570,21960648,"7614 W Turquoise Ave, Peoria, AZ 85345 ",85345,0.8467131555080414,0.7853255569934845,0.6649454804630635,219000,https://www.zillow.com/homedetails/7614-W-Turquoise-Ave-Peoria-AZ-85345/7682180_zpid/,33.5747,-112.223,6339,2017-05-10
8970849,23830064,"3715 E Delcoa Dr, Phoenix, AZ 85032 ",85032,0.8277200758457184,0.803076833486557,0.6647228175234323,220000,https://www.zillow.com/homedetails/3715-E-Delcoa-Dr-Phoenix-AZ-85032/7813615_zpid/,33.6109,-112.00200000000001,6507,2017-10-25
258476,23717515,"614 W Rosemonte Dr, Phoenix, AZ 85027 ",85027,0.8393820822238922,0.7915191948413849,0.6643870298861403,234900,https://www.zillow.com/homedetails/614-W-Rosemonte-Dr-Phoenix-AZ-85027/7968459_zpid/,33.657,-112.08200000000001,6494,2017-10-12
9011928,23753384,"7411 W Wolf St, Phoenix, AZ 85033 ",85033,0.7811116278171539,0.8498897552490234,0.6638587701876872,229900,https://www.zillow.com/homedetails/7411-W-Wolf-St-Phoenix-AZ-85033/95184996_zpid/,33.5059,-112.219,6494,2017-10-12
336868,23820918,"2122 W Glendale Ave, Phoenix, AZ 85021 ",85021,0.7826141715049744,0.8475661873817444,0.6633173095333937,208400,https://www.zillow.com/homedetails/2122-W-Glendale-Ave-Phoenix-AZ-85021/7778952_zpid/,33.5389,-112.105,6516,2017-11-03
9019112,23856813,"4426 W Vogel Ave, Glendale, AZ 85302 ",85302,0.7461015582084656,0.8888476490974426,0.6631706160015334,219900,https://www.zillow.com/homedetails/4426-W-Vogel-Ave-Glendale-AZ-85302/7729451_zpid/,33.5722,-112.155,6561,2017-12-18
17178,23846249,"14813 N 35TH St, Phoenix, AZ 85032 ",85032,0.807383805513382,0.8208108842372894,0.6627094153223068,199900,https://www.zillow.com/homedetails/14813-N-35th-St-Phoenix-AZ-85032/8014278_zpid/,33.6214,-112.006,6543,2017-11-30
8992552,23882752,"6029 W Mary Jane Ln, Glendale, AZ 85306 ",85306,0.838178426027298,0.7905739545822144,0.662642032909897,239000,https://www.zillow.com/homedetails/6029-W-Mary-Jane-Ln-Glendale-AZ-85306/8097193_zpid/,33.6273,-112.189,6493,2017-10-11
379293,23843863,"2626 W Northview Ave, Phoenix, AZ 85051 ",85051,0.7988379001617432,0.8293926417827606,0.6625502763713413,134900,https://www.zillow.com/homedetails/2626-W-Northview-Ave-Phoenix-AZ-85051/7779482_zpid/,33.5439,-112.116,6542,2017-11-29
8996051,23841761,"3410 N 67TH Dr, Phoenix, AZ 85033 ",85033,0.7503640353679657,0.8828915059566498,0.662490033201732,220000,https://www.zillow.com/homedetails/3410-N-67th-Dr-Phoenix-AZ-85033/7485764_zpid/,33.4878,-112.204,6537,2017-11-24
481915,23852927,"2518 N 67TH Dr, Phoenix, AZ 85035 ",85035,0.7490754723548889,0.8841077089309692,0.6622633996800644,145000,https://www.zillow.com/homedetails/2518-N-67th-Dr-Phoenix-AZ-85035/7475839_zpid/,33.4762,-112.204,6551,2017-12-08
405134,21884112,"4532 W Bobbie Ter, Glendale, AZ 85306 ",85306,0.836912602186203,0.7913165390491486,0.662262783848603,234975,https://www.zillow.com/homedetails/4532-W-Bobbie-Ter-Glendale-AZ-85306/7950550_zpid/,33.635999999999996,-112.154,6281,2017-03-13
1412767,23846610,"7238 W Ocotillo Rd, Glendale, AZ 85303 ",85303,0.7455859184265137,0.8874505460262299,0.6616706304170776,245000,https://www.zillow.com/homedetails/7238-W-Ocotillo-Rd-Glendale-AZ-85303/67800379_zpid/,33.5344,-112.215,6543,2017-11-30
395883,23835126,"3830 W Sharon Ave, Phoenix, AZ 85029 ",85029,0.7713096439838409,0.8560150265693665,0.6602526453880362,179900,https://www.zillow.com/homedetails/3830-W-Sharon-Ave-Phoenix-AZ-85029/7741516_zpid/,33.6095,-112.14200000000001,6530,2017-11-17
225959,23779726,"1502 E Taro Ln, Phoenix, AZ 85024 ",85024,0.8450628817081451,0.780500739812851,0.659572204361587,208500,https://www.zillow.com/homedetails/1502-E-Taro-Ln-Phoenix-AZ-85024/7995794_zpid/,33.6595,-112.05,6283,2017-03-15
388700,23829780,"2353 W Cortez St, Phoenix, AZ 85029 ",85029,0.8014880120754242,0.822089821100235,0.6588951364610685,173500,https://www.zillow.com/homedetails/2353-W-Cortez-St-Phoenix-AZ-85029/7749270_zpid/,33.5905,-112.11,6523,2017-11-10
385542,23862282,"1634 W Andorra Dr, Phoenix, AZ 85029 ",85029,0.7483458817005157,0.8800255358219147,0.6585634855236195,235000,https://www.zillow.com/homedetails/1634-W-Andorra-Dr-Phoenix-AZ-85029/7784245_zpid/,33.6066,-112.095,6577,2018-01-03
387374,23860581,"3735 W Cochise Dr, Phoenix, AZ 85051 ",85051,0.7444641888141632,0.8835493624210358,0.6577708593720475,244900,https://www.zillow.com/homedetails/3735-W-Cochise-Dr-Phoenix-AZ-85051/7745459_zpid/,33.5803,-112.14,6572,2017-12-29
460325,23853200,"5810 W Avalon Dr, Phoenix, AZ 85031 ",85031,0.7419106960296631,0.8847928643226624,0.6564372898117057,150000,https://www.zillow.com/homedetails/5810-W-Avalon-Dr-Phoenix-AZ-85031/7490070_zpid/,33.484,-112.185,6551,2017-12-08
227559,23843808,"15221 N 28TH Dr, Phoenix, AZ 85053 ",85053,0.7930608093738556,0.8268665373325348,0.6557554453410974,209900,https://www.zillow.com/homedetails/15221-N-28th-Dr-Phoenix-AZ-85053/7942595_zpid/,33.6243,-112.119,6542,2017-11-29
419794,23856376,"5539 W Hatcher Rd, Glendale, AZ 85302 ",85302,0.7324399054050446,0.894743949174881,0.6553461734953858,204999,https://www.zillow.com/homedetails/5539-W-Hatcher-Rd-Glendale-AZ-85302/7734771_zpid/,33.5705,-112.179,6559,2017-12-16
503053,23856891,"2823 W Marshall Ave, Phoenix, AZ 85017 ",85017,0.7942822873592377,0.8245072066783905,0.6548914700646877,175000,https://www.zillow.com/homedetails/2823-W-Marshall-Ave-Phoenix-AZ-85017/7763994_zpid/,33.5174,-112.12,6561,2017-12-18
337488,23779389,"1424 E Le Marche Ave, Phoenix, AZ 85022 ",85022,0.8483850955963135,0.7711077928543091,0.6541963585557653,223000,https://www.zillow.com/homedetails/1424-E-Le-Marche-Ave-Phoenix-AZ-85022/8003944_zpid/,33.6325,-112.051,6285,2017-03-17
832662,23884685,"4236 W Palo Verde Dr, Phoenix, AZ 85019 ",85019,0.7313413321971893,0.8942925035953522,0.6540330709533846,219900,https://www.zillow.com/homedetails/4236-W-Palo-Verde-Dr-Phoenix-AZ-85019/7718989_zpid/,33.5232,-112.15100000000001,6576,2018-01-02
8950822,21960213,"7406 W Eva St, Peoria, AZ 85345 ",85345,0.8252404630184174,0.7912775874137878,0.6529942826134505,185000,https://www.zillow.com/homedetails/7406-W-Eva-St-Peoria-AZ-85345/7702481_zpid/,33.5683,-112.21799999999999,6346,2017-05-17
333266,23854946,"5719 N 23rd Ave, Phoenix, AZ 85015 ",85015,0.800493597984314,0.812485009431839,0.6503890485084121,175000,https://www.zillow.com/homedetails/5719-N-23rd-Ave-Phoenix-AZ-85015/7763242_zpid/,33.5217,-112.10799999999999,6557,2017-12-14
9022258,23835030,"3023 W Krall St, Phoenix, AZ 85017 ",85017,0.7589981853961945,0.8566201031208038,0.6501731038425911,249900,https://www.zillow.com/homedetails/3023-W-Krall-St-Phoenix-AZ-85017/7759497_zpid/,33.534,-112.125,6530,2017-11-17
350009,23781671,"18518 N 20th Pl, Phoenix, AZ 85022 ",85022,0.8314099311828613,0.781309574842453,0.6495885398522745,225000,https://www.zillow.com/homedetails/18518-N-20th-Pl-Phoenix-AZ-85022/61629214_zpid/,33.6544,-112.038,6286,2017-03-18
468466,23862527,"3238 W Montecito Ave, Phoenix, AZ 85017 ",85017,0.7751585841178894,0.8372780382633209,0.6490232586531999,151000,https://www.zillow.com/homedetails/3238-W-Montecito-Ave-Phoenix-AZ-85017/7768109_zpid/,33.4995,-112.12899999999999,6577,2018-01-03
387030,23862016,"2114 W Sunnyside Dr, Phoenix, AZ 85029 ",85029,0.740892618894577,0.8758236169815063,0.6488912532751492,174400,https://www.zillow.com/homedetails/2114-W-Sunnyside-Dr-Phoenix-AZ-85029/7748813_zpid/,33.5934,-112.104,6575,2018-01-01
350131,22705127,"6405 W Preston Ln, Phoenix, AZ 85043 ",85043,0.7873914241790771,0.8229471147060394,0.6479815006724507,187000,https://www.zillow.com/homedetails/6405-W-Preston-Ln-Phoenix-AZ-85043/55257428_zpid/,33.4235,-112.198,6474,2017-09-22
415104,23776939,"10015 N 45th Ave, Glendale, AZ 85302 ",85302,0.8417274057865143,0.7692299783229828,0.6474819541070209,192900,https://www.zillow.com/homedetails/10015-N-45th-Ave-Glendale-AZ-85302/7729213_zpid/,33.577,-112.156,6290,2017-03-22
9018879,23808777,"4021 W Roosevelt St, Phoenix, AZ 85009 ",85009,0.7779538631439209,0.8314245939254761,0.6468099747571898,179990,https://www.zillow.com/homedetails/4021-W-Roosevelt-St-Phoenix-AZ-85009/2092569655_zpid/,33.4585,-112.147,6508,2017-10-26
350177,22541766,"6408 W Cordes Rd, Phoenix, AZ 85043 ",85043,0.7850042283535004,0.8236695826053619,0.6465841051113719,169900,https://www.zillow.com/homedetails/6408-W-Cordes-Rd-Phoenix-AZ-85043/49641248_zpid/,33.4216,-112.197,6442,2017-08-21
483971,22688771,"2734 N 73rd Gln, Phoenix, AZ 85035 ",85035,0.7857083380222321,0.8224163353443146,0.6461793720057161,209900,https://www.zillow.com/homedetails/2734-N-73rd-Gln-Phoenix-AZ-85035/95167972_zpid/,33.4783,-112.21799999999999,6470,2017-09-18
524930,22304530,"9134 W Vernon Ave, Phoenix, AZ 85037 ",85037,0.7841373085975647,0.8228752017021179,0.6452471459743769,249000,https://www.zillow.com/homedetails/9134-W-Vernon-Ave-Phoenix-AZ-85037/67764424_zpid/,33.473,-112.257,6401,2017-07-11
413085,21986995,"5754 W Shangri La Rd, Glendale, AZ 85304 ",85304,0.8178267478942871,0.7864159643650055,0.643152010628782,227500,https://www.zillow.com/homedetails/5754-W-Shangri-La-Rd-Glendale-AZ-85304/7736186_zpid/,33.586999999999996,-112.18299999999999,6311,2017-04-12
22933,22734467,"8739 W Fairmount Ave, Phoenix, AZ 85037 ",85037,0.7980658710002899,0.8050971627235413,0.6425205684088251,170000,https://www.zillow.com/homedetails/8739-W-Fairmount-Ave-Phoenix-AZ-85037/7471067_zpid/,33.492,-112.24799999999999,6485,2017-10-03
1346962,23823701,"4935 W Lamar Rd, Glendale, AZ 85301 ",85301,0.7645283043384552,0.8392724990844727,0.6416475806029496,149900,https://www.zillow.com/homedetails/4935-W-Lamar-Rd-Glendale-AZ-85301/7722382_zpid/,33.5365,-112.166,6520,2017-11-07
9023655,23829023,"14631 N 36th St, Phoenix, AZ 85032 ",85032,0.7860138416290283,0.8162398338317871,0.6415758074807627,214000,https://www.zillow.com/homedetails/14631-N-36th-St-Phoenix-AZ-85032/8013016_zpid/,33.6203,-112.00399999999999,6525,2017-11-12
830701,23830958,"3833 W Ocotillo Rd, Phoenix, AZ 85019 ",85019,0.7299017906188965,0.8736810088157654,0.637701332764351,199900,https://www.zillow.com/homedetails/3833-W-Ocotillo-Rd-Phoenix-AZ-85019/7758511_zpid/,33.5346,-112.14200000000001,6525,2017-11-12
424042,23883745,"9015 N 57th Ave, Glendale, AZ 85302 ",85302,0.7230592370033264,0.880587100982666,0.6367166373514976,205000,https://www.zillow.com/homedetails/9015-N-57th-Ave-Glendale-AZ-85302/7734719_zpid/,33.5681,-112.182,6529,2017-11-16
836722,23830966,"5221 N 41st Dr, Phoenix, AZ 85019 ",85019,0.7370969951152802,0.8625051081180573,0.6357499234653998,179000,https://www.zillow.com/homedetails/5221-N-41st-Dr-Phoenix-AZ-85019/67083438_zpid/,33.5124,-112.148,6526,2017-11-13
1356715,23883331,"7327 N 47th Ave, Glendale, AZ 85301 ",85301,0.7257749140262604,0.8742592334747314,0.6345154200117875,189500,https://www.zillow.com/homedetails/7327-N-47th-Ave-Glendale-AZ-85301/7725576_zpid/,33.545,-112.16,6523,2017-11-10
407925,23791005,"6023 W Redfield Rd, Glendale, AZ 85306 ",85306,0.8117961287498474,0.7803435623645782,0.6334798830224297,179900,https://www.zillow.com/homedetails/6023-W-Redfield-Rd-Glendale-AZ-85306/7910719_zpid/,33.6135,-112.18799999999999,6309,2017-04-10
8959309,23803780,"4201 W Mission Ln, Phoenix, AZ 85051 ",85051,0.7543061077594757,0.8391573429107666,0.632981509128804,219000,https://www.zillow.com/homedetails/4201-W-Mission-Ln-Phoenix-AZ-85051/7746195_zpid/,33.5703,-112.149,6501,2017-10-19
312249,23814876,"1433 S 14th Ave, Phoenix, AZ 85007 ",85007,0.7984314560890198,0.7914778292179108,0.631940795644633,174900,https://www.zillow.com/homedetails/1433-S-14th-Ave-Phoenix-AZ-85007/7500688_zpid/,33.4338,-112.09,6511,2017-10-29
834633,23845436,"3526 W Ocotillo Rd, Phoenix, AZ 85019 ",85019,0.7305415868759155,0.8646268844604492,0.6316458962293154,220000,https://www.zillow.com/homedetails/3526-W-Ocotillo-Rd-Phoenix-AZ-85019/7761449_zpid/,33.535,-112.13600000000001,6537,2017-11-24
455626,23813601,"4732 N 54th Dr, Phoenix, AZ 85031 ",85031,0.7583063244819641,0.8321011364459991,0.6309875543756309,169000,https://www.zillow.com/homedetails/4732-N-54th-Dr-Phoenix-AZ-85031/7713824_zpid/,33.5068,-112.177,6509,2017-10-27
9023068,23823620,"15224 N 30TH St, Phoenix, AZ 85032 ",85032,0.7979566156864166,0.7905188500881195,0.6307997462526336,229000,https://www.zillow.com/homedetails/15224-N-30th-St-Phoenix-AZ-85032/8011594_zpid/,33.6253,-112.01799999999999,6520,2017-11-07
1357376,23883408,"7648 N 46th Ave, Glendale, AZ 85301 ",85301,0.7167624235153198,0.8799817860126495,0.6307378775917662,240000,https://www.zillow.com/homedetails/7648-N-46th-Ave-Glendale-AZ-85301/7725091_zpid/,33.5494,-112.15799999999999,6571,2017-12-28
334027,23820917,"6217 N 25th Ave, Phoenix, AZ 85015 ",85015,0.8027085959911346,0.7850449979305267,0.6301623680786763,186500,https://www.zillow.com/homedetails/6217-N-25th-Ave-Phoenix-AZ-85015/7772678_zpid/,33.5283,-112.11200000000001,6516,2017-11-03
1406612,23791492,"6765 N 74th Dr, Glendale, AZ 85303 ",85303,0.7940291464328766,0.7936039865016937,0.630144696007668,210000,https://www.zillow.com/homedetails/6765-N-74th-Dr-Glendale-AZ-85303/14094753_zpid/,33.5349,-112.22,6283,2017-03-15
450552,22126108,"8733 W Indianola Ave, Phoenix, AZ 85037 ",85037,0.8024216294288635,0.785072922706604,0.6299594938587134,169900,https://www.zillow.com/homedetails/8733-W-Indianola-Ave-Phoenix-AZ-85037/7470962_zpid/,33.4911,-112.24799999999999,6325,2017-04-26
9017497,23847149,"3044 E Roosevelt St, Phoenix, AZ 85008 ",85008,0.8006713092327118,0.7864481210708618,0.6296864467414132,239900,https://www.zillow.com/homedetails/3044-E-Roosevelt-St-Phoenix-AZ-85008/2098123425_zpid/,33.4588,-112.015,6546,2017-12-03
503203,23857062,"4214 N 31ST Ave, Phoenix, AZ 85017 ",85017,0.8066155910491943,0.7805397212505341,0.6295955085938729,135000,https://www.zillow.com/homedetails/4214-N-31st-Ave-Phoenix-AZ-85017/7768398_zpid/,33.497,-112.126,6537,2017-11-24
9022111,23817234,"7629 N 44th Dr, Glendale, AZ 85301 ",85301,0.7267580628395081,0.8651292622089386,0.628739666708741,195000,https://www.zillow.com/homedetails/7629-N-44th-Dr-Glendale-AZ-85301/7725279_zpid/,33.5492,-112.155,6514,2017-11-01
493050,23849853,"5901 W Cypress St, Phoenix, AZ 85035 ",85035,0.7108744084835052,0.8835518062114716,0.6280943676051125,184500,https://www.zillow.com/homedetails/5901-W-Cypress-St-Phoenix-AZ-85035/7491471_zpid/,33.4723,-112.18700000000001,6550,2017-12-07
394310,23786762,"3560 W Wood Dr, Phoenix, AZ 85029 ",85029,0.7974746823310852,0.7871691882610321,0.6277474983492848,230000,https://www.zillow.com/homedetails/3560-W-Wood-Dr-Phoenix-AZ-85029/7741612_zpid/,33.6044,-112.137,6308,2017-04-09
8989019,22747254,"2049 N 77th Gln, Phoenix, AZ 85035 ",85035,0.7625411748886108,0.8228463232517242,0.6274542020851435,168250,https://www.zillow.com/homedetails/2049-N-77th-Gln-Phoenix-AZ-85035/95149994_zpid/,33.4706,-112.226,6487,2017-10-05
8999379,22680357,"9308 W Glen Oaks Cir, Sun City, AZ 85351 ",85351,0.7988988757133484,0.7846928834915161,0.6268902624016377,249800,https://www.zillow.com/homedetails/9308-W-Glen-Oaks-Cir-Sun-City-AZ-85351/7922796_zpid/,33.6312,-112.26,6465,2017-09-13
9018704,22731861,"13229 N 99th Dr, Sun City, AZ 85351 ",85351,0.7919252812862396,0.7914950549602509,0.6268049440360643,152500,https://www.zillow.com/homedetails/13229-N-99th-Dr-Sun-City-AZ-85351/7914996_zpid/,33.6055,-112.27,6481,2017-09-29
400185,22494552,"10610 N 46th Ave, Glendale, AZ 85304 ",85304,0.7884292006492615,0.7938179969787598,0.6258692888189614,234900,https://www.zillow.com/homedetails/10610-N-46th-Ave-Glendale-AZ-85304/7727627_zpid/,33.5824,-112.15700000000001,6428,2017-08-07
1346544,23849829,"4852 W Frier Dr, Glendale, AZ 85301 ",85301,0.7131679952144623,0.877498984336853,0.6258041914622403,229900,https://www.zillow.com/homedetails/4852-W-Frier-Dr-Glendale-AZ-85301/7724567_zpid/,33.5494,-112.164,6550,2017-12-07
421990,23791113,"6451 W Sunnyslope Ln, Glendale, AZ 85302 ",85302,0.8092164993286133,0.7729596197605133,0.6254916776249786,219900,https://www.zillow.com/homedetails/6451-W-Sunnyslope-Ln-Glendale-AZ-85302/7703523_zpid/,33.5702,-112.199,6305,2017-04-06
1349332,23855797,"5601 N 61st Ln, Glendale, AZ 85301 ",85301,0.7169060707092285,0.8717804253101349,0.6249846792303089,164000,https://www.zillow.com/homedetails/5601-N-61st-Ln-Glendale-AZ-85301/7714491_zpid/,33.5189,-112.193,6551,2017-12-08
441326,23862512,"3042 N 87TH Ave, Phoenix, AZ 85037 ",85037,0.7006598114967346,0.8909016251564026,0.6242189647442196,199999,https://www.zillow.com/homedetails/3042-N-87th-Ave-Phoenix-AZ-85037/7479842_zpid/,33.483000000000004,-112.24700000000001,6578,2018-01-04
2193730,23774667,"8021 W Roma Ave, Phoenix, AZ 85033 ",85033,0.8034294545650482,0.776377409696579,0.6237644788091474,151000,http://www.zillow.com/homedetails/8021-W-Roma-Ave-Phoenix-AZ-85033/7481703_zpid/,33.5004,-112.23200000000001,6278,2017-03-10
472964,23884783,"5737 N 35th Ave, Phoenix, AZ 85017 ",85017,0.733871340751648,0.8494553565979004,0.6233909414551704,169500,https://www.zillow.com/homedetails/5737-N-35th-Ave-Phoenix-AZ-85017/7762448_zpid/,33.5218,-112.134,6555,2017-12-12
386285,23856269,"3631 W Caron St, Phoenix, AZ 85051 ",85051,0.7172313630580902,0.8690123558044434,0.623282916467943,239900,https://www.zillow.com/homedetails/3631-W-Caron-St-Phoenix-AZ-85051/7746596_zpid/,33.5684,-112.13799999999999,6558,2017-12-15
403812,23864058,"16025 N 47TH Dr, Glendale, AZ 85306 ",85306,0.7031591236591339,0.8858520686626434,0.6228949642924553,240000,https://www.zillow.com/homedetails/16025-N-47TH-Dr-Glendale-AZ-85306/7951382_zpid/,33.6308,-112.161,6581,2018-01-07
230832,23863481,"19209 N 6th St, Phoenix, AZ 85024 ",85024,0.699648380279541,0.8901890516281128,0.6228193281141898,235000,https://www.zillow.com/homedetails/19209-N-6th-St-Phoenix-AZ-85024/7972480_zpid/,33.6606,-112.066,6581,2018-01-07
377735,23862131,"10720 N 36TH Ave, Phoenix, AZ 85029 ",85029,0.701289564371109,0.8872232437133789,0.6222004020836778,225000,https://www.zillow.com/homedetails/10720-N-36th-Ave-Phoenix-AZ-85029/7743347_zpid/,33.5838,-112.137,6576,2018-01-02
382563,23778636,"12640 N 21st Ave, Phoenix, AZ 85029 ",85029,0.8056811690330505,0.7720191776752472,0.6220013135853275,189000,https://www.zillow.com/homedetails/12640-N-21st-Ave-Phoenix-AZ-85029/7739027_zpid/,33.6016,-112.104,6284,2017-03-16
495290,23854344,"6237 W Monte Vista Rd, Phoenix, AZ 85035 ",85035,0.7041730284690857,0.8816135227680206,0.6208084642668563,178900,https://www.zillow.com/homedetails/6237-W-Monte-Vista-Rd-Phoenix-AZ-85035/7491037_zpid/,33.4705,-112.194,6554,2017-12-11
379541,23831369,"11439 N 33rd Ave, Phoenix, AZ 85029 ",85029,0.766911506652832,0.8092675507068634,0.6206365965978478,214900,https://www.zillow.com/homedetails/11439-N-33rd-Ave-Phoenix-AZ-85029/7749169_zpid/,33.5913,-112.13,6523,2017-11-10
9025461,23852787,"2114 W Monroe St, Phoenix, AZ 85009 ",85009,0.764357715845108,0.8100689053535461,0.6191824181731835,229900,https://www.zillow.com/homedetails/2114-W-Monroe-St-Phoenix-AZ-85009/7514471_zpid/,33.4505,-112.105,6550,2017-12-07
1409526,23883258,"7001 N 77th Ave, Glendale, AZ 85303 ",85303,0.6969150602817535,0.8863508105278015,0.6177112285497639,164900,https://www.zillow.com/homedetails/7001-N-77th-Ave-Glendale-AZ-85303/7684833_zpid/,33.5382,-112.22399999999999,6577,2018-01-03
149903,23800141,"8309 E Indian School Rd, Scottsdale, AZ 85251 ",85251,0.8024925291538239,0.766840934753418,0.6153841211889528,239850,https://www.zillow.com/homedetails/8309-E-Indian-School-Rd-Scottsdale-AZ-85251/7577019_zpid/,33.4948,-111.902,6497,2017-10-15
5187848,21947200,"16030 N Lakeforest Dr, Sun City, AZ 85351 ",85351,0.7845420837402344,0.7840961515903473,0.6151564286213898,239900,https://www.zillow.com/homedetails/16030-N-Lakeforest-Dr-Sun-City-AZ-85351/7923097_zpid/,33.6324,-112.272,6375,2017-06-15
389915,23884704,"3942 W Northview Ave, Phoenix, AZ 85051 ",85051,0.6918865740299225,0.8854308128356934,0.6126176916334174,209500,https://www.zillow.com/homedetails/3942-W-Northview-Ave-Phoenix-AZ-85051/7757824_zpid/,33.5444,-112.145,6573,2017-12-30
381604,23884452,"3036 W Northview Ave, Phoenix, AZ 85051 ",85051,0.6871298849582672,0.8899810910224915,0.6115326046893177,245000,https://www.zillow.com/homedetails/3036-W-Northview-Ave-Phoenix-AZ-85051/7756072_zpid/,33.5432,-112.125,6579,2018-01-05
329473,23888921,"2430 W Luke Ave, Phoenix, AZ 85015 ",85015,0.7874033153057098,0.7753879725933075,0.6105430602681432,140000,https://www.zillow.com/homedetails/2430-W-Luke-Ave-Phoenix-AZ-85015/7763699_zpid/,33.5189,-112.11200000000001,6563,2017-12-20
432541,22734473,"7113 W Sheila Ln, Phoenix, AZ 85033 ",85033,0.7399990260601044,0.8220682144165039,0.6083296780231819,189000,https://www.zillow.com/homedetails/7113-W-Sheila-Ln-Phoenix-AZ-85033/55257199_zpid/,33.4878,-112.213,6485,2017-10-03
450526,23793670,"8731 W Earll Dr, Phoenix, AZ 85037 ",85037,0.7931197583675385,0.7650370299816132,0.6067659843612363,149000,https://www.zillow.com/homedetails/8731-W-Earll-Dr-Phoenix-AZ-85037/7479986_zpid/,33.4833,-112.24799999999999,6284,2017-03-16
386006,23854095,"1749 W Surrey Ave, Phoenix, AZ 85029 ",85029,0.7100660800933838,0.854147732257843,0.6065013320649797,220000,https://www.zillow.com/homedetails/1749-W-Surrey-Ave-Phoenix-AZ-85029/7784365_zpid/,33.6053,-112.098,6555,2017-12-12
9024757,23848700,"3126 N 43RD Ave, Phoenix, AZ 85031 ",85031,0.6976197957992554,0.8691413998603821,0.6063302458912787,175000,https://www.zillow.com/homedetails/3126-N-43rd-Ave-Phoenix-AZ-85031/7509773_zpid/,33.4851,-112.152,6547,2017-12-04
380762,23785452,"2911 W Lawrence Ln, Phoenix, AZ 85051 ",85051,0.819322943687439,0.7393442690372467,0.6057617229060348,155000,https://www.zillow.com/homedetails/2911-W-Lawrence-Ln-Phoenix-AZ-85051/7750459_zpid/,33.5641,-112.12200000000001,6274,2017-03-06
337793,22745680,"2343 W Diana Ave, Phoenix, AZ 85021 ",85021,0.8169898390769958,0.7387919723987579,0.6035855346414376,225000,https://www.zillow.com/homedetails/2343-W-Diana-Ave-Phoenix-AZ-85021/7782287_zpid/,33.563,-112.11,6491,2017-10-09
433435,23843217,"7318 W Glenrosa Ave, Phoenix, AZ 85033 ",85033,0.6872762739658356,0.8765206634998322,0.6024118556642266,154999,https://www.zillow.com/homedetails/7318-W-Glenrosa-Ave-Phoenix-AZ-85033/7711188_zpid/,33.4994,-112.21700000000001,6541,2017-11-28
828507,23855608,"3542 W Rovey Ave, Phoenix, AZ 85019 ",85019,0.7124206721782684,0.8454297184944153,0.6023016083292756,235000,https://www.zillow.com/homedetails/3542-W-Rovey-Ave-Phoenix-AZ-85019/7759119_zpid/,33.5255,-112.13600000000001,6547,2017-12-04
392024,23860589,"4134 W Linger Ln, Phoenix, AZ 85051 ",85051,0.6770142614841461,0.8886704742908478,0.6016425848547842,224900,https://www.zillow.com/homedetails/4134-W-Linger-Ln-Phoenix-AZ-85051/7755387_zpid/,33.5528,-112.148,6572,2017-12-29
1115749,23864072,"1721 W Nopal Dr, Chandler, AZ 85224 ",85224,0.6585581302642822,0.9106035828590393,0.5996853929396053,249900,https://www.zillow.com/homedetails/1721-W-Nopal-Dr-Chandler-AZ-85224/8198402_zpid/,33.3418,-111.874,6581,2018-01-07
9012224,23885680,"9301 W Glen Oaks Cir N, Sun City, AZ 85351 ",85351,0.6724704205989838,0.8902683854103088,0.5986791555828486,244900,https://www.zillow.com/homedetails/9301-W-Glen-Oaks-Cir-N-Sun-City-AZ-85351/7923234_zpid/,33.6338,-112.26,6583,2018-01-09
9019232,23843081,"3428 E Sheridan St, Phoenix, AZ 85008 ",85008,0.7604771554470062,0.7871923446655273,0.5986417950608995,240000,https://www.zillow.com/homedetails/3428-E-Sheridan-St-Phoenix-AZ-85008/7541233_zpid/,33.4752,-112.007,6540,2017-11-27
9026158,23863640,"3832 W Villa Theresa Dr, Glendale, AZ 85308 ",85308,0.6741120517253876,0.8871697783470154,0.5980518395102639,218000,https://www.zillow.com/homedetails/3832-W-Villa-Theresa-Dr-Glendale-AZ-85308/7948394_zpid/,33.6543,-112.14200000000001,6580,2018-01-06
392666,23759961,"4208 W El Camino Dr, Phoenix, AZ 85051 ",85051,0.7063206434249878,0.8447724282741547,0.5966802050862903,215000,https://www.zillow.com/homedetails/4208-W-El-Camino-Dr-Phoenix-AZ-85051/7752812_zpid/,33.5573,-112.15,6503,2017-10-21
453411,23853062,"4450 N 50TH Ave, Phoenix, AZ 85031 ",85031,0.7024436593055725,0.8486762642860413,0.59614726065087,149800,https://www.zillow.com/homedetails/4450-N-50th-Ave-Phoenix-AZ-85031/7720779_zpid/,33.501999999999995,-112.167,6533,2017-11-20
625494,23866146,"1522 W Plana Ave, Mesa, AZ 85202 ",85202,0.6532855331897736,0.9123068749904633,0.5959968832608409,242500,https://www.zillow.com/homedetails/1522-W-Plana-Ave-Mesa-AZ-85202/8172015_zpid/,33.3588,-111.866,6585,2018-01-11
394581,23831766,"3626 W Rue De Lamour Ave, Phoenix, AZ 85029 ",85029,0.716204434633255,0.8315759599208832,0.5955783902297425,199900,https://www.zillow.com/homedetails/3626-W-Rue-De-Lamour-Ave-Phoenix-AZ-85029/7741437_zpid/,33.6102,-112.137,6522,2017-11-09
406363,23789864,"5213 W Evans Dr, Glendale, AZ 85306 ",85306,0.7689473628997803,0.7715024948120117,0.5932448088562978,209900,https://www.zillow.com/homedetails/5213-W-Evans-Dr-Glendale-AZ-85306/8097361_zpid/,33.6172,-112.17200000000001,6303,2017-04-04
220490,23862951,"8815 N 6th St, Phoenix, AZ 85020 ",85020,0.7622148990631104,0.7780556082725525,0.5930455769249505,200000,https://www.zillow.com/homedetails/8815-N-6th-St-Phoenix-AZ-85020/7793860_zpid/,33.5647,-112.06700000000001,6551,2017-12-08
7977745,23866230,"19033 N 45TH Dr, Glendale, AZ 85308 ",85308,0.6706463098526001,0.8808769881725311,0.5907569015519805,159000,https://www.zillow.com/homedetails/19033-N-45th-Dr-Glendale-AZ-85308/7939041_zpid/,33.6593,-112.15799999999999,6583,2018-01-09
259461,23881240,"19660 N 48TH Ln, Glendale, AZ 85308 ",85308,0.6655745208263397,0.8862248957157135,0.5898487103103589,215000,https://www.zillow.com/homedetails/19660-N-48TH-Ln-Glendale-AZ-85308/7937777_zpid/,33.6639,-112.165,6584,2018-01-10
9023645,23828731,"7328 W Heatherbrae Dr, Phoenix, AZ 85033 ",85033,0.6849015951156616,0.8608972132205963,0.5896298745654143,174900,https://www.zillow.com/homedetails/7328-W-Heatherbrae-Dr-Phoenix-AZ-85033/7711026_zpid/,33.4977,-112.21700000000001,6519,2017-11-06
398944,22432872,"9409 N 36th Dr, Phoenix, AZ 85051 ",85051,0.7793794572353363,0.7561538517475128,0.5893307785613855,215000,https://www.zillow.com/homedetails/9409-N-36th-Dr-Phoenix-AZ-85051/7746677_zpid/,33.5717,-112.137,6330,2017-05-01
391845,23866465,"4128 W Frier Dr, Phoenix, AZ 85051 ",85051,0.663620263338089,0.8851170241832733,0.5873815926735295,229900,https://www.zillow.com/homedetails/4128-W-Frier-Dr-Phoenix-AZ-85051/7755554_zpid/,33.5496,-112.148,6579,2018-01-05
220949,23862962,"9206 N 14th St, Phoenix, AZ 85020 ",85020,0.7502029836177826,0.782343715429306,0.5869165895296868,214700,https://www.zillow.com/homedetails/9206-N-14th-St-Phoenix-AZ-85020/7787080_zpid/,33.5698,-112.053,6550,2017-12-07
501018,22711998,"7420 W Alvarado Rd, Phoenix, AZ 85035 ",85035,0.7375088632106781,0.7948344945907593,0.5861974845462647,119900,https://www.zillow.com/homedetails/7420-W-Alvarado-Rd-Phoenix-AZ-85035/7474905_zpid/,33.4717,-112.22,6475,2017-09-23
8946285,22054871,"1612 W Andorra Dr, Phoenix, AZ 85029 ",85029,0.7794567942619324,0.7498905062675476,0.5845072500627602,219900,https://www.zillow.com/homedetails/1612-W-Andorra-Dr-Phoenix-AZ-85029/7784242_zpid/,33.6066,-112.094,6380,2017-06-20
8977430,22376634,"1505 W Hadley St, Phoenix, AZ 85007 ",85007,0.7936955690383911,0.7359048128128052,0.5840843891635501,180000,https://www.zillow.com/homedetails/1505-W-Hadley-St-Phoenix-AZ-85007/2112748542_zpid/,33.4392,-112.09200000000001,6414,2017-07-24
440994,23821180,"8228 W Fairmount Ave, Phoenix, AZ 85033 ",85033,0.6869907379150391,0.8489033877849579,0.5831887647929648,167000,https://www.zillow.com/homedetails/8228-W-Fairmount-Ave-Phoenix-AZ-85033/7478785_zpid/,33.4907,-112.23700000000001,6517,2017-11-04
495328,23862682,"6239 W Encanto Blvd, Phoenix, AZ 85035 ",85035,0.6544207632541656,0.8904255628585815,0.582712976466933,153900,https://www.zillow.com/homedetails/6239-W-Encanto-Blvd-Phoenix-AZ-85035/7491160_zpid/,33.473,-112.195,6576,2018-01-02
463250,23884456,"2736 W Rose Ln, Phoenix, AZ 85017 ",85017,0.6621129810810089,0.8788205981254578,0.5818785260602422,184900,https://www.zillow.com/homedetails/2736-W-Rose-Ln-Phoenix-AZ-85017/7759733_zpid/,33.5278,-112.118,6581,2018-01-07
9021200,23846457,"3819 N 63RD Ave, Phoenix, AZ 85033 ",85033,0.6661814749240875,0.8695244789123535,0.5792610998444303,164900,https://www.zillow.com/homedetails/3819-N-63rd-Ave-Phoenix-AZ-85033/7496525_zpid/,33.4925,-112.195,6543,2017-11-30
1354557,23883065,"6504 N 61st Ave, Glendale, AZ 85301 ",85301,0.7546639144420624,0.7673873007297516,0.5791195042618424,125000,https://www.zillow.com/homedetails/6504-N-61st-Ave-Glendale-AZ-85301/7707995_zpid/,33.5315,-112.191,6506,2017-10-24
390477,23864565,"3018 W Lupine Ave, Phoenix, AZ 85029 ",85029,0.6592372953891754,0.8782540857791901,0.5789778481735661,230000,https://www.zillow.com/homedetails/3018-W-Lupine-Ave-Phoenix-AZ-85029/7739937_zpid/,33.5913,-112.124,6584,2018-01-10
17711,23887053,"5008 W Wikieup Ln, Glendale, AZ 85308 ",85308,0.6528368294239044,0.8862908780574799,0.5786033267783735,229000,https://www.zillow.com/homedetails/5008-W-Wikieup-Ln-Glendale-AZ-85308/7938109_zpid/,33.6638,-112.16799999999999,6585,2018-01-11
383781,22501929,"3339 W Malapai Dr, Phoenix, AZ 85051 ",85051,0.7701208889484406,0.7509703934192657,0.5783379869540051,244900,https://www.zillow.com/homedetails/3339-W-Malapai-Dr-Phoenix-AZ-85051/7739353_zpid/,33.5756,-112.131,6433,2017-08-12
402883,23865219,"12215 N 47TH Ln, Glendale, AZ 85304 ",85304,0.6523666977882385,0.8862857222557068,0.5781832899248194,249900,https://www.zillow.com/homedetails/12215-N-47th-Ln-Glendale-AZ-85304/7954296_zpid/,33.597,-112.161,6582,2018-01-08
8977566,23865226,"2018 W Bloomfield Rd, Phoenix, AZ 85029 ",85029,0.66841059923172,0.864436686038971,0.5777986433131908,206000,https://www.zillow.com/homedetails/2018-W-Bloomfield-Rd-Phoenix-AZ-85029/7739154_zpid/,33.5987,-112.102,6585,2018-01-11
343418,23862370,"2029 W Wilshire Dr, Phoenix, AZ 85009 ",85009,0.6885528266429901,0.8386619985103607,0.577463089672368,207500,https://www.zillow.com/homedetails/2029-W-Wilshire-Dr-Phoenix-AZ-85009/7519525_zpid/,33.476,-112.104,6577,2018-01-03
390056,23864177,"2917 W Aster Dr, Phoenix, AZ 85029 ",85029,0.6664575040340424,0.863886684179306,0.5757437633063853,199700,https://www.zillow.com/homedetails/2917-W-Aster-Dr-Phoenix-AZ-85029/7741102_zpid/,33.6021,-112.12200000000001,6582,2018-01-08
316554,23837195,"1843 E Harvard St, Phoenix, AZ 85006 ",85006,0.7599501013755798,0.756094753742218,0.5745942847559427,119900,https://www.zillow.com/homedetails/1843-E-Harvard-St-Phoenix-AZ-85006/7531029_zpid/,33.4737,-112.041,6529,2017-11-16
2044933,22443059,"1446 W Bentley St, Mesa, AZ 85201 ",85201,0.7561783492565155,0.7583891749382019,0.5734774743987803,220000,https://www.zillow.com/homedetails/1446-W-Bentley-St-Mesa-AZ-85201/7610672_zpid/,33.4202,-111.86200000000001,6338,2017-05-09
233636,23869963,"19201 N 21ST Ave, Phoenix, AZ 85027 ",85027,0.6477488279342651,0.8842522501945496,0.572773358661756,220000,https://www.zillow.com/homedetails/19201-N-21st-Ave-Phoenix-AZ-85027/7970134_zpid/,33.6596,-112.105,6585,2018-01-11
9023846,23854245,"3711 W Catalina Dr, Phoenix, AZ 85019 ",85019,0.6927575170993805,0.8267780244350433,0.5727566913999516,168900,https://www.zillow.com/homedetails/3711-W-Catalina-Dr-Phoenix-AZ-85019/7507461_zpid/,33.4821,-112.139,6556,2017-12-13
470656,22708029,"3446 W Montebello Ave, Phoenix, AZ 85017 ",85017,0.7739142775535583,0.7388948202133179,0.5718412509734563,169800,https://www.zillow.com/homedetails/3446-W-Montebello-Ave-Phoenix-AZ-85017/7762454_zpid/,33.5205,-112.134,6472,2017-09-20
9022735,23864019,"13216 N 31ST Way, Phoenix, AZ 85032 ",85032,0.6487067639827728,0.8808926343917847,0.5714410102725545,241000,https://www.zillow.com/homedetails/13216-N-31st-Way-Phoenix-AZ-85032/50188555_zpid/,33.6068,-112.014,6581,2018-01-07
8995212,23864024,"13428 N Hawthorn Dr, Sun City, AZ 85351 ",85351,0.6460233926773071,0.884296715259552,0.5712763641253744,139800,https://www.zillow.com/homedetails/13428-N-Hawthorn-Dr-Sun-City-AZ-85351/7914831_zpid/,33.6063,-112.274,6580,2018-01-06
9024203,23844470,"3326 W Roanoke Ave, Phoenix, AZ 85009 ",85009,0.7104073166847229,0.8030958473682404,0.5705251659695154,172500,https://www.zillow.com/homedetails/3326-W-Roanoke-Ave-Phoenix-AZ-85009/7510426_zpid/,33.4791,-112.131,6543,2017-11-30
9013905,22694429,"2418 E Dahlia Dr, Phoenix, AZ 85032 ",85032,0.7607532739639282,0.7493745386600494,0.5700891337108409,225000,https://www.zillow.com/homedetails/2418-E-Dahlia-Dr-Phoenix-AZ-85032/7820474_zpid/,33.6034,-112.03,6470,2017-09-18
470861,22224283,"4135 N 29th Dr, Phoenix, AZ 85017 ",85017,0.7877660691738129,0.7236042022705078,0.5700308380602905,125000,https://www.zillow.com/homedetails/4135-N-29th-Dr-Phoenix-AZ-85017/64623257_zpid/,33.4965,-112.12200000000001,6321,2017-04-22
329444,22745740,"2423 W San Miguel Ave, Phoenix, AZ 85015 ",85015,0.8018513321876526,0.710830420255661,0.5699803194415107,178800,https://www.zillow.com/homedetails/2423-W-San-Miguel-Ave-Phoenix-AZ-85015/7763696_zpid/,33.5193,-112.11200000000001,6488,2017-10-06
409836,23788987,"4544 W Cholla St, Glendale, AZ 85304 ",85304,0.7463598251342773,0.762603223323822,0.5691764084068041,230000,https://www.zillow.com/homedetails/4544-W-Cholla-St-Glendale-AZ-85304/7727053_zpid/,33.5891,-112.15700000000001,6319,2017-04-20
8998472,23817219,"6708 W Highland Ave, Phoenix, AZ 85033 ",85033,0.6656100153923035,0.8537877798080444,0.5682896972597931,168500,https://www.zillow.com/homedetails/6708-W-Highland-Ave-Phoenix-AZ-85033/7716706_zpid/,33.5065,-112.204,6514,2017-11-01
246567,22745687,"3407 W Port Au Prince Ln, Phoenix, AZ 85053 ",85053,0.741522878408432,0.7663062810897827,0.5682336392961567,175000,https://www.zillow.com/homedetails/3407-W-Port-Au-Prince-Ln-Phoenix-AZ-85053/7943671_zpid/,33.6229,-112.132,6491,2017-10-09
381842,23829311,"12409 N 36th Dr, Phoenix, AZ 85029 ",85029,0.7356610000133514,0.7713116705417633,0.5674239148727223,174900,https://www.zillow.com/homedetails/12409-N-36th-Dr-Phoenix-AZ-85029/7743051_zpid/,33.5986,-112.13600000000001,6424,2017-08-03
481368,23814944,"2346 N 47TH Ln, Phoenix, AZ 85035 ",85035,0.6740460097789764,0.8391440808773041,0.5656217193449935,174900,https://www.zillow.com/homedetails/2346-N-47th-Ln-Phoenix-AZ-85035/7499146_zpid/,33.4749,-112.162,6511,2017-10-29
389338,23787313,"3912 W Townley Ave, Phoenix, AZ 85051 ",85051,0.7587414681911469,0.7449155151844025,0.5651982916693781,184900,https://www.zillow.com/homedetails/3912-W-Townley-Ave-Phoenix-AZ-85051/7754475_zpid/,33.5662,-112.14399999999999,6291,2017-03-23
7437201,23841799,"2038 W Alvarado Rd, Phoenix, AZ 85009 ",85009,0.7119494378566742,0.7930468618869781,0.5646092675144336,235000,https://www.zillow.com/homedetails/2038-W-Alvarado-Rd-Phoenix-AZ-85009/7519729_zpid/,33.4727,-112.104,6539,2017-11-26
9026261,23865254,"2153 W Joan De Arc Ave, Phoenix, AZ 85029 ",85029,0.6436823904514313,0.8768208026885986,0.5643941102721399,195000,https://www.zillow.com/homedetails/2153-W-Joan-De-Arc-Ave-Phoenix-AZ-85029/7749859_zpid/,33.6072,-112.10600000000001,6585,2018-01-11
477931,23837214,"1802 N 66TH Ave, Phoenix, AZ 85035 ",85035,0.6551527380943298,0.8596219718456268,0.5631836885807093,150000,https://www.zillow.com/homedetails/1802-N-66th-Ave-Phoenix-AZ-85035/7490498_zpid/,33.4678,-112.20200000000001,6531,2017-11-18
9025493,23853409,"5955 W Mitchell Dr, Phoenix, AZ 85033 ",85033,0.6429184377193451,0.8750326037406921,0.5625745945504566,165000,https://www.zillow.com/homedetails/5955-W-Mitchell-Dr-Phoenix-AZ-85033/7489271_zpid/,33.4883,-112.189,6550,2017-12-07
258179,23864232,"417 W Renee Dr, Phoenix, AZ 85027 ",85027,0.6346343457698822,0.8859189748764038,0.5622346090258112,205000,https://www.zillow.com/homedetails/417-W-Renee-Dr-Phoenix-AZ-85027/7972590_zpid/,33.6551,-112.08,6583,2018-01-09
330587,22131299,"4508 N 17th Ave, Phoenix, AZ 85015 ",85015,0.7650398910045624,0.7346024513244629,0.5620001792929514,185000,https://www.zillow.com/homedetails/4508-N-17th-Ave-Phoenix-AZ-85015/7772361_zpid/,33.5027,-112.096,6321,2017-04-22
388525,23864545,"2330 W Columbine Dr, Phoenix, AZ 85029 ",85029,0.63832026720047,0.8803452849388123,0.5619422375108165,199900,https://www.zillow.com/homedetails/2330-W-Columbine-Dr-Phoenix-AZ-85029/7738746_zpid/,33.5996,-112.109,6584,2018-01-10
491289,23853212,"5551 W Wilshire Dr, Phoenix, AZ 85035 ",85035,0.6394012868404388,0.8783688247203827,0.5616301568467366,187900,https://www.zillow.com/homedetails/5551-W-Wilshire-Dr-Phoenix-AZ-85035/7491935_zpid/,33.4756,-112.18,6538,2017-11-25
250623,23869041,"510 E Topeka Dr, Phoenix, AZ 85024 ",85024,0.6298394799232483,0.8883200287818909,0.5594990249333911,209900,https://www.zillow.com/homedetails/510-E-Topeka-Dr-Phoenix-AZ-85024/7972420_zpid/,33.6601,-112.06700000000001,6585,2018-01-11
834955,22429468,"3614 W Sierra Vista Dr, Phoenix, AZ 85019 ",85019,0.7598810195922852,0.7347625195980072,0.5583320925503301,175000,https://www.zillow.com/homedetails/3614-W-Sierra-Vista-Dr-Phoenix-AZ-85019/7761685_zpid/,33.5322,-112.137,6327,2017-04-28
8990554,23839230,"3845 N 59th Ave, Phoenix, AZ 85033 ",85033,0.6410440802574158,0.8701240420341492,0.5577878662356461,176000,https://www.zillow.com/homedetails/3845-N-59th-Ave-Phoenix-AZ-85033/7496809_zpid/,33.493,-112.186,6531,2017-11-18
556266,23783983,"2325 N 28th Pl, Phoenix, AZ 85008 ",85008,0.7893477976322174,0.7065774500370026,0.5577353540432961,144000,https://www.zillow.com/homedetails/2325-N-28th-Pl-Phoenix-AZ-85008/7542977_zpid/,33.4742,-112.02,6305,2017-04-06
9024486,23843769,"6743 W Roma Ave, Phoenix, AZ 85033 ",85033,0.6356862485408783,0.8769755065441132,0.5574812698172638,135000,https://www.zillow.com/homedetails/6743-W-Roma-Ave-Phoenix-AZ-85033/7717104_zpid/,33.5015,-112.205,6542,2017-11-29
9021253,23756561,"2832 N 28th Dr, Phoenix, AZ 85008 ",85008,0.78119295835495,0.7133685350418091,0.5572784762866476,139900,https://www.zillow.com/homedetails/2832-N-28th-Dr-Phoenix-AZ-85008/7513343_zpid/,33.4797,-112.021,6495,2017-10-13
431375,23855856,"6744 W Pierson St, Phoenix, AZ 85033 ",85033,0.6324948072433472,0.8794404864311218,0.5562415409472479,141900,https://www.zillow.com/homedetails/6744-W-Pierson-St-Phoenix-AZ-85033/7716621_zpid/,33.508,-112.205,6555,2017-12-12
402356,23882339,"11811 N 51st Dr, Glendale, AZ 85304 ",85304,0.6279841661453247,0.8857466578483582,0.5562348763449094,189500,https://www.zillow.com/homedetails/11811-N-51st-Dr-Glendale-AZ-85304/60978616_zpid/,33.5933,-112.169,6583,2018-01-09
534315,23853548,"1914 W Granada Rd, Phoenix, AZ 85009 ",85009,0.7068181037902832,0.7860410809516907,0.5555880663395385,189000,https://www.zillow.com/homedetails/1914-W-Granada-Rd-Phoenix-AZ-85009/7519853_zpid/,33.4686,-112.101,6549,2017-12-06
330099,22738563,"3820 N 23rd Ave, Phoenix, AZ 85015 ",85015,0.7742081880569458,0.7175763249397278,0.5555534663241488,245000,https://www.zillow.com/homedetails/3820-N-23rd-Ave-Phoenix-AZ-85015/7516043_zpid/,33.4921,-112.10799999999999,6487,2017-10-05
325345,23781077,"1710 W Bethany Home Rd, Phoenix, AZ 85015 ",85015,0.7891533672809601,0.7007692158222198,0.5530143863529426,219000,https://www.zillow.com/homedetails/1710-W-Bethany-Home-Rd-Phoenix-AZ-85015/7774319_zpid/,33.5243,-112.096,6281,2017-03-13
5187885,23794657,"9915 W Tarrytown Ave, Sun City, AZ 85351 ",85351,0.736621767282486,0.7495366334915161,0.5521249996054856,179000,https://www.zillow.com/homedetails/9915-W-Tarrytown-Ave-Sun-City-AZ-85351/7688483_zpid/,33.5783,-112.274,6290,2017-03-22
307196,23783098,"215 E Mckinley St STE 202, Phoenix, AZ 85004 ",85004,0.7726620137691498,0.714263379573822,0.5518841812230679,225900,https://www.zillow.com/homedetails/215-E-Mckinley-St-STE-202-Phoenix-AZ-85004/81957074_zpid/,33.4563,-112.07,6284,2017-03-16
22930,21627869,"5725 W Highland Ave, Phoenix, AZ 85031 ",85031,0.7482516467571259,0.7373158037662506,0.5516977643481509,175000,https://www.zillow.com/homedetails/5725-W-Highland-Ave-Phoenix-AZ-85031/7713313_zpid/,33.5057,-112.18299999999999,6328,2017-04-29
467212,23884496,"3119 W Citrus Way, Phoenix, AZ 85017 ",85017,0.6209032237529755,0.8871397376060486,0.5508279229989643,220000,https://www.zillow.com/homedetails/3119-W-Citrus-Way-Phoenix-AZ-85017/7760912_zpid/,33.5296,-112.12700000000001,6583,2018-01-09
454952,23752844,"4630 W Indianola Ave, Phoenix, AZ 85031 ",85031,0.6932382881641388,0.7930110394954681,0.5497456155151026,159000,https://www.zillow.com/homedetails/4630-W-Indianola-Ave-Phoenix-AZ-85031/7508079_zpid/,33.4927,-112.15899999999999,6497,2017-10-15
314137,23854820,"1718 W Cocopah St, Phoenix, AZ 85007 ",85007,0.6796195805072784,0.8071688413619995,0.5485677493649881,154900,https://www.zillow.com/homedetails/1718-W-Cocopah-St-Phoenix-AZ-85007/7501240_zpid/,33.4318,-112.096,6557,2017-12-14
326266,22680508,"1747 W Colter St, Phoenix, AZ 85015 ",85015,0.7681379616260529,0.7132061719894409,0.5478407351710892,249900,https://www.zillow.com/homedetails/1747-W-Colter-St-Phoenix-AZ-85015/7775943_zpid/,33.5127,-112.098,6466,2017-09-14
9023845,23833062,"1333 N 32nd Ave, Phoenix, AZ 85009 ",85009,0.7214902639389038,0.7592274248600006,0.5477751951518961,125000,https://www.zillow.com/homedetails/1333-N-32nd-Ave-Phoenix-AZ-85009/7513099_zpid/,33.464,-112.12700000000001,6528,2017-11-15
469895,23526992,"3401 W Tuckey Ln, Phoenix, AZ 85017 ",85017,0.7210896909236908,0.7595132291316986,0.5476771596470309,169000,https://www.zillow.com/homedetails/3401-W-Tuckey-Ln-Phoenix-AZ-85017/7760733_zpid/,33.5332,-112.132,6493,2017-10-11
8972668,23857766,"3022 W Polk St, Phoenix, AZ 85009 ",85009,0.6970747709274292,0.7856680452823639,0.5476693726902049,239000,https://www.zillow.com/homedetails/3022-W-Polk-St-Phoenix-AZ-85009/71629217_zpid/,33.4533,-112.125,6564,2017-12-21
225987,23864034,"1415 W Renee Dr, Phoenix, AZ 85027 ",85027,0.6162394881248474,0.8850248754024506,0.545387276195763,239999,https://www.zillow.com/homedetails/1415-W-Renee-Dr-Phoenix-AZ-85027/7969101_zpid/,33.6549,-112.09,6582,2018-01-08
9026282,23865594,"9621 N 82nd Ln, Peoria, AZ 85345 ",85345,0.6092354953289032,0.8944780230522156,0.5449477614350346,205000,https://www.zillow.com/homedetails/9621-N-82nd-Ln-Peoria-AZ-85345/67710601_zpid/,33.5723,-112.236,6585,2018-01-11
696959,23846396,"2938 W Almeria Rd, Phoenix, AZ 85009 ",85009,0.6857845187187195,0.7925289273262024,0.5435040689970627,129900,https://www.zillow.com/homedetails/2938-W-Almeria-Rd-Phoenix-AZ-85009/7512219_zpid/,33.4672,-112.12299999999999,6543,2017-11-30
384614,23864029,"13636 N 18TH Dr, Phoenix, AZ 85029 ",85029,0.6157892346382141,0.8822590708732605,0.543285638005667,189500,https://www.zillow.com/homedetails/13636-N-18th-Dr-Phoenix-AZ-85029/7784603_zpid/,33.6108,-112.09899999999999,6583,2018-01-09
456854,23862646,"4925 W Flower St, Phoenix, AZ 85031 ",85031,0.6165520250797272,0.8810951709747314,0.5432410119524391,206000,https://www.zillow.com/homedetails/4925-W-Flower-St-Phoenix-AZ-85031/7509860_zpid/,33.4855,-112.165,6578,2018-01-04
8981328,22485420,"1411 E Whitton Ave, Phoenix, AZ 85014 ",85014,0.7591031193733215,0.7148957848548889,0.5426796203101851,160000,https://www.zillow.com/homedetails/1411-E-Whitton-Ave-Phoenix-AZ-85014/7534776_zpid/,33.4887,-112.051,6421,2017-07-31
827683,22544155,"3017 N 40th Dr, Phoenix, AZ 85019 ",85019,0.6934877932071686,0.7824358642101288,0.542609720797226,140000,https://www.zillow.com/homedetails/3017-N-40th-Dr-Phoenix-AZ-85019/7509168_zpid/,33.483000000000004,-112.146,6437,2017-08-16
354473,23783928,"2302 E Beck Ln, Phoenix, AZ 85022 ",85022,0.752665638923645,0.7206972241401672,0.5424440366779564,149900,https://www.zillow.com/homedetails/2302-E-Beck-Ln-Phoenix-AZ-85022/8007955_zpid/,33.6274,-112.03299999999999,6282,2017-03-14
556883,23809047,"2529 N 40th Ave, Phoenix, AZ 85009 ",85009,0.6665972471237183,0.8110707998275757,0.5406575623874943,149899,https://www.zillow.com/homedetails/2529-N-40th-Ave-Phoenix-AZ-85009/88889007_zpid/,33.4758,-112.146,6508,2017-10-26
231237,23886980,"18621 N 5th Dr, Phoenix, AZ 85027 ",85027,0.6055829226970673,0.8914361000061035,0.5398384788393713,225000,https://www.zillow.com/homedetails/18621-N-5th-Dr-Phoenix-AZ-85027/50183691_zpid/,33.6555,-112.081,6585,2018-01-11
553645,23781775,"1901 N 44th St, Phoenix, AZ 85008 ",85008,0.7910084426403046,0.682418704032898,0.5397989563056775,189000,https://www.zillow.com/homedetails/1901-N-44th-St-Phoenix-AZ-85008/7561032_zpid/,33.4681,-111.98700000000001,6317,2017-04-18
331783,22651353,"10428 N 13TH Ave, Phoenix, AZ 85021 ",85021,0.7456183135509491,0.7225577235221863,0.5387522712558255,195000,https://www.zillow.com/homedetails/10428-N-13th-Ave-Phoenix-AZ-85021/7781474_zpid/,33.5811,-112.089,6463,2017-09-11
419756,23870015,"5532 W Loma Ln, Glendale, AZ 85302 ",85302,0.6095007061958313,0.8828422725200653,0.5380929885605124,185000,https://www.zillow.com/homedetails/5532-W-Loma-Ln-Glendale-AZ-85302/7737959_zpid/,33.5541,-112.179,6583,2018-01-09
343494,23875666,"2518 S 66th Dr, Phoenix, AZ 85043 ",85043,0.5940463244915009,0.9053691327571869,0.5378312056224646,194900,https://www.zillow.com/homedetails/2518-S-66th-Dr-Phoenix-AZ-85043/67773235_zpid/,33.425,-112.20200000000001,6581,2018-01-07
331776,22565895,"10418 N 18TH Ave, Phoenix, AZ 85021 ",85021,0.7362883687019348,0.7289097607135773,0.5366877786467175,199000,https://www.zillow.com/homedetails/10418-N-18th-Ave-Phoenix-AZ-85021/7781375_zpid/,33.5813,-112.098,6444,2017-08-23
465370,23866376,"2933 W Bethany Home Rd, Phoenix, AZ 85017 ",85017,0.6230073273181915,0.8577116429805756,0.5343606383030233,170000,https://www.zillow.com/homedetails/2933-W-Bethany-Home-Rd-Phoenix-AZ-85017/7762760_zpid/,33.5238,-112.12299999999999,6585,2018-01-11
9011933,22678376,"7934 W Mitchell Dr, Phoenix, AZ 85033 ",85033,0.6965762972831726,0.7657990157604218,0.5334374428614925,155000,https://www.zillow.com/homedetails/7934-W-Mitchell-Dr-Phoenix-AZ-85033/7478637_zpid/,33.4893,-112.23,6464,2017-09-12
425566,23374604,"3339 N 80th Dr, Phoenix, AZ 85033 ",85033,0.6948225498199463,0.7648612260818481,0.5314428273646001,179500,http://www.zillow.com/homedetails/3339-N-80th-Dr-Phoenix-AZ-85033/7479414_zpid,33.4867,-112.23200000000001,6369,2017-06-09
9021371,23837196,"1845 E Harvard St, Phoenix, AZ 85006 ",85006,0.7599501013755798,0.6968151032924652,0.5295447083871441,89900,https://www.zillow.com/homedetails/1845-E-Harvard-St-Phoenix-AZ-85006/2092345277_zpid/,33.4737,-112.041,6529,2017-11-16
9019605,22737585,"9213 W Fillmore St, Tolleson, AZ 85353 ",85353,0.7192875146865845,0.7358120381832123,0.529260412221273,195000,https://www.zillow.com/homedetails/9213-W-Fillmore-St-Tolleson-AZ-85353/7476932_zpid/,33.4532,-112.258,6486,2017-10-04
452056,23863849,"8831 W Mariposa St, Phoenix, AZ 85037 ",85037,0.5912990272045135,0.8940714001655579,0.5286635491692717,209900,https://www.zillow.com/homedetails/8831-W-Mariposa-St-Phoenix-AZ-85037/7483281_zpid/,33.5074,-112.25,6581,2018-01-07
233458,23864530,"18230 N 33RD Ave, Phoenix, AZ 85053 ",85053,0.5955749452114105,0.886122852563858,0.5277525693662986,179900,https://www.zillow.com/homedetails/18230-N-33rd-Ave-Phoenix-AZ-85053/7941211_zpid/,33.652,-112.13,6584,2018-01-10
451525,21618159,"4229 N 51st Ave, Phoenix, AZ 85031 ",85031,0.7219951152801514,0.7306402325630188,0.5275186789376534,165000,https://www.zillow.com/homedetails/4229-N-51st-Ave-Phoenix-AZ-85031/7721281_zpid/,33.4982,-112.169,6355,2017-05-26
328960,22284604,"2322 W Cheery Lynn Rd, Phoenix, AZ 85015 ",85015,0.7279046773910522,0.7244053483009338,0.5272980413553441,249900,https://www.zillow.com/homedetails/2322-W-Cheery-Lynn-Rd-Phoenix-AZ-85015/7517610_zpid/,33.4857,-112.109,6398,2017-07-08
481948,23862444,"2520 N 51st Ln, Phoenix, AZ 85035 ",85035,0.6002061665058136,0.8783619403839111,0.5271982530424353,152000,https://www.zillow.com/homedetails/2520-N-51st-Ln-Phoenix-AZ-85035/7493069_zpid/,33.4755,-112.171,6578,2018-01-04
434653,23866644,"7715 W Elm St, Phoenix, AZ 85033 ",85033,0.5881041586399078,0.8951080441474915,0.5264167631951739,175000,https://www.zillow.com/homedetails/7715-W-Elm-St-Phoenix-AZ-85033/7468202_zpid/,33.506,-112.226,6582,2018-01-08
469757,23786316,"3342 W Krall St, Phoenix, AZ 85017 ",85017,0.7158245742321014,0.7353736758232117,0.5263985483976459,139900,https://www.zillow.com/homedetails/3342-W-Krall-St-Phoenix-AZ-85017/82817782_zpid/,33.5343,-112.132,6289,2017-03-21
389263,23864217,"3907 W Davidson Ln, Phoenix, AZ 85051 ",85051,0.598178505897522,0.8766345977783203,0.5243839739171108,238995,https://www.zillow.com/homedetails/3907-W-Davidson-Ln-Phoenix-AZ-85051/7746545_zpid/,33.5698,-112.14299999999999,6582,2018-01-08
1354714,21989085,"6518 N 60th Ave, Glendale, AZ 85301 ",85301,0.7456048727035522,0.7030039727687836,0.5241631876263604,115000,https://www.zillow.com/homedetails/6518-N-60th-Ave-Glendale-AZ-85301/7707850_zpid/,33.532,-112.19,6359,2017-05-30
415471,23882330,"10237 N 66th Ave, Glendale, AZ 85302 ",85302,0.5877514779567719,0.8915267288684845,0.523996152530418,150000,https://www.zillow.com/homedetails/10237-N-66th-Ave-Glendale-AZ-85302/7706350_zpid/,33.5795,-112.2,6583,2018-01-09
428369,23828377,"6211 W Clarendon Ave, Phoenix, AZ 85033 ",85033,0.650529533624649,0.8053481578826904,0.5239027615528968,219000,https://www.zillow.com/homedetails/6211-W-Clarendon-Ave-Phoenix-AZ-85033/7496532_zpid/,33.4914,-112.193,6513,2017-10-31
9011104,22672448,"12997 N 71st Ave, Peoria, AZ 85381 ",85381,0.7314308881759644,0.71591517329216,0.523642471059734,200000,https://www.zillow.com/homedetails/12997-N-71st-Ave-Peoria-AZ-85381/50185506_zpid/,33.603,-112.211,6408,2017-07-18
435667,22734446,"7942 W Verde Ln, Phoenix, AZ 85033 ",85033,0.6809802949428558,0.7637895345687866,0.5201256225249189,175000,https://www.zillow.com/homedetails/7942-W-Verde-Ln-Phoenix-AZ-85033/7479526_zpid/,33.4815,-112.23100000000001,6484,2017-10-02
459700,22721620,"5715 W Roma Ave, Phoenix, AZ 85031 ",85031,0.6834432780742645,0.7605378925800323,0.5197845104045902,139900,https://www.zillow.com/homedetails/5715-W-Roma-Ave-Phoenix-AZ-85031/7712868_zpid/,33.4993,-112.18299999999999,6478,2017-09-26
7454178,23781563,"1831 E Monte Vista Rd, Phoenix, AZ 85006 ",85006,0.7561483085155487,0.6858123540878296,0.5185758515025789,224900,https://www.zillow.com/homedetails/1831-E-Monte-Vista-Rd-Phoenix-AZ-85006/7531909_zpid/,33.4709,-112.042,6286,2017-03-18
21473,23861264,"2802 W Durango St, Phoenix, AZ 85009 ",85009,0.6591468155384064,0.7857472598552704,0.5179228041516302,249888,https://www.zillow.com/homedetails/2802-W-Durango-St-Phoenix-AZ-85009/81995871_zpid/,33.4303,-112.12,6573,2017-12-30
1342993,23882377,"4510 W State Ave, Glendale, AZ 85301 ",85301,0.5802852511405945,0.8924486339092255,0.5178747796580954,189900,https://www.zillow.com/homedetails/4510-W-State-Ave-Glendale-AZ-85301/7725659_zpid/,33.5444,-112.156,6585,2018-01-11
9015572,23864377,"9416 W Madison St, Tolleson, AZ 85353 ",85353,0.5800101161003113,0.8926026523113251,0.5177185679985374,149000,https://www.zillow.com/homedetails/9416-W-Madison-St-Tolleson-AZ-85353/7460136_zpid/,33.4454,-112.264,6582,2018-01-08
422985,23883576,"8419 N 58th Dr, Glendale, AZ 85302 ",85302,0.5800144672393799,0.8916809558868408,0.517187854576207,225000,https://www.zillow.com/homedetails/8419-N-58th-Dr-Glendale-AZ-85302/7733078_zpid/,33.559,-112.185,6583,2018-01-09
350252,22116796,"3827 W Taylor St, Phoenix, AZ 85009 ",85009,0.7146993279457092,0.7209809720516205,0.5152846161869373,112500,https://www.zillow.com/homedetails/3827-W-Taylor-St-Phoenix-AZ-85009/7505668_zpid/,33.454,-112.14299999999999,6364,2017-06-04
342822,22678663,"1925 W Holly St, Phoenix, AZ 85009 ",85009,0.7068181037902832,0.7289963960647583,0.5152678503364427,160000,https://www.zillow.com/homedetails/1925-W-Holly-St-Phoenix-AZ-85009/7519786_zpid/,33.4699,-112.102,6467,2017-09-15
318987,23813756,"2220 E Palm Ln, Phoenix, AZ 85006 ",85006,0.7527437210083008,0.6842371821403503,0.5150552425365618,239900,https://www.zillow.com/homedetails/2220-E-Palm-Ln-Phoenix-AZ-85006/7531376_zpid/,33.4695,-112.03399999999999,6510,2017-10-28
695985,23844261,"28 S 29TH Ave, Phoenix, AZ 85009 ",85009,0.6842624247074127,0.7525457143783569,0.5149387552237066,119900,https://www.zillow.com/homedetails/28-S-29th-Ave-Phoenix-AZ-85009/7514868_zpid/,33.4477,-112.12200000000001,6542,2017-11-29
43818,23864355,"8128 W Papago St, Phoenix, AZ 85043 ",85043,0.5692552626132965,0.9013393521308899,0.5130921696009683,195000,https://www.zillow.com/homedetails/8128-W-Papago-St-Phoenix-AZ-85043/60047290_zpid/,33.4345,-112.235,6582,2018-01-08
7381600,22218425,"4317 N 72nd Dr, Phoenix, AZ 85033 ",85033,0.6503200531005859,0.7868436872959137,0.5117002285041394,190000,https://www.zillow.com/homedetails/4317-N-72nd-Dr-Phoenix-AZ-85033/7711467_zpid/,33.4989,-112.214,6377,2017-06-17
830006,22432017,"3735 W Catalina Dr, Phoenix, AZ 85019 ",85019,0.7042818665504456,0.7254124283790588,0.510894819077695,144000,https://www.zillow.com/homedetails/3735-W-Catalina-Dr-Phoenix-AZ-85019/7507455_zpid/,33.4817,-112.14,6334,2017-05-05
405641,23865434,"4810 W Paradise Ln, Glendale, AZ 85306 ",85306,0.5744696259498596,0.8853979110717773,0.508634206790191,230000,https://www.zillow.com/homedetails/4810-W-Paradise-Ln-Glendale-AZ-85306/7951146_zpid/,33.6326,-112.162,6586,2018-01-12
203922,23870255,"1233 N Oakleaf Dr, Phoenix, AZ 85008 ",85008,0.6137917637825012,0.82684725522995,0.5075120351663109,225000,https://www.zillow.com/homedetails/1233-N-Oakleaf-Dr-Phoenix-AZ-85008/7544011_zpid/,33.4632,-112.01100000000001,6584,2018-01-10
831473,23884701,"4018 W Solano Dr N, Phoenix, AZ 85019 ",85019,0.5697247982025146,0.8894225060939789,0.506726057801167,199900,https://www.zillow.com/homedetails/4018-W-Solano-Dr-N-Phoenix-AZ-85019/7718599_zpid/,33.5218,-112.145,6583,2018-01-09
8947845,23865596,"8909 W Echo Ln, Peoria, AZ 85345 ",85345,0.5666477084159851,0.8941017091274261,0.5066406845678717,220000,https://www.zillow.com/homedetails/8909-W-Echo-Ln-Peoria-AZ-85345/7683180_zpid/,33.5583,-112.251,6585,2018-01-11
496469,22536294,"6526 W Holly St, Phoenix, AZ 85035 ",85035,0.6496182084083557,0.7791394591331482,0.506143179542331,169499,https://www.zillow.com/homedetails/6526-W-Holly-St-Phoenix-AZ-85035/7490333_zpid/,33.471,-112.20100000000001,6408,2017-07-18
342222,23780659,"1648 N 38th Dr, Phoenix, AZ 85009 ",85009,0.7319588959217072,0.6912657618522644,0.5059781238338612,129900,https://www.zillow.com/homedetails/1648-N-38th-Dr-Phoenix-AZ-85009/7511922_zpid/,33.4675,-112.14200000000001,6321,2017-04-22
458973,22036993,"5608 W Heatherbrae Dr, Phoenix, AZ 85031 ",85031,0.6907701194286346,0.7320245504379272,0.5056606861306996,165000,https://www.zillow.com/homedetails/5608-W-Heatherbrae-Dr-Phoenix-AZ-85031/7713127_zpid/,33.4974,-112.181,6348,2017-05-19
9026278,23865568,"8630 W El Caminito Dr, Peoria, AZ 85345 ",85345,0.5636274516582489,0.8967653214931488,0.5054415528886738,199999,https://www.zillow.com/homedetails/8630-W-El-Caminito-Dr-Peoria-AZ-85345/50187525_zpid/,33.5576,-112.24600000000001,6585,2018-01-11
388897,23868744,"2421 W Willow Ave, Phoenix, AZ 85029 ",85029,0.5740440189838409,0.8797227740287781,0.5049995967950931,225000,https://www.zillow.com/homedetails/2421-W-Willow-Ave-Phoenix-AZ-85029/7738217_zpid/,33.6074,-112.111,6593,2018-01-19
349445,23786888,"3622 W Berkeley Rd, Phoenix, AZ 85009 ",85009,0.7115480601787567,0.7096918225288391,0.5049798396451219,144900,https://www.zillow.com/homedetails/3622-W-Berkeley-Rd-Phoenix-AZ-85009/7512043_zpid/,33.4684,-112.137,6316,2017-04-17
522482,23866699,"9013 W Virginia Ave, Phoenix, AZ 85037 ",85037,0.5609573721885681,0.899302214384079,0.5044702069842533,174900,https://www.zillow.com/homedetails/9013-W-Virginia-Ave-Phoenix-AZ-85037/7473884_zpid/,33.4743,-112.25399999999999,6583,2018-01-09
1113596,23885766,"1567 W Kesler Ln, Chandler, AZ 85224 ",85224,0.5540254414081573,0.9101651012897491,0.5042546219963535,245000,https://www.zillow.com/homedetails/1567-W-Kesler-Ln-Chandler-AZ-85224/8226104_zpid/,33.2918,-111.869,6596,2018-01-22
502071,22116293,"3625 N 48th Ave, Phoenix, AZ 85031 ",85031,0.680087685585022,0.736532986164093,0.500907013917363,158000,https://www.zillow.com/homedetails/3625-N-48th-Ave-Phoenix-AZ-85031/7508647_zpid/,33.4911,-112.163,6338,2017-05-09
9020422,23864586,"4227 N 11th Pl, Phoenix, AZ 85014 ",85014,0.602541446685791,0.8298802971839905,0.5000372748412758,232900,https://www.zillow.com/homedetails/4227-N-11th-Pl-Phoenix-AZ-85014/7769603_zpid/,33.4974,-112.057,6584,2018-01-10
397462,23865059,"4040 W Desert Cove Ave, Phoenix, AZ 85029 ",85029,0.5592063367366791,0.8931912481784821,0.49947820589915093,224900,https://www.zillow.com/homedetails/4040-W-Desert-Cove-Ave-Phoenix-AZ-85029/7744743_zpid/,33.5857,-112.146,6585,2018-01-11
486164,22539632,"4802 W Encanto Blvd, Phoenix, AZ 85035 ",85035,0.6501029133796692,0.7666203081607819,0.49838209579134407,148000,https://www.zillow.com/homedetails/4802-W-Encanto-Blvd-Phoenix-AZ-85035/7499173_zpid/,33.4734,-112.163,6437,2017-08-16
7425243,23864205,"3629 E Yale St, Phoenix, AZ 85008 ",85008,0.5984192788600922,0.8328274190425873,0.49837998351837687,225500,https://www.zillow.com/homedetails/3629-E-Yale-St-Phoenix-AZ-85008/67082142_zpid/,33.4758,-112.00299999999999,6582,2018-01-08
8990467,22512781,"1711 E Harvard Street Phoenix Az, Phoenix, AZ 85006 ",85006,0.7461487054824829,0.6675440073013306,0.4980870969004769,100000,https://www.zillow.com/homedetails/1711-E-Harvard-Street-Phoenix-Az-Phoenix-AZ-85006/2093095994_zpid/,33.4742,-112.04700000000001,6437,2017-08-16
1355576,23883134,"6629 N 54th Dr, Glendale, AZ 85301 ",85301,0.6305238604545593,0.7897838056087494,0.4979775340369219,115500,https://www.zillow.com/homedetails/6629-N-54th-Dr-Glendale-AZ-85301/7722242_zpid/,33.5342,-112.176,6585,2018-01-11
7380359,22747336,"3611 W Maricopa St, Phoenix, AZ 85009 ",85009,0.6793448626995087,0.7321261465549469,0.49736613651009076,146600,https://www.zillow.com/homedetails/3611-W-Maricopa-St-Phoenix-AZ-85009/7506371_zpid/,33.4383,-112.137,6492,2017-10-10
459441,22441396,"5651 W Sells Dr, Phoenix, AZ 85031 ",85031,0.6579487323760986,0.7533026337623596,0.495634512979521,191000,https://www.zillow.com/homedetails/5651-W-Sells-Dr-Phoenix-AZ-85031/7712751_zpid/,33.4999,-112.182,6333,2017-05-04
404226,23881205,"16412 N 49TH Dr, Glendale, AZ 85306 ",85306,0.5582728087902069,0.8854027688503265,0.4942962906766981,229900,https://www.zillow.com/homedetails/16412-N-49TH-Dr-Glendale-AZ-85306/7950964_zpid/,33.634,-112.165,6591,2018-01-17
1405541,23883136,"6702 N 82nd Dr, Glendale, AZ 85303 ",85303,0.5492053776979446,0.8991305530071259,0.4938073349640404,229900,https://www.zillow.com/homedetails/6702-N-82nd-Dr-Glendale-AZ-85303/7462533_zpid/,33.5329,-112.23700000000001,6585,2018-01-11
697389,23875656,"3040 W Yuma St, Phoenix, AZ 85009 ",85009,0.6366966664791107,0.7748174071311951,0.49332366025041985,199900,https://www.zillow.com/homedetails/3040-W-Yuma-St-Phoenix-AZ-85009/7500913_zpid/,33.4354,-112.126,6558,2017-12-15
1091759,23886133,"701 W Dublin St, Chandler, AZ 85225 ",85225,0.5504872500896454,0.8950437605381012,0.4927101784485144,225000,https://www.zillow.com/homedetails/701-W-Dublin-St-Chandler-AZ-85225/8189377_zpid/,33.3186,-111.853,6588,2018-01-14
405534,23869882,"4734 W Beverly Ln, Glendale, AZ 85306 ",85306,0.5582974255084991,0.8819413781166077,0.49238560085191985,245000,https://www.zillow.com/homedetails/4734-W-Beverly-Ln-Glendale-AZ-85306/7951184_zpid/,33.6331,-112.161,6596,2018-01-22
467648,23865040,"3143 W Marlette Ave, Phoenix, AZ 85017 ",85017,0.5544563233852386,0.8851222693920135,0.4907616392334946,204000,https://www.zillow.com/homedetails/3143-W-Marlette-Ave-Phoenix-AZ-85017/7760936_zpid/,33.5289,-112.12799999999999,6585,2018-01-11
9019709,23816778,"2325 W Adams St, Phoenix, AZ 85009 ",85009,0.7092110216617584,0.6906320154666901,0.4898038372814506,150000,https://www.zillow.com/homedetails/2325-W-Adams-St-Phoenix-AZ-85009/7515215_zpid/,33.4489,-112.11,6514,2017-11-01
215329,22594254,"1402 E Mescal St, Phoenix, AZ 85020 ",85020,0.7651497423648834,0.6383111476898193,0.4884036102034983,249900,https://www.zillow.com/homedetails/1402-E-Mescal-St-Phoenix-AZ-85020/63200956_zpid/,33.5873,-112.052,6448,2017-08-27
483705,23784850,"2639 N 49th Ave, Phoenix, AZ 85035 ",85035,0.6517614126205444,0.7473251521587372,0.48707769685784186,162499,https://www.zillow.com/homedetails/2639-N-49th-Ave-Phoenix-AZ-85035/7499042_zpid/,33.4778,-112.163,6270,2017-03-02
1090009,23867209,"615 W Dublin St, Chandler, AZ 85225 ",85225,0.5424588620662689,0.8970907330513,0.48663481822120325,247000,https://www.zillow.com/homedetails/615-W-Dublin-St-Chandler-AZ-85225/8189370_zpid/,33.3189,-111.851,6586,2018-01-12
644742,23869677,"2222 W Peralta Ave, Mesa, AZ 85202 ",85202,0.5444096624851227,0.8917401731014252,0.48547196666257175,191000,https://www.zillow.com/homedetails/2222-W-Peralta-Ave-Mesa-AZ-85202/8171027_zpid/,33.3578,-111.882,6594,2018-01-20
635106,23871182,"1835 S Yucca, Mesa, AZ 85202 ",85202,0.5429593920707703,0.892302542924881,0.48448404624969577,225000,https://www.zillow.com/homedetails/1835-S-Yucca-Mesa-AZ-85202/8250862_zpid/,33.3818,-111.874,6599,2018-01-25
9020198,23867892,"17950 N 88th Ave, Peoria, AZ 85382 ",85382,0.5342722535133362,0.9005242884159088,0.4811251409154611,249000,https://www.zillow.com/homedetails/17950-N-88th-Ave-Peoria-AZ-85382/7898435_zpid/,33.6467,-112.24799999999999,6590,2018-01-16
7515382,22616806,"3843 W Grant St, Phoenix, AZ 85009 ",85009,0.6608180999755859,0.7276213765144348,0.48082537552988924,114900,https://www.zillow.com/homedetails/3843-W-Grant-St-Phoenix-AZ-85009/7506219_zpid/,33.4411,-112.14299999999999,6403,2017-07-13
1879274,23888645,"14647 N 87th Ave, Peoria, AZ 85381 ",85381,0.5369139313697815,0.8952573239803314,0.4806761294058699,249000,https://www.zillow.com/homedetails/14647-N-87th-Ave-Peoria-AZ-85381/8103174_zpid/,33.6178,-112.245,6596,2018-01-22
416997,23870500,"4640 W Alice Ave, Glendale, AZ 85302 ",85302,0.5372984707355499,0.8942413628101349,0.48047451670635954,249000,https://www.zillow.com/homedetails/4640-W-Alice-Ave-Glendale-AZ-85302/7731430_zpid/,33.5658,-112.16,6598,2018-01-24
7546896,22096492,"6102 W Mulberry Dr, Phoenix, AZ 85033 ",85033,0.6530040800571442,0.7306282818317413,0.4771032490412681,165000,https://www.zillow.com/homedetails/6102-W-Mulberry-Dr-Phoenix-AZ-85033/7498385_zpid/,33.4872,-112.19200000000001,6321,2017-04-22
364303,22743539,"9353 W Taylor St, Tolleson, AZ 85353 ",85353,0.6971045434474945,0.6838525533676147,0.47671672200073445,99000,https://www.zillow.com/homedetails/9353-W-Taylor-St-Tolleson-AZ-85353/7477007_zpid/,33.4524,-112.26100000000001,6489,2017-10-07
257719,23869968,"919 W Anderson Dr, Phoenix, AZ 85023 ",85023,0.5396949350833893,0.8817073404788971,0.4758529858823062,155000,https://www.zillow.com/homedetails/919-W-Anderson-Dr-Phoenix-AZ-85023/7963528_zpid/,33.6429,-112.086,6591,2018-01-17
384323,23864506,"1344 W Joan De Arc Ave, Phoenix, AZ 85029 ",85029,0.5373524129390717,0.8849750757217407,0.475543492330015,210000,https://www.zillow.com/homedetails/1344-W-Joan-De-Arc-Ave-Phoenix-AZ-85029/7784468_zpid/,33.6078,-112.089,6584,2018-01-10
650458,23872026,"2419 W Naranja Ave, Mesa, AZ 85202 ",85202,0.5282065570354462,0.8993743658065796,0.4750554372486313,218000,https://www.zillow.com/homedetails/2419-W-Naranja-Ave-Mesa-AZ-85202/8251330_zpid/,33.3643,-111.88600000000001,6603,2018-01-29
224193,23881963,"14214 N 27th Dr, Phoenix, AZ 85053 ",85053,0.5447435081005096,0.8708661198616028,0.4743986652192884,247000,https://www.zillow.com/homedetails/14214-N-27th-Dr-Phoenix-AZ-85053/7942965_zpid/,33.6147,-112.118,6591,2018-01-17
1672854,23885683,"9702 W Cottonwood Dr, Sun City, AZ 85373 ",85373,0.5318282246589661,0.8903809785842896,0.4735297351105956,179000,https://www.zillow.com/homedetails/9702-W-Cottonwood-Dr-Sun-City-AZ-85373/8095213_zpid/,33.6447,-112.27,6591,2018-01-17
