property_id,transaction_id,address,zipcode,any_sell,good_sell,bayesian,list,url,lat,long,date_listed,transaction_date
7414060,13288806,"2040 N 72nd Ln, Phoenix, AZ 85035 ",85035,0.4255332797765732,0.9945363700389862,0.42320832339977743,200000,https://www.zillow.com/homedetails/2040-N-72nd-Ln-Phoenix-AZ-85035/2095313780_zpid/,33.4705,-112.215,6253,2017-02-13
646296,17862449,"2248 W Del Oro Cir, Mesa, AZ 85202 ",85202,0.4211195111274719,0.9945363700389862,0.4188186699493084,230000,https://www.zillow.com/homedetails/2248-W-Del-Oro-Cir-Mesa-AZ-85202/7602090_zpid/,33.4019,-111.88,6291,2017-03-23
497391,17864024,"6741 W Virginia Ave, Phoenix, AZ 85035 ",85035,0.4143228530883789,0.9945363700389862,0.4120591463347125,145800,https://www.zillow.com/homedetails/6741-W-Virginia-Ave-Phoenix-AZ-85035/7475866_zpid/,33.4765,-112.205,6278,2017-03-10
237883,17872058,"3009 W Charleston Ave, Phoenix, AZ 85053 ",85053,0.40016551315784454,0.9945363700389862,0.3979791568707909,220000,https://www.zillow.com/homedetails/3009-W-Charleston-Ave-Phoenix-AZ-85053/7940776_zpid/,33.6487,-112.124,6284,2017-03-16
392547,17866420,"3301 W Paradise Dr, Phoenix, AZ 85029 ",85029,0.3986053317785263,0.9945363700389862,0.3964274997452013,217500,https://www.zillow.com/homedetails/3301-W-Paradise-Dr-Phoenix-AZ-85029/7748604_zpid/,33.5947,-112.13,6275,2017-03-07
8958977,23756263,"2545 E Piute Ave, Phoenix, AZ 85050 ",85050,0.4295896887779236,0.890121728181839,0.3823871161841037,159000,https://www.zillow.com/homedetails/2545-E-Piute-Ave-Phoenix-AZ-85050/7994601_zpid/,33.6629,-112.027,6495,2017-10-13
422412,23760087,"6622 W Golden Ln, Glendale, AZ 85302 ",85302,0.426053985953331,0.8956995606422424,0.3816163680282747,190000,https://www.zillow.com/homedetails/6622-W-Golden-Ln-Glendale-AZ-85302/50187805_zpid/,33.5652,-112.20200000000001,6502,2017-10-20
7413432,13306387,"7110 E Continental Dr, Scottsdale, AZ 85257 ",85257,0.3816671222448349,0.9945363700389862,0.3795818343206041,150000,https://www.zillow.com/homedetails/7110-E-Continental-Dr-Scottsdale-AZ-85257/2111146291_zpid/,33.4595,-111.928,6248,2017-02-08
450692,23753402,"8742 W Edgemont Ave, Phoenix, AZ 85037 ",85037,0.4143373370170593,0.9050493836402893,0.37499575148644837,190000,https://www.zillow.com/homedetails/8742-W-Edgemont-Ave-Phoenix-AZ-85037/7473770_zpid/,33.4794,-112.249,6494,2017-10-12
345142,23753531,"1739 E Bluefield Ave, Phoenix, AZ 85022 ",85022,0.4177395701408386,0.8943527936935425,0.37360655159179856,224900,https://www.zillow.com/homedetails/1739-E-Bluefield-Ave-Phoenix-AZ-85022/8001407_zpid/,33.6526,-112.044,6498,2017-10-16
344420,17868383,"2408 W Mohave St, Phoenix, AZ 85009 ",85009,0.37534475326538086,0.9945363700389862,0.3732940084257308,120000,https://www.zillow.com/homedetails/2408-W-Mohave-St-Phoenix-AZ-85009/94639214_zpid/,33.4316,-112.111,6256,2017-02-16
1090459,23810641,"631 W Caroline Ln, Chandler, AZ 85225 ",85225,0.4035450369119644,0.9216211140155792,0.3719156264742627,230000,https://www.zillow.com/homedetails/631-W-Caroline-Ln-Chandler-AZ-85225/8183658_zpid/,33.3304,-111.851,6509,2017-10-27
450658,23828592,"8740 W Earll Dr, Phoenix, AZ 85037 ",85037,0.41107919812202454,0.9042174220085144,0.37170497276722436,129999,https://www.zillow.com/homedetails/8740-W-Earll-Dr-Phoenix-AZ-85037/7479995_zpid/,33.4838,-112.249,6509,2017-10-27
559942,16039077,"1331 W Baseline Rd, Mesa, AZ 85202 ",85202,0.3713705539703369,0.9945363700389862,0.3693415226850263,135000,http://www.zillow.com/homedetails/1331-W-Baseline-Rd-Mesa-AZ-85202/2103729629_zpid/,33.3778,-111.86200000000001,6242,2017-02-02
9022078,23810726,"1132 E Villa Maria Dr, Phoenix, AZ 85022 ",85022,0.4113476723432541,0.896612286567688,0.36881937707398116,215000,https://www.zillow.com/homedetails/1132-E-Villa-Maria-Dr-Phoenix-AZ-85022/8002438_zpid/,33.6518,-112.057,6509,2017-10-27
497370,23828357,"6740 W Encanto Blvd, Phoenix, AZ 85035 ",85035,0.4099504202604294,0.8965683877468109,0.36754858734902074,195000,https://www.zillow.com/homedetails/6740-W-Encanto-Blvd-Phoenix-AZ-85035/7475724_zpid/,33.4737,-112.205,6499,2017-10-17
240418,17871990,"17441 N 9th Ave, Phoenix, AZ 85023 ",85023,0.3683913052082062,0.9945363700389862,0.36637855143569364,219900,https://www.zillow.com/homedetails/17441-N-9th-Ave-Phoenix-AZ-85023/7963646_zpid/,33.6458,-112.085,6284,2017-03-16
7399050,13303764,"6901 W Villa Rd, Phoenix, AZ 85033 ",85033,0.3650852143764496,0.9945363700389862,0.36309052386085927,69900,https://www.zillow.com/homedetails/6901-W-Villa-Rd-Phoenix-AZ-85033/2120298628_zpid/,33.4952,-112.208,6239,2017-01-30
261479,23789366,"4757 W Topeka Dr, Glendale, AZ 85308 ",85308,0.4166250675916672,0.8699791729450226,0.36245513173156274,225000,https://www.zillow.com/homedetails/4757-W-Topeka-Dr-Glendale-AZ-85308/7939742_zpid/,33.6603,-112.164,6302,2017-04-03
22933,22734467,"8739 W Fairmount Ave, Phoenix, AZ 85037 ",85037,0.4115986227989197,0.8777941763401031,0.3612988740824985,170000,https://www.zillow.com/homedetails/8739-W-Fairmount-Ave-Phoenix-AZ-85037/7471067_zpid/,33.492,-112.24799999999999,6485,2017-10-03
234640,23785215,"2751 W Acoma Dr, Phoenix, AZ 85053 ",85053,0.42555664479732513,0.8482301235198975,0.36096996538114823,210000,https://www.zillow.com/homedetails/2751-W-Acoma-Dr-Phoenix-AZ-85053/7942788_zpid/,33.6166,-112.12,6283,2017-03-15
258476,23717515,"614 W Rosemonte Dr, Phoenix, AZ 85027 ",85027,0.40413811802864075,0.8930802047252655,0.360927753186302,234900,https://www.zillow.com/homedetails/614-W-Rosemonte-Dr-Phoenix-AZ-85027/7968459_zpid/,33.657,-112.08200000000001,6494,2017-10-12
1356244,23823740,"6825 N 60th Ave, Glendale, AZ 85301 ",85301,0.40058164298534393,0.8997977375984192,0.36044245608167014,182000,https://www.zillow.com/homedetails/6825-N-60th-Ave-Glendale-AZ-85301/7707716_zpid/,33.5378,-112.189,6521,2017-11-08
9006564,23814082,"16612 N 28th Way, Phoenix, AZ 85032 ",85032,0.40687137842178345,0.8855581283569336,0.3603082563572002,194900,https://www.zillow.com/homedetails/16612-N-28th-Way-Phoenix-AZ-85032/8005824_zpid/,33.6376,-112.021,6511,2017-10-29
8969477,23756066,"9324 W Mountain View Rd, Peoria, AZ 85345 ",85345,0.3984517455101013,0.9027178287506104,0.3596894945687694,214000,https://www.zillow.com/homedetails/9324-W-Mountain-View-Rd-Peoria-AZ-85345/7697441_zpid/,33.5733,-112.26100000000001,6500,2017-10-18
7564801,23760240,"9711 W Alabama Ave, Sun City, AZ 85351 ",85351,0.40952563285827637,0.8746688961982727,0.35819933325704767,199900,https://www.zillow.com/homedetails/9711-W-Alabama-Ave-Sun-City-AZ-85351/7685981_zpid/,33.5933,-112.266,6502,2017-10-20
483971,22688771,"2734 N 73rd Gln, Phoenix, AZ 85035 ",85035,0.40865500271320343,0.8753243684768677,0.35770568217484744,209900,https://www.zillow.com/homedetails/2734-N-73rd-Gln-Phoenix-AZ-85035/95167972_zpid/,33.4783,-112.21799999999999,6470,2017-09-18
464422,17864414,"2845 W Solano Dr S, Phoenix, AZ 85017 ",85017,0.35901033878326416,0.9945363700389862,0.3570488391399742,129900,https://www.zillow.com/homedetails/2845-W-Solano-Dr-S-Phoenix-AZ-85017/7762948_zpid/,33.5209,-112.12100000000001,6233,2017-01-24
7405341,13303918,"3626 N 37th St, Phoenix, AZ 85018 ",85018,0.3583635836839676,0.9945363700389862,0.3564056176712156,119000,https://www.zillow.com/homedetails/3626-N-37th-St-Phoenix-AZ-85018/2104158165_zpid/,33.4905,-112.00200000000001,6240,2017-01-31
9018879,23808777,"4021 W Roosevelt St, Phoenix, AZ 85009 ",85009,0.40247952938079834,0.8827587962150574,0.35529234485739636,179990,https://www.zillow.com/homedetails/4021-W-Roosevelt-St-Phoenix-AZ-85009/2092569655_zpid/,33.4585,-112.147,6508,2017-10-26
1935131,16185935,"4950 N Miller Rd, Scottsdale, AZ 85251 ",85251,0.35713207721710205,0.9945363700389862,0.3551808396999796,171000,https://www.zillow.com/homedetails/4950-N-Miller-Rd-Scottsdale-AZ-85251/2116188615_zpid/,33.5086,-111.919,6250,2017-02-10
321332,17869476,"2862 N Greenfield Rd, Phoenix, AZ 85006 ",85006,0.35634057223796844,0.9945363700389862,0.3543936592111643,219900,https://www.zillow.com/homedetails/2862-N-Greenfield-Rd-Phoenix-AZ-85006/7530738_zpid/,33.4792,-112.03399999999999,6267,2017-02-27
9021871,23807926,"12120 N 89th Dr, Peoria, AZ 85345 ",85345,0.39548832178115845,0.8941761255264282,0.3536362152612256,249900,https://www.zillow.com/homedetails/12120-N-89th-Dr-Peoria-AZ-85345/7685583_zpid/,33.5947,-112.25200000000001,6507,2017-10-25
9013787,22693106,"5647 W Villa Theresa Dr, Glendale, AZ 85308 ",85308,0.40831948816776276,0.8595708608627319,0.3509795339513939,210000,https://www.zillow.com/homedetails/5647-W-Villa-Theresa-Dr-Glendale-AZ-85308/7901269_zpid/,33.6537,-112.182,6471,2017-09-19
424652,22494705,"9451 N 65th Ave, Glendale, AZ 85302 ",85302,0.4068413972854614,0.8622772693634033,0.3508100891152992,179999,https://www.zillow.com/homedetails/9451-N-65th-Ave-Glendale-AZ-85302/7703396_zpid/,33.573,-112.199,6426,2017-08-05
422357,23752505,"6612 W Brown St, Glendale, AZ 85302 ",85302,0.3914947211742401,0.896038830280304,0.35079447202187986,199000,https://www.zillow.com/homedetails/6612-W-Brown-St-Glendale-AZ-85302/7706362_zpid/,33.5783,-112.20100000000001,6496,2017-10-14
8989019,22747254,"2049 N 77th Gln, Phoenix, AZ 85035 ",85035,0.39747004210948944,0.8814877569675446,0.35036497588088933,168250,https://www.zillow.com/homedetails/2049-N-77th-Gln-Phoenix-AZ-85035/95149994_zpid/,33.4706,-112.226,6487,2017-10-05
350009,23781671,"18518 N 20th Pl, Phoenix, AZ 85022 ",85022,0.4165824353694916,0.8402318358421326,0.35002582445009445,225000,https://www.zillow.com/homedetails/18518-N-20th-Pl-Phoenix-AZ-85022/61629214_zpid/,33.6544,-112.038,6286,2017-03-18
402515,23808878,"15205 N 51st Dr, Glendale, AZ 85306 ",85306,0.39087794721126556,0.8944218754768372,0.3496097866272363,189900,https://www.zillow.com/homedetails/15205-N-51st-Dr-Glendale-AZ-85306/7910980_zpid/,33.6226,-112.169,6508,2017-10-26
522141,23828650,"9008 W Roma Ave, Phoenix, AZ 85037 ",85037,0.3859633058309555,0.9036092162132263,0.34876000026897547,164900,https://www.zillow.com/homedetails/9008-W-Roma-Ave-Phoenix-AZ-85037/7467364_zpid/,33.5003,-112.25299999999999,6515,2017-11-02
264257,23752112,"7723 W Oraibi Dr, Glendale, AZ 85308 ",85308,0.38872234523296356,0.8971647918224335,0.34874800193765987,244995,https://www.zillow.com/homedetails/7723-W-Oraibi-Dr-Glendale-AZ-85308/7891683_zpid/,33.6615,-112.22399999999999,6495,2017-10-13
233478,23794869,"19046 N 15th Ave, Phoenix, AZ 85027 ",85027,0.3957846760749817,0.8808351159095764,0.34862104102574065,229900,https://www.zillow.com/homedetails/19046-N-15th-Ave-Phoenix-AZ-85027/7969522_zpid/,33.6598,-112.09200000000001,6504,2017-10-22
9023660,23829074,"3140 E Michigan Ave, Phoenix, AZ 85032 ",85032,0.384838804602623,0.9050741791725159,0.3483076651894512,205000,https://www.zillow.com/homedetails/3140-E-Michigan-Ave-Phoenix-AZ-85032/7999282_zpid/,33.652,-112.014,6523,2017-11-10
43124,23755414,"7301 W Payson Rd, Phoenix, AZ 85043 ",85043,0.37739017605781555,0.9210278987884521,0.3475868808779339,195000,https://www.zillow.com/homedetails/7301-W-Payson-Rd-Phoenix-AZ-85043/60975135_zpid/,33.4225,-112.21700000000001,6500,2017-10-18
422454,22731449,"6652 W Delmonico Ln, Glendale, AZ 85302 ",85302,0.4009163826704025,0.8646619617938995,0.346657145955104,235000,https://www.zillow.com/homedetails/6652-W-Delmonico-Ln-Glendale-AZ-85302/50187742_zpid/,33.5645,-112.20200000000001,6481,2017-09-29
448364,23512346,"8402 W Fairmount Ave, Phoenix, AZ 85037 ",85037,0.38421930372714996,0.9012356102466583,0.34627211866308416,170000,https://www.zillow.com/homedetails/8402-W-Fairmount-Ave-Phoenix-AZ-85037/7470144_zpid/,33.4902,-112.24,6492,2017-10-10
355855,23833551,"702 E Rose Marie Ln, Phoenix, AZ 85022 ",85022,0.3858829289674759,0.8972489237785339,0.3462330427205762,247000,https://www.zillow.com/homedetails/702-E-Rose-Marie-Ln-Phoenix-AZ-85022/49942677_zpid/,33.6527,-112.065,6527,2017-11-14
243287,22690475,"3218 W Angela Dr, Phoenix, AZ 85053 ",85053,0.4022316485643387,0.8607611358165741,0.34622537067961323,209000,https://www.zillow.com/homedetails/3218-W-Angela-Dr-Phoenix-AZ-85053/7942085_zpid/,33.6461,-112.12899999999999,6470,2017-09-18
8984109,23843223,"7426 W Carol Ave, Peoria, AZ 85345 ",85345,0.38259267807006836,0.9045472741127014,0.34607316404375865,195000,https://www.zillow.com/homedetails/7426-W-Carol-Ave-Peoria-AZ-85345/7702134_zpid/,33.5726,-112.219,6537,2017-11-24
1415032,23792388,"7420 N 69th Ln, Glendale, AZ 85303 ",85303,0.42094360291957855,0.8203012347221375,0.34530055722331543,185000,https://www.zillow.com/homedetails/7420-N-69th-Ln-Glendale-AZ-85303/7704959_zpid/,33.5444,-112.21,6235,2017-01-26
9021086,23815044,"8137 W Aster Dr, Peoria, AZ 85381 ",85381,0.38161472976207733,0.9033232033252716,0.34472144012478756,239000,https://www.zillow.com/homedetails/8137-W-Aster-Dr-Peoria-AZ-85381/8100990_zpid/,33.6013,-112.235,6512,2017-10-30
9012276,23755797,"5861 W Grovers Ave, Glendale, AZ 85308 ",85308,0.38876447081565857,0.8866460621356964,0.34469648714697154,207000,https://www.zillow.com/homedetails/5861-W-Grovers-Ave-Glendale-AZ-85308/8099781_zpid/,33.6472,-112.186,6500,2017-10-18
445578,23843131,"4653 N 99th Dr, Phoenix, AZ 85037 ",85037,0.3806086778640747,0.9035222828388214,0.3438884214920144,200000,https://www.zillow.com/homedetails/4653-N-99th-Dr-Phoenix-AZ-85037/7484444_zpid/,33.5037,-112.273,6534,2017-11-21
8977160,23825434,"16231 N 91st Dr, Peoria, AZ 85382 ",85382,0.3758504092693329,0.9145552217960358,0.34373595441144555,233000,https://www.zillow.com/homedetails/16231-N-91st-Dr-Peoria-AZ-85382/2123153916_zpid/,33.6316,-112.25200000000001,6526,2017-11-13
450552,22126108,"8733 W Indianola Ave, Phoenix, AZ 85037 ",85037,0.4115986227989197,0.8326046466827393,0.3426989259105966,169900,https://www.zillow.com/homedetails/8733-W-Indianola-Ave-Phoenix-AZ-85037/7470962_zpid/,33.4911,-112.24799999999999,6325,2017-04-26
455626,23813601,"4732 N 54th Dr, Phoenix, AZ 85031 ",85031,0.38851405680179596,0.8809402883052826,0.34225768520962907,169000,https://www.zillow.com/homedetails/4732-N-54th-Dr-Phoenix-AZ-85031/7713824_zpid/,33.5068,-112.177,6509,2017-10-27
350131,22705127,"6405 W Preston Ln, Phoenix, AZ 85043 ",85043,0.3781992346048355,0.9045754075050354,0.34210972676076157,187000,https://www.zillow.com/homedetails/6405-W-Preston-Ln-Phoenix-AZ-85043/55257428_zpid/,33.4235,-112.198,6474,2017-09-22
246567,22745687,"3407 W Port Au Prince Ln, Phoenix, AZ 85053 ",85053,0.38981007039546967,0.8761842846870422,0.34154545769326017,175000,https://www.zillow.com/homedetails/3407-W-Port-Au-Prince-Ln-Phoenix-AZ-85053/7943671_zpid/,33.6229,-112.132,6491,2017-10-09
350177,22541766,"6408 W Cordes Rd, Phoenix, AZ 85043 ",85043,0.3836220055818558,0.8896792531013489,0.34130053939930693,169900,https://www.zillow.com/homedetails/6408-W-Cordes-Rd-Phoenix-AZ-85043/49641248_zpid/,33.4216,-112.197,6442,2017-08-21
412062,23570538,"5339 W Cholla St, Glendale, AZ 85304 ",85304,0.38244493305683136,0.8921070396900177,0.3411818170737768,209000,https://www.zillow.com/homedetails/5339-W-Cholla-St-Glendale-AZ-85304/7736846_zpid/,33.5891,-112.175,6494,2017-10-12
8964694,23800320,"9084 N 80th Ln, Peoria, AZ 85345 ",85345,0.4049098640680313,0.8415895998477936,0.34076793047543896,170000,https://www.zillow.com/homedetails/9084-N-80th-Ln-Peoria-AZ-85345/50187199_zpid/,33.5677,-112.23299999999999,6422,2017-08-01
450526,23793670,"8731 W Earll Dr, Phoenix, AZ 85037 ",85037,0.40997040271759033,0.8283129930496216,0.33958381133676596,149000,https://www.zillow.com/homedetails/8731-W-Earll-Dr-Phoenix-AZ-85037/7479986_zpid/,33.4833,-112.24799999999999,6284,2017-03-16
8950822,21960213,"7406 W Eva St, Peoria, AZ 85345 ",85345,0.4229299873113632,0.8021564185619354,0.3392560039241279,185000,https://www.zillow.com/homedetails/7406-W-Eva-St-Peoria-AZ-85345/7702481_zpid/,33.5683,-112.21799999999999,6346,2017-05-17
1349271,23815006,"5556 W Gardenia Ave, Glendale, AZ 85301 ",85301,0.37647759914398193,0.9003088176250458,0.3389461021476343,174900,https://www.zillow.com/homedetails/5556-W-Gardenia-Ave-Glendale-AZ-85301/2136646466_zpid/,33.5451,-112.18,6512,2017-10-30
7419652,23752910,"4450 N 37TH Ave, Phoenix, AZ 85019 ",85019,0.3871298283338547,0.8745694160461426,0.3385719078999827,240000,https://www.zillow.com/homedetails/4450-N-37TH-Ave-Phoenix-AZ-85019/95137035_zpid/,33.5016,-112.139,6497,2017-10-15
9026004,23861172,"7312 W Eugie Ave, Peoria, AZ 85381 ",85381,0.37138524651527405,0.9111950695514679,0.3384044055288742,195000,https://www.zillow.com/homedetails/7312-W-Eugie-Ave-Peoria-AZ-85381/7925183_zpid/,33.6082,-112.21600000000001,6531,2017-11-18
354621,23808089,"2310 E Winchcomb Dr, Phoenix, AZ 85022 ",85022,0.38340047001838684,0.8823941648006439,0.3383103375260488,224900,https://www.zillow.com/homedetails/2310-E-Winchcomb-Dr-Phoenix-AZ-85022/8010116_zpid/,33.6168,-112.03399999999999,6507,2017-10-25
9018003,23819878,"1842 W Alamo Dr, Chandler, AZ 85224 ",85224,0.36896272003650665,0.9165565371513367,0.33817519301459864,244500,https://www.zillow.com/homedetails/1842-W-Alamo-Dr-Chandler-AZ-85224/8199834_zpid/,33.3482,-111.875,6516,2017-11-03
8970849,23830064,"3715 E Delcoa Dr, Phoenix, AZ 85032 ",85032,0.38586941361427307,0.8759260177612305,0.33799305884301134,220000,https://www.zillow.com/homedetails/3715-E-Delcoa-Dr-Phoenix-AZ-85032/7813615_zpid/,33.6109,-112.00200000000001,6507,2017-10-25
1413226,22747483,"7301 W Cavalier Dr, Glendale, AZ 85303 ",85303,0.3743831664323807,0.9012191891670227,0.3374012936899726,179900,https://www.zillow.com/homedetails/7301-W-Cavalier-Dr-Glendale-AZ-85303/7707198_zpid/,33.5243,-112.21600000000001,6492,2017-10-10
354125,22802972,"2231 E Everett Dr, Phoenix, AZ 85022 ",85022,0.38867875933647156,0.8679492175579071,0.33735342504746857,206900,https://www.zillow.com/homedetails/2231-E-Everett-Dr-Phoenix-AZ-85022/8014080_zpid/,33.6195,-112.03399999999999,6492,2017-10-10
1372616,23837733,"8549 W Tuckey Ln, Glendale, AZ 85305 ",85305,0.367011159658432,0.9169312119483948,0.3365239874241919,206000,https://www.zillow.com/homedetails/8549-W-Tuckey-Ln-Glendale-AZ-85305/7461499_zpid/,33.533,-112.245,6532,2017-11-19
450270,23853373,"8713 W Wilshire Dr, Phoenix, AZ 85037 ",85037,0.3665105402469635,0.917730838060379,0.3363580252588081,200000,https://www.zillow.com/homedetails/8713-W-Wilshire-Dr-Phoenix-AZ-85037/7473941_zpid/,33.4756,-112.24700000000001,6526,2017-11-13
484005,23821708,"2696 N 73rd Gln, Phoenix, AZ 85035 ",85035,0.3698490709066391,0.9086330235004425,0.33605707953672903,210000,https://www.zillow.com/homedetails/2696-N-73rd-Gln-Phoenix-AZ-85035/95155175_zpid/,33.4779,-112.21799999999999,6513,2017-10-31
9018953,23821610,"1515 W Utopia Rd, Phoenix, AZ 85027 ",85027,0.3817819803953171,0.8798795640468597,0.33592216247117834,210000,https://www.zillow.com/homedetails/1515-W-Utopia-Rd-Phoenix-AZ-85027/7969635_zpid/,33.6617,-112.09200000000001,6518,2017-11-05
43395,23752723,"7911 W Hilton Ave, Phoenix, AZ 85043 ",85043,0.36260654032230377,0.9262160360813141,0.3358519924344834,232000,https://www.zillow.com/homedetails/7911-W-Hilton-Ave-Phoenix-AZ-85043/50893343_zpid/,33.4289,-112.23,6497,2017-10-15
224188,23754064,"14213 N 35th Dr, Phoenix, AZ 85053 ",85053,0.38181935250759125,0.8795157372951508,0.3358161293342712,200000,https://www.zillow.com/homedetails/14213-N-35th-Dr-Phoenix-AZ-85053/7944539_zpid/,33.6154,-112.135,6498,2017-10-16
501018,22711998,"7420 W Alvarado Rd, Phoenix, AZ 85035 ",85035,0.3945958614349365,0.8504470884799957,0.3355829014835976,119900,https://www.zillow.com/homedetails/7420-W-Alvarado-Rd-Phoenix-AZ-85035/7474905_zpid/,33.4717,-112.22,6475,2017-09-23
496469,22536294,"6526 W Holly St, Phoenix, AZ 85035 ",85035,0.4143228530883789,0.8089245557785034,0.33515592988339904,169499,https://www.zillow.com/homedetails/6526-W-Holly-St-Phoenix-AZ-85035/7490333_zpid/,33.471,-112.20100000000001,6408,2017-07-18
8989113,22740158,"19153 N 75th Dr, Glendale, AZ 85308 ",85308,0.38872234523296356,0.8609629273414612,0.3346755282748104,235000,https://www.zillow.com/homedetails/19153-N-75th-Dr-Glendale-AZ-85308/7892099_zpid/,33.6583,-112.221,6487,2017-10-05
9020725,23815067,"9537 W Sunnyslope Ln, Peoria, AZ 85345 ",85345,0.36983655393123627,0.9048393964767456,0.3346426842541792,224000,https://www.zillow.com/homedetails/9537-W-Sunnyslope-Ln-Peoria-AZ-85345/7697879_zpid/,33.5693,-112.265,6512,2017-10-30
5088735,23778838,"1314 W Cortez Ct, Chandler, AZ 85224 ",85224,0.38165830075740814,0.8765200972557068,0.3345311708983312,239900,https://www.zillow.com/homedetails/1314-W-Cortez-Ct-Chandler-AZ-85224/8172443_zpid/,33.3557,-111.865,6270,2017-03-02
239765,21170292,"3054 W Acoma Dr, Phoenix, AZ 85053 ",85053,0.414002925157547,0.8074726462364197,0.3342960375265829,198500,http://www.zillow.com/homedetails/3054-W-Acoma-Dr-Phoenix-AZ-85053/7942812_zpid/,33.6179,-112.125,6272,2017-03-04
432541,22734473,"7113 W Sheila Ln, Phoenix, AZ 85033 ",85033,0.37874414026737213,0.8819202482700348,0.3340221262154217,189000,https://www.zillow.com/homedetails/7113-W-Sheila-Ln-Phoenix-AZ-85033/55257199_zpid/,33.4878,-112.213,6485,2017-10-03
524930,22304530,"9134 W Vernon Ave, Phoenix, AZ 85037 ",85037,0.394276961684227,0.847137063741684,0.3340066276221685,249000,https://www.zillow.com/homedetails/9134-W-Vernon-Ave-Phoenix-AZ-85037/67764424_zpid/,33.473,-112.257,6401,2017-07-11
225959,23779726,"1502 E Taro Ln, Phoenix, AZ 85024 ",85024,0.40077145397663116,0.8323219120502472,0.3335708628689873,208500,https://www.zillow.com/homedetails/1502-E-Taro-Ln-Phoenix-AZ-85024/7995794_zpid/,33.6595,-112.05,6283,2017-03-15
9021813,23820289,"8528 W Eva St, Peoria, AZ 85345 ",85345,0.3708280622959137,0.8991375267505646,0.33342542678245213,186000,https://www.zillow.com/homedetails/8528-W-Eva-St-Peoria-AZ-85345/7696910_zpid/,33.5674,-112.243,6516,2017-11-03
9023033,23823351,"437 E Wescott Dr, Phoenix, AZ 85024 ",85024,0.3707437366247177,0.8979860544204712,0.3329227052527326,225000,https://www.zillow.com/homedetails/437-E-Wescott-Dr-Phoenix-AZ-85024/2092120604_zpid/,33.6585,-112.068,6521,2017-11-08
420568,22722083,"5807 W Puget Ave, Glendale, AZ 85302 ",85302,0.38053810596466064,0.874354213476181,0.3327250963384465,200000,https://www.zillow.com/homedetails/5807-W-Puget-Ave-Glendale-AZ-85302/7733279_zpid/,33.5668,-112.185,6477,2017-09-25
1374907,23793911,"9008 W Nicolet Ave, Glendale, AZ 85305 ",85305,0.3983568400144577,0.8348633050918579,0.33257350806041863,231798,https://www.zillow.com/homedetails/9008-W-Nicolet-Ave-Glendale-AZ-85305/95082341_zpid/,33.5415,-112.25299999999999,6263,2017-02-23
9019224,23831968,"8005 W Shaw Butte Dr, Peoria, AZ 85345 ",85345,0.3658655285835266,0.9086922705173492,0.33245917787259494,225500,https://www.zillow.com/homedetails/8005-W-Shaw-Butte-Dr-Peoria-AZ-85345/7680677_zpid/,33.5951,-112.23100000000001,6527,2017-11-14
9019482,23822508,"8505 W Oraibi Dr, Peoria, AZ 85382 ",85382,0.36770252883434296,0.902308851480484,0.33178124647898555,240000,https://www.zillow.com/homedetails/8505-W-Oraibi-Dr-Peoria-AZ-85382/8105887_zpid/,33.6616,-112.242,6518,2017-11-05
9023486,23827318,"9908 W Crosby Cir N, Sun City, AZ 85351 ",85351,0.3740580230951309,0.8857838809490204,0.33133456739732337,140000,https://www.zillow.com/homedetails/9908-W-Crosby-Cir-N-Sun-City-AZ-85351/7694583_zpid/,33.5838,-112.273,6526,2017-11-13
503618,23782296,"2007 N 78th Ave, Phoenix, AZ 85035 ",85035,0.39747004210948944,0.8330493867397308,0.33111217482672517,170000,https://www.zillow.com/homedetails/2007-N-78th-Ave-Phoenix-AZ-85035/82823153_zpid/,33.4698,-112.227,6256,2017-02-16
226007,23837043,"1415 W Topeka Dr, Phoenix, AZ 85027 ",85027,0.36637063324451447,0.903738260269165,0.3311031587021098,248000,https://www.zillow.com/homedetails/1415-W-Topeka-Dr-Phoenix-AZ-85027/7971784_zpid/,33.6594,-112.089,6529,2017-11-16
401171,22726857,"14216 N 45th Dr, Glendale, AZ 85306 ",85306,0.3906794935464859,0.8471658229827881,0.3309703146728076,199900,https://www.zillow.com/homedetails/14216-N-45th-Dr-Glendale-AZ-85306/7952135_zpid/,33.6149,-112.15700000000001,6478,2017-09-26
379250,23806503,"2622 W Northview Ave, Phoenix, AZ 85051 ",85051,0.4036233276128769,0.8197992444038391,0.3308900990007997,169900,https://www.zillow.com/homedetails/2622-W-Northview-Ave-Phoenix-AZ-85051/7779483_zpid/,33.5439,-112.115,6507,2017-10-25
9019605,22737585,"9213 W Fillmore St, Tolleson, AZ 85353 ",85353,0.40026891231536865,0.8264225125312805,0.3307912402038298,195000,https://www.zillow.com/homedetails/9213-W-Fillmore-St-Tolleson-AZ-85353/7476932_zpid/,33.4532,-112.258,6486,2017-10-04
416034,23808888,"4413 W Mission Ln, Glendale, AZ 85302 ",85302,0.37121060490608215,0.8907023072242737,0.33063814225596566,184500,https://www.zillow.com/homedetails/4413-W-Mission-Ln-Glendale-AZ-85302/7729654_zpid/,33.5689,-112.155,6508,2017-10-26
435965,23838336,"2237 N 94th Ave, Phoenix, AZ 85037 ",85037,0.3653109669685364,0.9043065905570984,0.3303531150324339,229900,https://www.zillow.com/homedetails/2237-N-94th-Ave-Phoenix-AZ-85037/67773064_zpid/,33.4752,-112.26100000000001,6534,2017-11-21
7450963,23779216,"13854 N 91st Dr, Peoria, AZ 85381 ",85381,0.39634932577610016,0.8324786722660065,0.3299523604756147,225000,https://www.zillow.com/homedetails/13854-N-91st-Dr-Peoria-AZ-85381/7908457_zpid/,33.6103,-112.256,6284,2017-03-16
450587,23832013,"8735 W Catalina Dr, Phoenix, AZ 85037 ",85037,0.36401258409023285,0.9057354927062988,0.3296991172022601,164000,https://www.zillow.com/homedetails/8735-W-Catalina-Dr-Phoenix-AZ-85037/7479803_zpid/,33.4815,-112.24799999999999,6517,2017-11-04
523313,23853404,"9025 W Mulberry Dr, Phoenix, AZ 85037 ",85037,0.3638808876276016,0.9052291810512543,0.3293955979073373,185000,https://www.zillow.com/homedetails/9025-W-Mulberry-Dr-Phoenix-AZ-85037/92351474_zpid/,33.486,-112.25399999999999,6530,2017-11-17
1469883,23825764,"8507 W Oraibi Dr, Peoria, AZ 85382 ",85382,0.36418409645557404,0.9040303230285645,0.32923346636059847,237500,https://www.zillow.com/homedetails/8507-W-Oraibi-Dr-Peoria-AZ-85382/8105886_zpid/,33.6613,-112.242,6524,2017-11-11
230822,23837058,"19206 N 4th St, Phoenix, AZ 85024 ",85024,0.36612313985824585,0.8988771140575409,0.32909971134546545,225000,https://www.zillow.com/homedetails/19206-N-4th-St-Phoenix-AZ-85024/7972304_zpid/,33.6605,-112.07,6529,2017-11-16
9023935,23834938,"18241 N 31st St, Phoenix, AZ 85032 ",85032,0.36792466044425964,0.8932958245277405,0.32866556291564386,225000,https://www.zillow.com/homedetails/18241-N-31st-St-Phoenix-AZ-85032/7999264_zpid/,33.6531,-112.016,6530,2017-11-17
9023880,23833725,"3454 E Libby St, Phoenix, AZ 85032 ",85032,0.37233395874500275,0.8825611770153046,0.3286074968727575,233000,https://www.zillow.com/homedetails/3454-E-Libby-St-Phoenix-AZ-85032/92349104_zpid/,33.6476,-112.005,6528,2017-11-15
1864035,23827306,"9916 W Pinehurst Dr, Sun City, AZ 85351 ",85351,0.3661711663007736,0.897137850522995,0.3285060130585742,179000,https://www.zillow.com/homedetails/9916-W-Pinehurst-Dr-Sun-City-AZ-85351/7694613_zpid/,33.5818,-112.274,6526,2017-11-13
9024051,23836152,"9867 N Balboa Dr, Sun City, AZ 85351 ",85351,0.36794283986091614,0.8919509649276733,0.32818697105217254,140000,https://www.zillow.com/homedetails/9867-N-Balboa-Dr-Sun-City-AZ-85351/7695490_zpid/,33.5723,-112.273,6528,2017-11-15
1960784,22678331,"7424 W Minnezona Ave, Phoenix, AZ 85033 ",85033,0.37905046343803406,0.8645296692848206,0.32770037179834155,175000,https://www.zillow.com/homedetails/7424-W-Minnezona-Ave-Phoenix-AZ-85033/7710976_zpid/,33.5028,-112.219,6467,2017-09-15
9011928,23753384,"7411 W Wolf St, Phoenix, AZ 85033 ",85033,0.3603729009628296,0.908886581659317,0.3275380940787578,229900,https://www.zillow.com/homedetails/7411-W-Wolf-St-Phoenix-AZ-85033/95184996_zpid/,33.5059,-112.219,6494,2017-10-12
446554,23770921,"4817 N 92nd Dr, Phoenix, AZ 85037 ",85037,0.3919674754142761,0.8344730138778687,0.3270862805510504,218000,http://www.zillow.com/homedetails/4817-N-92nd-Dr-Phoenix-AZ-85037/7466453_zpid,33.5076,-112.258,6266,2017-02-26
1406612,23791492,"6765 N 74th Dr, Glendale, AZ 85303 ",85303,0.3923923075199127,0.8329140245914459,0.3268290560751348,210000,https://www.zillow.com/homedetails/6765-N-74th-Dr-Glendale-AZ-85303/14094753_zpid/,33.5349,-112.22,6283,2017-03-15
976591,23840164,"803 N Laveen Dr, Chandler, AZ 85226 ",85226,0.3552583307027817,0.9195632040500641,0.3266824888465272,240000,https://www.zillow.com/homedetails/803-N-Laveen-Dr-Chandler-AZ-85226/8264997_zpid/,33.3165,-111.91,6535,2017-11-22
7520977,22428537,"7562 W Turquoise Ave, Peoria, AZ 85345 ",85345,0.4009891748428345,0.81468266248703,0.3266789285894376,189900,https://www.zillow.com/homedetails/7562-W-Turquoise-Ave-Peoria-AZ-85345/7682178_zpid/,33.5747,-112.223,6327,2017-04-28
484854,23817893,"2833 N 73rd Dr, Phoenix, AZ 85035 ",85035,0.35857440531253815,0.9101403653621674,0.32635304026067535,190000,https://www.zillow.com/homedetails/2833-N-73rd-Dr-Phoenix-AZ-85035/92692586_zpid/,33.4796,-112.21600000000001,6514,2017-11-01
422210,23835261,"6538 W Vogel Ave, Glendale, AZ 85302 ",85302,0.358637198805809,0.9095459878444672,0.3261970252656021,209000,https://www.zillow.com/homedetails/6538-W-Vogel-Ave-Glendale-AZ-85302/7703283_zpid/,33.5724,-112.20100000000001,6529,2017-11-16
392592,23803343,"3302 W Pershing Ave, Phoenix, AZ 85029 ",85029,0.3778384029865265,0.8621414005756378,0.3257501299420662,189900,https://www.zillow.com/homedetails/3302-W-Pershing-Ave-Phoenix-AZ-85029/7745089_zpid/,33.6058,-112.12899999999999,6504,2017-10-22
312249,23814876,"1433 S 14th Ave, Phoenix, AZ 85007 ",85007,0.38520315289497375,0.8456148207187653,0.32573349507558635,174900,https://www.zillow.com/homedetails/1433-S-14th-Ave-Phoenix-AZ-85007/7500688_zpid/,33.4338,-112.09,6511,2017-10-29
381842,23829311,"12409 N 36th Dr, Phoenix, AZ 85029 ",85029,0.40576839447021484,0.8026884198188782,0.32570559136974,174900,https://www.zillow.com/homedetails/12409-N-36th-Dr-Phoenix-AZ-85029/7743051_zpid/,33.5986,-112.13600000000001,6424,2017-08-03
833447,23561389,"5713 N 42nd Ave, Phoenix, AZ 85019 ",85019,0.36772944033145905,0.8845673203468323,0.3252814456466391,165000,https://www.zillow.com/homedetails/5713-N-42nd-Ave-Phoenix-AZ-85019/7718429_zpid/,33.5207,-112.148,6495,2017-10-13
8976262,22541368,"2918 E Nisbet Ct, Phoenix, AZ 85032 ",85032,0.38788191974163055,0.8376718163490295,0.32491775223892017,219500,https://www.zillow.com/homedetails/2918-E-Nisbet-Ct-Phoenix-AZ-85032/8011642_zpid/,33.6234,-112.01899999999999,6440,2017-08-19
1410407,23835273,"7080 W Glenn Dr, Glendale, AZ 85303 ",85303,0.35928550362586975,0.9027869701385498,0.3243582712331019,234900,https://www.zillow.com/homedetails/7080-W-Glenn-Dr-Glendale-AZ-85303/55173602_zpid/,33.5399,-112.211,6528,2017-11-15
243119,22391945,"18226 N 10th Dr, Phoenix, AZ 85023 ",85023,0.39034608006477356,0.8309386372566223,0.32435363982748733,225000,https://www.zillow.com/homedetails/18226-N-10th-Dr-Phoenix-AZ-85023/7956715_zpid/,33.652,-112.086,6401,2017-07-11
5187885,23794657,"9915 W Tarrytown Ave, Sun City, AZ 85351 ",85351,0.4028758108615875,0.8035460710525513,0.3237292749399394,179000,https://www.zillow.com/homedetails/9915-W-Tarrytown-Ave-Sun-City-AZ-85351/7688483_zpid/,33.5783,-112.274,6290,2017-03-22
384676,23814267,"3501 W Ironwood Dr, Phoenix, AZ 85051 ",85051,0.3665088415145874,0.8824531137943268,0.3234268684276991,239900,https://www.zillow.com/homedetails/3501-W-Ironwood-Dr-Phoenix-AZ-85051/7745307_zpid/,33.5759,-112.134,6511,2017-10-29
242590,22686911,"3202 W Angela Dr, Phoenix, AZ 85053 ",85053,0.3794665038585663,0.8522628843784332,0.32340521710350156,234900,https://www.zillow.com/homedetails/3202-W-Angela-Dr-Phoenix-AZ-85053/7942083_zpid/,33.6461,-112.12799999999999,6464,2017-09-12
1880865,23823728,"6344 W Tuckey Ln, Glendale, AZ 85301 ",85301,0.36554060876369476,0.8822203278541565,0.32248735570751474,199900,https://www.zillow.com/homedetails/6344-W-Tuckey-Ln-Glendale-AZ-85301/7708037_zpid/,33.5341,-112.197,6521,2017-11-08
481368,23814944,"2346 N 47th Ln, Phoenix, AZ 85035 ",85035,0.3668072819709778,0.8780438899993896,0.3220728927419003,174900,https://www.zillow.com/homedetails/2346-N-47th-Ln-Phoenix-AZ-85035/7499146_zpid/,33.4749,-112.162,6511,2017-10-29
9021527,23824183,"7384 W Greer Ave, Peoria, AZ 85345 ",85345,0.35419273376464844,0.9086866080760956,0.32185019384979796,209900,https://www.zillow.com/homedetails/7384-W-Greer-Ave-Peoria-AZ-85345/7701234_zpid/,33.5882,-112.21799999999999,6522,2017-11-09
9021586,23838024,"8142 W Sweetwater Ave, Peoria, AZ 85381 ",85381,0.3563897907733917,0.9026088714599609,0.3216805868498227,240000,https://www.zillow.com/homedetails/8142-W-Sweetwater-Ave-Peoria-AZ-85381/7913307_zpid/,33.6028,-112.235,6529,2017-11-16
9023475,23827261,"12202 N Balboa Dr, Sun City, AZ 85351 ",85351,0.362362802028656,0.8875872194766998,0.32162859189440063,159500,https://www.zillow.com/homedetails/12202-N-Balboa-Dr-Sun-City-AZ-85351/7916635_zpid/,33.5958,-112.274,6526,2017-11-13
1354557,23800556,"6504 N 61st Ave, Glendale, AZ 85301 ",85301,0.40330903232097626,0.7965427339076996,0.3212528792146192,125000,https://www.zillow.com/homedetails/6504-N-61st-Ave-Glendale-AZ-85301/7707995_zpid/,33.5315,-112.191,6506,2017-10-24
149903,23800141,"8309 E Indian School Rd, Scottsdale, AZ 85251 ",85251,0.37368184328079224,0.8592407405376434,0.32108266374605954,239850,https://www.zillow.com/homedetails/8309-E-Indian-School-Rd-Scottsdale-AZ-85251/7577019_zpid/,33.4948,-111.902,6497,2017-10-15
8977430,22376634,"1505 W Hadley St, Phoenix, AZ 85007 ",85007,0.40949250757694244,0.7837820649147034,0.32095288315575576,180000,https://www.zillow.com/homedetails/1505-W-Hadley-St-Phoenix-AZ-85007/2112748542_zpid/,33.4392,-112.09200000000001,6414,2017-07-24
7445518,23781525,"18009 N 89th Dr, Peoria, AZ 85382 ",85382,0.3767251670360565,0.8512230515480042,0.3206771462793636,240000,https://www.zillow.com/homedetails/18009-N-89th-Dr-Peoria-AZ-85382/8105128_zpid/,33.6473,-112.251,6280,2017-03-12
501068,23853288,"7426 W Monte Vista Rd, Phoenix, AZ 85035 ",85035,0.35725362598896027,0.8972915410995483,0.3205606566270358,155000,https://www.zillow.com/homedetails/7426-W-Monte-Vista-Rd-Phoenix-AZ-85035/7474922_zpid/,33.471,-112.22,6528,2017-11-15
469895,23526992,"3401 W Tuckey Ln, Phoenix, AZ 85017 ",85017,0.3638406842947006,0.8809524774551392,0.32052635222838965,169000,https://www.zillow.com/homedetails/3401-W-Tuckey-Ln-Phoenix-AZ-85017/7760733_zpid/,33.5332,-112.132,6493,2017-10-11
364303,22743539,"9353 W Taylor St, Tolleson, AZ 85353 ",85353,0.40687593817710876,0.7860782742500305,0.31983633531612377,99000,https://www.zillow.com/homedetails/9353-W-Taylor-St-Tolleson-AZ-85353/7477007_zpid/,33.4524,-112.26100000000001,6489,2017-10-07
236208,23512189,"2919 W Libby St, Phoenix, AZ 85053 ",85053,0.3644816130399704,0.8774986267089844,0.3198321149032495,219000,https://www.zillow.com/homedetails/2919-W-Libby-St-Phoenix-AZ-85053/7940817_zpid/,33.6477,-112.12200000000001,6489,2017-10-07
381684,22380395,"3111 W Laurie Ln, Phoenix, AZ 85051 ",85051,0.3876132518053055,0.8237560093402863,0.31929874547454995,229900,https://www.zillow.com/homedetails/3111-W-Laurie-Ln-Phoenix-AZ-85051/7754882_zpid/,33.5587,-112.126,6403,2017-07-13
7389079,23836128,"12207 N Sun Valley Dr, Sun City, AZ 85351 ",85351,0.36331605911254883,0.8788043558597565,0.3192837353019087,209900,https://www.zillow.com/homedetails/12207-N-Sun-Valley-Dr-Sun-City-AZ-85351/7686174_zpid/,33.5952,-112.271,6530,2017-11-17
9020195,23820290,"8638 W Laurel Ln, Peoria, AZ 85345 ",85345,0.3562285602092743,0.8925413191318512,0.31794870904162575,247700,https://www.zillow.com/homedetails/8638-W-Laurel-Ln-Peoria-AZ-85345/7685468_zpid/,33.5934,-112.245,6516,2017-11-03
351832,23839570,"6623 W Cleveland St, Phoenix, AZ 85043 ",85043,0.3551664799451828,0.8946667015552521,0.3177556231155463,164500,https://www.zillow.com/homedetails/6623-W-Cleveland-St-Phoenix-AZ-85043/67788403_zpid/,33.4534,-112.20200000000001,6526,2017-11-13
8992552,23527037,"6029 W Mary Jane Ln, Glendale, AZ 85306 ",85306,0.3589954674243927,0.8842515051364899,0.31744228240719696,239000,https://www.zillow.com/homedetails/6029-W-Mary-Jane-Ln-Glendale-AZ-85306/8097193_zpid/,33.6273,-112.189,6493,2017-10-11
406363,23789864,"5213 W Evans Dr, Glendale, AZ 85306 ",85306,0.38693830370903015,0.8201719224452972,0.31735593242075755,209900,https://www.zillow.com/homedetails/5213-W-Evans-Dr-Glendale-AZ-85306/8097361_zpid/,33.6172,-112.17200000000001,6303,2017-04-04
8850973,23814108,"2525 E Michigan Ave, Phoenix, AZ 85032 ",85032,0.36540117859840393,0.8681042790412903,0.3172063267080052,225000,https://www.zillow.com/homedetails/2525-E-Michigan-Ave-Phoenix-AZ-85032/7999906_zpid/,33.6507,-112.027,6511,2017-10-29
9025900,23860183,"7635 W Desert Cove Ave, Peoria, AZ 85345 ",85345,0.3545445054769516,0.8941237926483154,0.3170066778996734,178000,https://www.zillow.com/homedetails/7635-W-Desert-Cove-Ave-Peoria-AZ-85345/7681678_zpid/,33.5849,-112.22399999999999,6537,2017-11-24
8946570,21960648,"7614 W Turquoise Ave, Peoria, AZ 85345 ",85345,0.4038083404302597,0.784132719039917,0.316639331952576,219000,https://www.zillow.com/homedetails/7614-W-Turquoise-Ave-Peoria-AZ-85345/7682180_zpid/,33.5747,-112.223,6339,2017-05-10
9015942,23845571,"4532 N 74th Dr, Phoenix, AZ 85033 ",85033,0.3519490510225296,0.8993193209171295,0.3165145815630095,161000,https://www.zillow.com/homedetails/4532-N-74th-Dr-Phoenix-AZ-85033/7711019_zpid/,33.5031,-112.22,6515,2017-11-02
1410517,23856547,"7108 N 73rd Dr, Glendale, AZ 85303 ",85303,0.34861302375793457,0.9062953591346741,0.315946365565722,222000,https://www.zillow.com/homedetails/7108-N-73rd-Dr-Glendale-AZ-85303/82823489_zpid/,33.5387,-112.21700000000001,6532,2017-11-19
409111,23815119,"6540 W Phelps Rd, Glendale, AZ 85306 ",85306,0.35456301271915436,0.8910207450389862,0.31592299975628846,209900,https://www.zillow.com/homedetails/6540-W-Phelps-Rd-Glendale-AZ-85306/7901955_zpid/,33.6361,-112.20100000000001,6512,2017-10-30
435667,22734446,"7942 W Verde Ln, Phoenix, AZ 85033 ",85033,0.366591215133667,0.8613119721412659,0.3157494024764418,175000,https://www.zillow.com/homedetails/7942-W-Verde-Ln-Phoenix-AZ-85033/7479526_zpid/,33.4815,-112.23100000000001,6484,2017-10-02
394881,23830983,"7533 N 30th Ave, Phoenix, AZ 85051 ",85051,0.3528425097465515,0.894543468952179,0.3156329626624732,237900,https://www.zillow.com/homedetails/7533-N-30th-Ave-Phoenix-AZ-85051/95143966_zpid/,33.5471,-112.124,6524,2017-11-11
556883,23809047,"2529 N 40th Ave, Phoenix, AZ 85009 ",85009,0.36066001653671265,0.874744176864624,0.3154852492933884,149899,https://www.zillow.com/homedetails/2529-N-40th-Ave-Phoenix-AZ-85009/88889007_zpid/,33.4758,-112.146,6508,2017-10-26
448988,23831998,"8504 W College Dr, Phoenix, AZ 85037 ",85037,0.3480786830186844,0.9054321348667145,0.3151616250672018,184900,https://www.zillow.com/homedetails/8504-W-College-Dr-Phoenix-AZ-85037/7483600_zpid/,33.5084,-112.243,6526,2017-11-13
497542,23839609,"6805 W Coronado Rd, Phoenix, AZ 85035 ",85035,0.3517283499240875,0.8954557180404663,0.3149571621364622,210000,https://www.zillow.com/homedetails/6805-W-Coronado-Rd-Phoenix-AZ-85035/7481637_zpid/,33.4678,-112.205,6524,2017-11-11
8988163,23818314,"2650 E Hartford Ave, Phoenix, AZ 85032 ",85032,0.35411861538887024,0.8886739611625671,0.3146959926590309,249500,https://www.zillow.com/homedetails/2650-E-Hartford-Ave-Phoenix-AZ-85032/59266670_zpid/,33.6425,-112.025,6515,2017-11-02
8985924,22488235,"7609 W Avalon Dr, Phoenix, AZ 85033 ",85033,0.3762728273868561,0.8343457877635956,0.31394164858012186,190000,https://www.zillow.com/homedetails/7609-W-Avalon-Dr-Phoenix-AZ-85033/7469546_zpid/,33.4829,-112.223,6426,2017-08-05
7450958,21944041,"12172 N 86th Ln, Peoria, AZ 85345 ",85345,0.3904441297054291,0.8035263419151306,0.3137321432644402,215000,https://www.zillow.com/homedetails/12172-N-86th-Ln-Peoria-AZ-85345/7685390_zpid/,33.5947,-112.24600000000001,6289,2017-03-21
392666,23759961,"4208 W El Camino Dr, Phoenix, AZ 85051 ",85051,0.35190726071596146,0.8909459710121155,0.31353035610479596,215000,https://www.zillow.com/homedetails/4208-W-El-Camino-Dr-Phoenix-AZ-85051/7752812_zpid/,33.5573,-112.15,6503,2017-10-21
307196,23783098,"215 E Mckinley St STE 202, Phoenix, AZ 85004 ",85004,0.4133148044347763,0.7576781213283539,0.3131595845413373,225900,https://www.zillow.com/homedetails/215-E-Mckinley-St-STE-202-Phoenix-AZ-85004/81957074_zpid/,33.4563,-112.07,6284,2017-03-16
388700,23829780,"2353 W Cortez St, Phoenix, AZ 85029 ",85029,0.3573837876319885,0.8735268414020538,0.31218433117847333,173500,https://www.zillow.com/homedetails/2353-W-Cortez-St-Phoenix-AZ-85029/7749270_zpid/,33.5905,-112.11,6523,2017-11-10
421990,23791113,"6451 W Sunnyslope Ln, Glendale, AZ 85302 ",85302,0.39054811000823975,0.7987316846847534,0.31194314985732774,219900,https://www.zillow.com/homedetails/6451-W-Sunnyslope-Ln-Glendale-AZ-85302/7703523_zpid/,33.5702,-112.199,6305,2017-04-06
9023260,23825739,"6913 W Beryl Ave, Peoria, AZ 85345 ",85345,0.3470001816749573,0.8977301120758057,0.3115125119853843,197000,https://www.zillow.com/homedetails/6913-W-Beryl-Ave-Peoria-AZ-85345/7701889_zpid/,33.5787,-112.208,6524,2017-11-11
2193730,23774667,"8021 W Roma Ave, Phoenix, AZ 85033 ",85033,0.3755125552415848,0.8282838761806488,0.31103099480999985,151000,http://www.zillow.com/homedetails/8021-W-Roma-Ave-Phoenix-AZ-85033/7481703_zpid/,33.5004,-112.23200000000001,6278,2017-03-10
361380,23818137,"8601 W Flavia Hvn, Tolleson, AZ 85353 ",85353,0.3345274329185486,0.928809255361557,0.3107121758670903,245000,https://www.zillow.com/homedetails/8601-W-Flavia-Hvn-Tolleson-AZ-85353/59271170_zpid/,33.4241,-112.245,6515,2017-11-02
395328,22561906,"7760 N 33rd Ave, Phoenix, AZ 85051 ",85051,0.401772677898407,0.7723578214645386,0.3103122702255874,195000,https://www.zillow.com/homedetails/7760-N-33rd-Ave-Phoenix-AZ-85051/7757755_zpid/,33.5514,-112.13,6443,2017-08-22
423456,22436549,"8633 N 55th Ave, Glendale, AZ 85302 ",85302,0.3737110048532486,0.8291674554347992,0.30986900296215003,174000,https://www.zillow.com/homedetails/8633-N-55th-Ave-Glendale-AZ-85302/7733817_zpid/,33.5637,-112.178,6419,2017-07-29
415297,23835189,"10114 N 66th Ln, Glendale, AZ 85302 ",85302,0.3430374711751938,0.9028375148773193,0.309707097985612,197500,https://www.zillow.com/homedetails/10114-N-66th-Ln-Glendale-AZ-85302/67083300_zpid/,33.5779,-112.20299999999999,6528,2017-11-15
9023655,23829023,"14631 N 36th St, Phoenix, AZ 85032 ",85032,0.35844890773296356,0.8626992404460907,0.3092336004399585,214000,https://www.zillow.com/homedetails/14631-N-36th-St-Phoenix-AZ-85032/8013016_zpid/,33.6203,-112.00399999999999,6525,2017-11-12
411581,22708161,"5226 W Eugie Ave, Glendale, AZ 85304 ",85304,0.36414778232574463,0.8490254878997803,0.3091707485567383,220000,https://www.zillow.com/homedetails/5226-W-Eugie-Ave-Glendale-AZ-85304/7911821_zpid/,33.608000000000004,-112.17200000000001,6473,2017-09-21
336868,23820918,"2122 W Glendale Ave, Phoenix, AZ 85021 ",85021,0.3613026291131973,0.855503112077713,0.30909552360820003,208400,https://www.zillow.com/homedetails/2122-W-Glendale-Ave-Phoenix-AZ-85021/7778952_zpid/,33.5389,-112.105,6516,2017-11-03
483705,23784850,"2639 N 49th Ave, Phoenix, AZ 85035 ",85035,0.3830355852842331,0.806813508272171,0.30903828435625647,162499,https://www.zillow.com/homedetails/2639-N-49th-Ave-Phoenix-AZ-85035/7499042_zpid/,33.4778,-112.163,6270,2017-03-02
386525,23810920,"2019 W Willow Ave, Phoenix, AZ 85029 ",85029,0.35924671590328217,0.8602249324321747,0.30903298191438155,189000,https://www.zillow.com/homedetails/2019-W-Willow-Ave-Phoenix-AZ-85029/7749707_zpid/,33.6066,-112.102,6509,2017-10-27
9012337,23837926,"3324 E Thunderbird Rd, Phoenix, AZ 85032 ",85032,0.3499876707792282,0.8823136389255524,0.30879889538429905,210000,https://www.zillow.com/homedetails/3324-E-Thunderbird-Rd-Phoenix-AZ-85032/8011849_zpid/,33.6116,-112.01100000000001,6529,2017-11-16
410256,23810938,"4730 W Shaw Butte Dr, Glendale, AZ 85304 ",85304,0.349557064473629,0.8833427727222443,0.30877870655678374,240000,https://www.zillow.com/homedetails/4730-W-Shaw-Butte-Dr-Glendale-AZ-85304/7727507_zpid/,33.5952,-112.161,6509,2017-10-27
402730,23831013,"15243 N 66th Dr, Glendale, AZ 85306 ",85306,0.3433547466993332,0.8977972865104675,0.30826295989715025,239900,https://www.zillow.com/homedetails/15243-N-66th-Dr-Glendale-AZ-85306/8100497_zpid/,33.6248,-112.20100000000001,6524,2017-11-11
9022111,23817234,"7629 N 44th Dr, Glendale, AZ 85301 ",85301,0.34485189616680145,0.8936072289943695,0.3081621473470695,195000,https://www.zillow.com/homedetails/7629-N-44th-Dr-Glendale-AZ-85301/7725279_zpid/,33.5492,-112.155,6514,2017-11-01
9012841,23819608,"8121 W Hatcher Rd, Peoria, AZ 85345 ",85345,0.34295889735221863,0.8980166614055634,0.3079828039995727,239000,https://www.zillow.com/homedetails/8121-W-Hatcher-Rd-Peoria-AZ-85345/7682649_zpid/,33.57,-112.234,6515,2017-11-02
9021585,23824122,"12612 N 79th Ave, Peoria, AZ 85381 ",85381,0.3400759994983673,0.9052939713001251,0.3078687521297363,225000,https://www.zillow.com/homedetails/12612-N-79th-Ave-Peoria-AZ-85381/8101178_zpid/,33.5997,-112.229,6522,2017-11-09
486164,22539632,"4802 W Encanto Blvd, Phoenix, AZ 85035 ",85035,0.39606255292892456,0.776310920715332,0.30746768512511835,148000,https://www.zillow.com/homedetails/4802-W-Encanto-Blvd-Phoenix-AZ-85035/7499173_zpid/,33.4734,-112.163,6437,2017-08-16
8991893,23837557,"9352 W Jefferson St, Tolleson, AZ 85353 ",85353,0.3421579450368881,0.897954523563385,0.30724227451902575,229900,https://www.zillow.com/homedetails/9352-W-Jefferson-St-Tolleson-AZ-85353/7460100_zpid/,33.4464,-112.26100000000001,6533,2017-11-20
8998472,23817219,"6708 W Highland Ave, Phoenix, AZ 85033 ",85033,0.34226612746715546,0.8969350457191467,0.3069904846878684,168500,https://www.zillow.com/homedetails/6708-W-Highland-Ave-Phoenix-AZ-85033/7716706_zpid/,33.5065,-112.204,6514,2017-11-01
9018704,22731861,"13229 N 99th Dr, Sun City, AZ 85351 ",85351,0.3614064007997513,0.8491323888301849,0.30688188044961207,152500,https://www.zillow.com/homedetails/13229-N-99th-Dr-Sun-City-AZ-85351/7914996_zpid/,33.6055,-112.27,6481,2017-09-29
1091154,23858452,"668 W Shawnee Dr, Chandler, AZ 85225 ",85225,0.33512137830257416,0.9156318604946136,0.3068478111067052,239900,https://www.zillow.com/homedetails/668-W-Shawnee-Dr-Chandler-AZ-85225/8200509_zpid/,33.3448,-111.852,6535,2017-11-22
9023942,23834986,"3552 E Le Marche Ave, Phoenix, AZ 85032 ",85032,0.34666506946086884,0.8844245970249176,0.306599114360544,205000,https://www.zillow.com/homedetails/3552-E-Le-Marche-Ave-Phoenix-AZ-85032/8007139_zpid/,33.6329,-112.005,6530,2017-11-17
9023875,23833720,"14623 N 38th St, Phoenix, AZ 85032 ",85032,0.34896116703748703,0.8774791359901428,0.306206143346166,244900,https://www.zillow.com/homedetails/14623-N-38th-St-Phoenix-AZ-85032/8013505_zpid/,33.6199,-112.0,6528,2017-11-15
8977242,23802183,"16434 N 32nd Pl, Phoenix, AZ 85032 ",85032,0.3918125331401825,0.7807447016239166,0.3059055592790427,84000,https://www.zillow.com/homedetails/16434-N-32nd-Pl-Phoenix-AZ-85032/8006065_zpid/,33.6366,-112.01299999999999,6495,2017-10-13
9022220,23813743,"3934 W Sheridan St, Phoenix, AZ 85009 ",85009,0.34731101989746094,0.8795264363288879,0.3054692236281653,175000,https://www.zillow.com/homedetails/3934-W-Sheridan-St-Phoenix-AZ-85009/7512512_zpid/,33.4754,-112.145,6510,2017-10-28
238285,23837083,"3015 W Villa Rita Dr, Phoenix, AZ 85053 ",85053,0.3423403799533844,0.891808807849884,0.3053021661251041,225000,https://www.zillow.com/homedetails/3015-W-Villa-Rita-Dr-Phoenix-AZ-85053/7940712_zpid/,33.65,-112.124,6529,2017-11-16
409707,23564615,"4513 W Sunnyside Ave, Glendale, AZ 85304 ",85304,0.3479531556367874,0.8773638308048248,0.30528151357011923,239900,https://www.zillow.com/homedetails/4513-W-Sunnyside-Ave-Glendale-AZ-85304/7726914_zpid/,33.5922,-112.156,6495,2017-10-13
394581,23831766,"3626 W Rue De Lamour Ave, Phoenix, AZ 85029 ",85029,0.34561850130558014,0.8816445469856262,0.30471266701340927,199900,https://www.zillow.com/homedetails/3626-W-Rue-De-Lamour-Ave-Phoenix-AZ-85029/7741437_zpid/,33.6102,-112.137,6522,2017-11-09
9021916,23821887,"5114 W Vogel Ave, Glendale, AZ 85302 ",85302,0.3406015485525131,0.8941653370857239,0.30455409847337744,152000,https://www.zillow.com/homedetails/5114-W-Vogel-Ave-Glendale-AZ-85302/92348849_zpid/,33.5721,-112.17,6518,2017-11-05
227536,22735776,"15219 N 37th Ave, Phoenix, AZ 85053 ",85053,0.3776329457759857,0.8064066767692566,0.3045257288417975,219000,https://www.zillow.com/homedetails/15219-N-37th-Ave-Phoenix-AZ-85053/7944373_zpid/,33.6242,-112.137,6474,2017-09-22
250889,23830838,"3634 W Banff Ln, Phoenix, AZ 85053 ",85053,0.34387046843767166,0.8853810727596283,0.30445640423570164,243000,https://www.zillow.com/homedetails/3634-W-Banff-Ln-Phoenix-AZ-85053/7944164_zpid/,33.621,-112.137,6527,2017-11-14
434601,23841755,"1838 N 83rd Ln, Phoenix, AZ 85037 ",85037,0.3334883749485016,0.9126105606555939,0.30434501283387494,195000,https://www.zillow.com/homedetails/1838-N-83rd-Ln-Phoenix-AZ-85037/7487940_zpid/,33.4683,-112.24,6536,2017-11-23
836722,23830966,"5221 N 41st Dr, Phoenix, AZ 85019 ",85019,0.34497205168008804,0.8808647990226746,0.30387373697162046,179000,https://www.zillow.com/homedetails/5221-N-41st-Dr-Phoenix-AZ-85019/67083438_zpid/,33.5124,-112.148,6526,2017-11-13
383781,22501929,"3339 W Malapai Dr, Phoenix, AZ 85051 ",85051,0.38492588698863983,0.7893561720848083,0.3038436246897023,244900,https://www.zillow.com/homedetails/3339-W-Malapai-Dr-Phoenix-AZ-85051/7739353_zpid/,33.5756,-112.131,6433,2017-08-12
457960,23512295,"5355 W Earll Dr, Phoenix, AZ 85031 ",85031,0.3394927829504013,0.8936671018600464,0.3033935314416869,179900,https://www.zillow.com/homedetails/5355-W-Earll-Dr-Phoenix-AZ-85031/7496878_zpid/,33.4846,-112.175,6492,2017-10-10
835193,22740118,"3633 W Mariposa St, Phoenix, AZ 85019 ",85019,0.3624361455440521,0.837031751871109,0.3033705618461502,180000,https://www.zillow.com/homedetails/3633-W-Mariposa-St-Phoenix-AZ-85019/7506850_zpid/,33.5075,-112.13799999999999,6487,2017-10-05
8945979,23814510,"9605 W Campana Dr, Sun City, AZ 85351 ",85351,0.33790042251348495,0.897640734910965,0.3033131835917302,194300,https://www.zillow.com/homedetails/9605-W-Campana-Dr-Sun-City-AZ-85351/7905011_zpid/,33.6372,-112.26700000000001,6512,2017-10-30
1866845,23763851,"1825 W Ray Rd, Chandler, AZ 85224 ",85224,0.3647737354040146,0.8307128846645355,0.30302224198732697,179000,http://www.zillow.com/homedetails/1825-W-Ray-Rd-Chandler-AZ-85224/2109892120_zpid/,33.318000000000005,-111.87299999999999,6236,2017-01-27
383928,23818660,"13245 N 15th Dr, Phoenix, AZ 85029 ",85029,0.34897764027118683,0.8678130805492401,0.3028473610465432,230000,https://www.zillow.com/homedetails/13245-N-15th-Dr-Phoenix-AZ-85029/7784183_zpid/,33.6081,-112.09299999999999,6515,2017-11-02
234163,23837062,"1923 W Kristal Way, Phoenix, AZ 85027 ",85027,0.34147533774375916,0.8867239654064178,0.30279436557264194,220000,https://www.zillow.com/homedetails/1923-W-Kristal-Way-Phoenix-AZ-85027/7969934_zpid/,33.6606,-112.101,6529,2017-11-16
1092802,23820224,"731 W Palomino Dr, Chandler, AZ 85225 ",85225,0.332861103117466,0.9051034152507782,0.3012737212357599,245900,https://www.zillow.com/homedetails/731-W-Palomino-Dr-Chandler-AZ-85225/8177603_zpid/,33.3404,-111.855,6516,2017-11-03
342822,22678663,"1925 W Holly St, Phoenix, AZ 85009 ",85009,0.37524832785129547,0.8026907742023468,0.3012083708010924,160000,https://www.zillow.com/homedetails/1925-W-Holly-St-Phoenix-AZ-85009/7519786_zpid/,33.4699,-112.102,6467,2017-09-15
7449241,23819586,"11935 N 68th Ave, Peoria, AZ 85345 ",85345,0.3342384472489357,0.9008121192455292,0.3010860439996488,245000,https://www.zillow.com/homedetails/11935-N-68th-Ave-Peoria-AZ-85345/7700139_zpid/,33.594,-112.204,6516,2017-11-03
337793,22745680,"2343 W Diana Ave, Phoenix, AZ 85021 ",85021,0.35602379590272903,0.8454146683216095,0.30098773932770606,225000,https://www.zillow.com/homedetails/2343-W-Diana-Ave-Phoenix-AZ-85021/7782287_zpid/,33.563,-112.11,6491,2017-10-09
391100,23830817,"3110 W Willow Ave, Phoenix, AZ 85029 ",85029,0.34735316783189774,0.8665140271186829,0.30098639229044943,195000,https://www.zillow.com/homedetails/3110-W-Willow-Ave-Phoenix-AZ-85029/7745069_zpid/,33.6072,-112.126,6522,2017-11-09
1421352,23835289,"8016 W Sierra Vista Dr, Glendale, AZ 85303 ",85303,0.3280890882015228,0.9173409640789032,0.30096956047455325,235000,https://www.zillow.com/homedetails/8016-W-Sierra-Vista-Dr-Glendale-AZ-85303/7462651_zpid/,33.5314,-112.23299999999999,6528,2017-11-15
9015636,23825624,"7118 W Sells Dr, Phoenix, AZ 85033 ",85033,0.33567532151937485,0.8960891962051392,0.30079502904619826,182900,https://www.zillow.com/homedetails/7118-W-Sells-Dr-Phoenix-AZ-85033/88889219_zpid/,33.5022,-112.213,6523,2017-11-10
1373662,23843286,"8771 W Ocotillo Rd, Glendale, AZ 85305 ",85305,0.32957910001277924,0.9118655025959015,0.3005318116782578,185000,https://www.zillow.com/homedetails/8771-W-Ocotillo-Rd-Glendale-AZ-85305/7461673_zpid/,33.5332,-112.25,6540,2017-11-27
8995968,22560409,"13818 N 43rd St, Phoenix, AZ 85032 ",85032,0.3690759837627411,0.8138749599456787,0.30038170150181287,160000,https://www.zillow.com/homedetails/13818-N-43rd-St-Phoenix-AZ-85032/8030572_zpid/,33.6125,-111.99,6441,2017-08-20
8959309,23803780,"4201 W Mission Ln, Phoenix, AZ 85051 ",85051,0.34012481570243835,0.8822793960571289,0.3000851169819896,219000,https://www.zillow.com/homedetails/4201-W-Mission-Ln-Phoenix-AZ-85051/7746195_zpid/,33.5703,-112.149,6501,2017-10-19
8989092,22502911,"2617 E Waltann Ln, Phoenix, AZ 85032 ",85032,0.3763190805912018,0.7972343862056732,0.30001451123261,150000,https://www.zillow.com/homedetails/2617-E-Waltann-Ln-Phoenix-AZ-85032/8007629_zpid/,33.6283,-112.02600000000001,6433,2017-08-12
7381600,22218425,"4317 N 72nd Dr, Phoenix, AZ 85033 ",85033,0.367996022105217,0.8145987689495087,0.29976910658522593,190000,https://www.zillow.com/homedetails/4317-N-72nd-Dr-Phoenix-AZ-85033/7711467_zpid/,33.4989,-112.214,6377,2017-06-17
407925,23791005,"6023 W Redfield Rd, Glendale, AZ 85306 ",85306,0.3582477569580078,0.8363247215747833,0.29961145559269653,179900,https://www.zillow.com/homedetails/6023-W-Redfield-Rd-Glendale-AZ-85306/7910719_zpid/,33.6135,-112.18799999999999,6309,2017-04-10
331776,22565895,"10418 N 18th Ave, Phoenix, AZ 85021 ",85021,0.3845316171646118,0.7788154184818268,0.29947915234155076,199000,https://www.zillow.com/homedetails/10418-N-18th-Ave-Phoenix-AZ-85021/7781375_zpid/,33.5813,-112.098,6444,2017-08-23
9000590,22678276,"2725 N 40th Ave, Phoenix, AZ 85009 ",85009,0.36538252234458923,0.818900853395462,0.2992120593637706,162900,https://www.zillow.com/homedetails/2725-N-40th-Ave-Phoenix-AZ-85009/7512795_zpid/,33.4798,-112.145,6467,2017-09-15
836805,23790332,"5534 N 41st Ave, Phoenix, AZ 85019 ",85019,0.3797171711921692,0.7873913049697876,0.29898599894443834,194999,https://www.zillow.com/homedetails/5534-N-41st-Ave-Phoenix-AZ-85019/7718832_zpid/,33.5179,-112.148,6250,2017-02-10
318987,23813756,"2220 E Palm Ln, Phoenix, AZ 85006 ",85006,0.3767353594303131,0.7933211326599121,0.2988721220562951,239900,https://www.zillow.com/homedetails/2220-E-Palm-Ln-Phoenix-AZ-85006/7531376_zpid/,33.4695,-112.03399999999999,6510,2017-10-28
348914,23822646,"3525 W Melvin St, Phoenix, AZ 85009 ",85009,0.34327612817287445,0.8697197735309601,0.2985540364530972,159900,https://www.zillow.com/homedetails/3525-W-Melvin-St-Phoenix-AZ-85009/7505973_zpid/,33.4521,-112.13600000000001,6520,2017-11-07
9013905,22694429,"2418 E Dahlia Dr, Phoenix, AZ 85032 ",85032,0.3750878721475601,0.7957322597503662,0.29846952010893446,225000,https://www.zillow.com/homedetails/2418-E-Dahlia-Dr-Phoenix-AZ-85032/7820474_zpid/,33.6034,-112.03,6470,2017-09-18
384269,23819801,"13430 N 37th Ave, Phoenix, AZ 85029 ",85029,0.34062813222408295,0.8757712543010712,0.29831232660811624,209900,https://www.zillow.com/homedetails/13430-N-37th-Ave-Phoenix-AZ-85029/7741466_zpid/,33.6083,-112.139,6516,2017-11-03
329115,23755232,"2335 W Campus Dr, Phoenix, AZ 85015 ",85015,0.3645856976509094,0.8181594610214233,0.29828923788618766,212800,https://www.zillow.com/homedetails/2335-W-Campus-Dr-Phoenix-AZ-85015/7518987_zpid/,33.484,-112.11,6499,2017-10-17
9006525,23825388,"12206 N Rio Vista Dr, Sun City, AZ 85351 ",85351,0.3451807424426079,0.8641437590122223,0.2982857843129849,239000,https://www.zillow.com/homedetails/12206-N-Rio-Vista-Dr-Sun-City-AZ-85351/67083172_zpid/,33.5947,-112.26899999999999,6520,2017-11-07
353672,22728286,"2201 E Nisbet Rd, Phoenix, AZ 85022 ",85022,0.3834816664457321,0.7776843011379242,0.29822767176905574,199900,https://www.zillow.com/homedetails/2201-E-Nisbet-Rd-Phoenix-AZ-85022/8010593_zpid/,33.6231,-112.035,6480,2017-09-28
459700,22721620,"5715 W Roma Ave, Phoenix, AZ 85031 ",85031,0.35376232862472534,0.8428433537483215,0.29816622748787935,139900,https://www.zillow.com/homedetails/5715-W-Roma-Ave-Phoenix-AZ-85031/7712868_zpid/,33.4993,-112.18299999999999,6478,2017-09-26
7513271,22492993,"9830 W Emberwood Dr, Sun City, AZ 85351 ",85351,0.364073246717453,0.8170672357082367,0.2974723212907522,179900,https://www.zillow.com/homedetails/9830-W-Emberwood-Dr-Sun-City-AZ-85351/8096028_zpid/,33.6026,-112.26700000000001,6425,2017-08-04
9021253,23756561,"2832 N 28th Dr, Phoenix, AZ 85008 ",85008,0.36936384439468384,0.804595023393631,0.2971883110215021,139900,https://www.zillow.com/homedetails/2832-N-28th-Dr-Phoenix-AZ-85008/7513343_zpid/,33.4797,-112.021,6495,2017-10-13
395130,23830853,"3719 W Joan De Arc Ave, Phoenix, AZ 85029 ",85029,0.33873335272073746,0.8769481480121613,0.2970515863384009,205900,https://www.zillow.com/homedetails/3719-W-Joan-De-Arc-Ave-Phoenix-AZ-85029/7741718_zpid/,33.607,-112.139,6526,2017-11-13
9019398,23819886,"2116 E Vista Dr, Phoenix, AZ 85022 ",85022,0.3391212299466133,0.8751447796821594,0.29678017406717183,249900,https://www.zillow.com/homedetails/2116-E-Vista-Dr-Phoenix-AZ-85022/8010925_zpid/,33.6222,-112.037,6516,2017-11-03
354848,22739897,"2320 E Beck Ln, Phoenix, AZ 85022 ",85022,0.35877813398838043,0.8252886235713959,0.29609551236678433,170000,https://www.zillow.com/homedetails/2320-E-Beck-Ln-Phoenix-AZ-85022/8007959_zpid/,33.626999999999995,-112.03299999999999,6486,2017-10-04
491289,23853212,"5551 W Wilshire Dr, Phoenix, AZ 85035 ",85035,0.3286796063184738,0.90085369348526,0.29609223732527834,187900,https://www.zillow.com/homedetails/5551-W-Wilshire-Dr-Phoenix-AZ-85035/7491935_zpid/,33.4756,-112.18,6538,2017-11-25
9020435,22875945,"3838 W Carol Ave, Phoenix, AZ 85051 ",85051,0.3388223424553871,0.8738241195678711,0.29607113508600236,219990,https://www.zillow.com/homedetails/3838-W-Carol-Ave-Phoenix-AZ-85051/7746969_zpid/,33.5731,-112.14200000000001,6492,2017-10-10
1421999,23820040,"8134 W Mclellan Rd, Glendale, AZ 85303 ",85303,0.326118066906929,0.9076749682426453,0.29600920602309966,222500,https://www.zillow.com/homedetails/8134-W-Mclellan-Rd-Glendale-AZ-85303/7462575_zpid/,33.5326,-112.235,6516,2017-11-03
394310,23786762,"3560 W Wood Dr, Phoenix, AZ 85029 ",85029,0.3713100999593735,0.7971701920032501,0.29599734367735975,230000,https://www.zillow.com/homedetails/3560-W-Wood-Dr-Phoenix-AZ-85029/7741612_zpid/,33.6044,-112.137,6308,2017-04-09
25059,21638916,"777 W Roosevelt St, Phoenix, AZ 85007 ",85007,0.3835945427417755,0.7705779373645782,0.2955894915302659,207000,https://www.zillow.com/homedetails/777-W-Roosevelt-St-Phoenix-AZ-85007/2107063726_zpid/,33.4582,-112.083,6249,2017-02-09
9023645,23828731,"7328 W Heatherbrae Dr, Phoenix, AZ 85033 ",85033,0.32854899764060974,0.8990024924278259,0.29536636776357206,174900,https://www.zillow.com/homedetails/7328-W-Heatherbrae-Dr-Phoenix-AZ-85033/7711026_zpid/,33.4977,-112.21700000000001,6519,2017-11-06
9023830,23833574,"4019 W Woodridge Dr, Glendale, AZ 85308 ",85308,0.330092191696167,0.8934204876422882,0.2949111268721012,217500,https://www.zillow.com/homedetails/4019-W-Woodridge-Dr-Glendale-AZ-85308/7946693_zpid/,33.64,-112.146,6524,2017-11-11
454952,23752844,"4630 W Indianola Ave, Phoenix, AZ 85031 ",85031,0.3414998725056648,0.8626774251461029,0.29460423070090935,159000,https://www.zillow.com/homedetails/4630-W-Indianola-Ave-Phoenix-AZ-85031/7508079_zpid/,33.4927,-112.15899999999999,6497,2017-10-15
7380359,22747336,"3611 W Maricopa St, Phoenix, AZ 85009 ",85009,0.368338868021965,0.7994691133499146,0.2944755482298316,146600,https://www.zillow.com/homedetails/3611-W-Maricopa-St-Phoenix-AZ-85009/7506371_zpid/,33.4383,-112.137,6492,2017-10-10
410753,23759090,"4934 W Becker Ln, Glendale, AZ 85304 ",85304,0.33562882989645004,0.8771663308143616,0.2944023092357866,238500,https://www.zillow.com/homedetails/4934-W-Becker-Ln-Glendale-AZ-85304/67083499_zpid/,33.5826,-112.166,6502,2017-10-20
337488,23779389,"1424 E Le Marche Ave, Phoenix, AZ 85022 ",85022,0.3734576255083084,0.7878754436969757,0.2942380923993775,223000,https://www.zillow.com/homedetails/1424-E-Le-Marche-Ave-Phoenix-AZ-85022/8003944_zpid/,33.6325,-112.051,6285,2017-03-17
1356715,23831093,"7327 N 47th Ave, Glendale, AZ 85301 ",85301,0.32782528549432755,0.8972656428813934,0.29414636554184415,189500,https://www.zillow.com/homedetails/7327-N-47th-Ave-Glendale-AZ-85301/7725576_zpid/,33.545,-112.16,6523,2017-11-10
9023639,23828239,"3202 N 64th Dr, Phoenix, AZ 85033 ",85033,0.328755721449852,0.8947193622589111,0.2941441094345798,193000,https://www.zillow.com/homedetails/3202-N-64th-Dr-Phoenix-AZ-85033/7498616_zpid/,33.4854,-112.199,6523,2017-11-10
831187,23815076,"3944 W Cavalier Dr, Phoenix, AZ 85019 ",85019,0.3324727490544319,0.8842307329177856,0.29398262257159136,210000,https://www.zillow.com/homedetails/3944-W-Cavalier-Dr-Phoenix-AZ-85019/7760413_zpid/,33.5263,-112.145,6512,2017-10-30
447466,23853329,"8314 W Avalon Dr, Phoenix, AZ 85037 ",85037,0.3235704153776169,0.9078115224838257,0.29374095141467826,184900,https://www.zillow.com/homedetails/8314-W-Avalon-Dr-Phoenix-AZ-85037/55257045_zpid/,33.4824,-112.23899999999999,6528,2017-11-15
413653,23822290,"6114 W Shaw Butte Dr, Glendale, AZ 85304 ",85304,0.32595136761665344,0.9002825319766998,0.29344832253918884,249999,https://www.zillow.com/homedetails/6114-W-Shaw-Butte-Dr-Glendale-AZ-85304/7698065_zpid/,33.596,-112.191,6519,2017-11-06
413085,21986995,"5754 W Shangri La Rd, Glendale, AZ 85304 ",85304,0.3723463714122772,0.7878827452659607,0.293365281298124,227500,https://www.zillow.com/homedetails/5754-W-Shangri-La-Rd-Glendale-AZ-85304/7736186_zpid/,33.586999999999996,-112.18299999999999,6311,2017-04-12
9023081,23823763,"7727 W Julie Dr, Glendale, AZ 85308 ",85308,0.3261326998472214,0.8994821608066559,0.2933505455682872,185000,https://www.zillow.com/homedetails/7727-W-Julie-Dr-Glendale-AZ-85308/7891914_zpid/,33.6539,-112.226,6519,2017-11-06
9011933,22678376,"7934 W Mitchell Dr, Phoenix, AZ 85033 ",85033,0.35630324482917786,0.8229986429214478,0.2932370869629217,155000,https://www.zillow.com/homedetails/7934-W-Mitchell-Dr-Phoenix-AZ-85033/7478637_zpid/,33.4893,-112.23,6464,2017-09-12
9023951,23835138,"4206 W North Ln, Phoenix, AZ 85051 ",85051,0.33320874720811844,0.8790221512317657,0.2928978697801219,189000,https://www.zillow.com/homedetails/4206-W-North-Ln-Phoenix-AZ-85051/7746035_zpid/,33.5817,-112.149,6529,2017-11-16
389970,22302502,"2910 W Altadena Ave, Phoenix, AZ 85029 ",85029,0.3486902117729187,0.8390116393566132,0.29255514620720113,220000,https://www.zillow.com/homedetails/2910-W-Altadena-Ave-Phoenix-AZ-85029/7739875_zpid/,33.5927,-112.12200000000001,6401,2017-07-11
404082,23831516,"16245 N 43rd Dr, Glendale, AZ 85306 ",85306,0.3226690962910652,0.9054147601127625,0.29214936241417666,244900,https://www.zillow.com/homedetails/16245-N-43rd-Dr-Glendale-AZ-85306/7950704_zpid/,33.6339,-112.152,6527,2017-11-14
400185,22494552,"10610 N 46th Ave, Glendale, AZ 85304 ",85304,0.34935157746076584,0.8354499638080597,0.2918657627458854,234900,https://www.zillow.com/homedetails/10610-N-46th-Ave-Glendale-AZ-85304/7727627_zpid/,33.5824,-112.15700000000001,6428,2017-08-07
9024049,23836147,"9545 W Briarwood Cir N, Sun City, AZ 85351 ",85351,0.3283495754003525,0.8881316184997559,0.29161763983402267,210000,https://www.zillow.com/homedetails/9545-W-Briarwood-Cir-N-Sun-City-AZ-85351/7904970_zpid/,33.6371,-112.266,6530,2017-11-17
227027,23824339,"1401 W Grovers Ave, Phoenix, AZ 85023 ",85023,0.33122630417346954,0.8778830468654633,0.29077795710979215,179990,https://www.zillow.com/homedetails/1401-W-Grovers-Ave-Phoenix-AZ-85023/7963298_zpid/,33.6472,-112.09100000000001,6522,2017-11-09
8999379,22680357,"9308 W Glen Oaks Cir, Sun City, AZ 85351 ",85351,0.36237018555402756,0.8022677004337311,0.2907178954701741,249800,https://www.zillow.com/homedetails/9308-W-Glen-Oaks-Cir-Sun-City-AZ-85351/7922796_zpid/,33.6312,-112.26,6465,2017-09-13
402127,23814880,"14638 N 62nd Ave, Glendale, AZ 85306 ",85306,0.3265872821211815,0.8899723887443542,0.2906536636029142,230000,https://www.zillow.com/homedetails/14638-N-62nd-Ave-Glendale-AZ-85306/8098778_zpid/,33.6177,-112.191,6512,2017-10-30
326029,23814914,"1734 W Rose Ln, Phoenix, AZ 85015 ",85015,0.339042991399765,0.8570762872695923,0.2905857082936869,194900,https://www.zillow.com/homedetails/1734-W-Rose-Ln-Phoenix-AZ-85015/7774223_zpid/,33.5279,-112.09700000000001,6511,2017-10-29
434089,23853304,"7601 W Earll Dr, Phoenix, AZ 85033 ",85033,0.3188928812742233,0.9111008942127228,0.2905435892870165,165000,https://www.zillow.com/homedetails/7601-W-Earll-Dr-Phoenix-AZ-85033/7469553_zpid/,33.4836,-112.22200000000001,6534,2017-11-21
1114416,23820184,"1617 W Stottler Dr, Chandler, AZ 85224 ",85224,0.32174962759017944,0.9023969173431396,0.2903458720936811,229900,https://www.zillow.com/homedetails/1617-W-Stottler-Dr-Chandler-AZ-85224/8193816_zpid/,33.3325,-111.87,6516,2017-11-03
411351,23831053,"5194 W Paradise Dr, Glendale, AZ 85304 ",85304,0.3278834968805313,0.885355681180954,0.290293516728656,214900,https://www.zillow.com/homedetails/5194-W-Paradise-Dr-Glendale-AZ-85304/60978690_zpid/,33.5953,-112.171,6526,2017-11-13
425566,23374604,"3339 N 80th Dr, Phoenix, AZ 85033 ",85033,0.3611536771059036,0.8027770221233368,0.2899258734359704,179500,http://www.zillow.com/homedetails/3339-N-80th-Dr-Phoenix-AZ-85033/7479414_zpid,33.4867,-112.23200000000001,6369,2017-06-09
1109968,23827087,"1231 W Tulsa St, Chandler, AZ 85224 ",85224,0.31848062574863434,0.9101626873016357,0.28986918218488356,245000,https://www.zillow.com/homedetails/1231-W-Tulsa-St-Chandler-AZ-85224/8185626_zpid/,33.3123,-111.865,6524,2017-11-11
410898,23823665,"5031 W Windrose Dr, Glendale, AZ 85304 ",85304,0.32339633256196976,0.894638866186142,0.28932292829199713,229000,https://www.zillow.com/homedetails/5031-W-Windrose-Dr-Glendale-AZ-85304/7954728_zpid/,33.6006,-112.167,6521,2017-11-08
424042,23835298,"9015 N 57th Ave, Glendale, AZ 85302 ",85302,0.3241586461663246,0.8923560082912445,0.28926491554607536,205000,https://www.zillow.com/homedetails/9015-N-57th-Ave-Glendale-AZ-85302/7734719_zpid/,33.5681,-112.182,6529,2017-11-16
255668,23837407,"412 W Sandra Ter, Phoenix, AZ 85023 ",85023,0.3196609616279602,0.904551237821579,0.28914971852380766,229999,https://www.zillow.com/homedetails/412-W-Sandra-Ter-Phoenix-AZ-85023/7965434_zpid/,33.6344,-112.08,6533,2017-11-20
382563,23778636,"12640 N 21st Ave, Phoenix, AZ 85029 ",85029,0.3590867966413498,0.8047859966754913,0.28898802552801817,189000,https://www.zillow.com/homedetails/12640-N-21st-Ave-Phoenix-AZ-85029/7739027_zpid/,33.6016,-112.104,6284,2017-03-16
9024048,23836145,"9411 W Glen Oaks Cir, Sun City, AZ 85351 ",85351,0.32337329536676407,0.8936614096164703,0.2889862349697856,140000,https://www.zillow.com/homedetails/9411-W-Glen-Oaks-Cir-Sun-City-AZ-85351/7922837_zpid/,33.6297,-112.26299999999999,6530,2017-11-17
221510,23818673,"9825 N 2nd St, Phoenix, AZ 85020 ",85020,0.34049759805202484,0.8481011092662811,0.2887763906104266,225000,https://www.zillow.com/homedetails/9825-N-2nd-St-Phoenix-AZ-85020/7788442_zpid/,33.5762,-112.072,6515,2017-11-02
379541,23831369,"11439 N 33rd Ave, Phoenix, AZ 85029 ",85029,0.3284972608089447,0.8789512813091278,0.2887330882945607,214900,https://www.zillow.com/homedetails/11439-N-33rd-Ave-Phoenix-AZ-85029/7749169_zpid/,33.5913,-112.13,6523,2017-11-10
395883,23835126,"3830 W Sharon Ave, Phoenix, AZ 85029 ",85029,0.3272824361920357,0.8819830119609833,0.28865754883457995,179900,https://www.zillow.com/homedetails/3830-W-Sharon-Ave-Phoenix-AZ-85029/7741516_zpid/,33.6095,-112.14200000000001,6530,2017-11-17
330130,23649302,"3841 N 21st Ave, Phoenix, AZ 85015 ",85015,0.33529552817344666,0.8578750491142273,0.28764166769957633,165000,https://www.zillow.com/homedetails/3841-N-21st-Ave-Phoenix-AZ-85015/7516223_zpid/,33.4929,-112.104,6495,2017-10-13
415104,23776939,"10015 N 45th Ave, Glendale, AZ 85302 ",85302,0.3606334626674652,0.7975732982158661,0.28763162026669864,192900,https://www.zillow.com/homedetails/10015-N-45th-Ave-Glendale-AZ-85302/7729213_zpid/,33.577,-112.156,6290,2017-03-22
459441,22441396,"5651 W Sells Dr, Phoenix, AZ 85031 ",85031,0.3658587336540222,0.7849762439727783,0.28719041456837147,191000,https://www.zillow.com/homedetails/5651-W-Sells-Dr-Phoenix-AZ-85031/7712751_zpid/,33.4999,-112.182,6333,2017-05-04
230933,23837060,"18608 N 17th Ave, Phoenix, AZ 85027 ",85027,0.32349321991205215,0.8867481052875519,0.2868569998303816,219900,https://www.zillow.com/homedetails/18608-N-17th-Ave-Phoenix-AZ-85027/7969674_zpid/,33.6552,-112.096,6529,2017-11-16
1864574,23822334,"9873 W Escuda Dr, Peoria, AZ 85382 ",85382,0.31982268393039703,0.8958666622638702,0.2865184803689975,245000,https://www.zillow.com/homedetails/9873-W-Escuda-Dr-Peoria-AZ-85382/7896125_zpid/,33.6652,-112.271,6519,2017-11-06
7428103,23779456,"14238 N Lakeforest Dr, Sun City, AZ 85351 ",85351,0.3623964712023735,0.7902618050575256,0.2863880894788653,169900,https://www.zillow.com/homedetails/14238-N-Lakeforest-Dr-Sun-City-AZ-85351/7922322_zpid/,33.6141,-112.26700000000001,6265,2017-02-25
8926187,23815309,"7109 N 24th Ave, Phoenix, AZ 85021 ",85021,0.3476692885160446,0.8227846920490265,0.2860569684865779,249900,https://www.zillow.com/homedetails/7109-N-24th-Ave-Phoenix-AZ-85021/7779113_zpid/,33.5407,-112.111,6513,2017-10-31
423069,23831999,"8502 N 54th Dr, Glendale, AZ 85302 ",85302,0.31960243731737137,0.894530713558197,0.28589419630844715,196900,https://www.zillow.com/homedetails/8502-N-54th-Dr-Glendale-AZ-85302/7733696_zpid/,33.5606,-112.177,6522,2017-11-09
390667,23787702,"4029 W Caron St, Phoenix, AZ 85051 ",85051,0.3682107478380203,0.7759814858436584,0.28572472321095166,189900,https://www.zillow.com/homedetails/4029-W-Caron-St-Phoenix-AZ-85051/7746120_zpid/,33.5682,-112.146,6265,2017-02-25
9206,23840092,"1220 W Ironwood Dr, Phoenix, AZ 85021 ",85021,0.3285297751426697,0.8681132793426514,0.28520106046080684,169000,https://www.zillow.com/homedetails/1220-W-Ironwood-Dr-Phoenix-AZ-85021/7781692_zpid/,33.576,-112.089,6534,2017-11-21
9020041,23831664,"2528 E Blanche Dr, Phoenix, AZ 85032 ",85032,0.3300086185336113,0.8622440099716187,0.28454795456961524,249900,https://www.zillow.com/homedetails/2528-E-Blanche-Dr-Phoenix-AZ-85032/8013905_zpid/,33.6237,-112.027,6524,2017-11-11
9024363,23841767,"3147 N 77TH Ln, Phoenix, AZ 85033 ",85033,0.3151058256626129,0.9021378755569458,0.28426890013888695,154900,https://www.zillow.com/homedetails/3147-N-77th-Ln-Phoenix-AZ-85033/7469330_zpid/,33.4853,-112.226,6535,2017-11-22
244451,23841407,"1933 W Davis Rd, Phoenix, AZ 85023 ",85023,0.31651515513658524,0.8959726989269257,0.28358893779900085,200000,https://www.zillow.com/homedetails/1933-W-Davis-Rd-Phoenix-AZ-85023/81995109_zpid/,33.6318,-112.101,6537,2017-11-24
404268,23780495,"16417 N 47th Dr, Glendale, AZ 85306 ",85306,0.3516223058104515,0.8062263131141663,0.2834871552222622,245000,https://www.zillow.com/homedetails/16417-N-47th-Dr-Glendale-AZ-85306/7951226_zpid/,33.6345,-112.161,6277,2017-03-09
8946285,22054871,"1612 W Andorra Dr, Phoenix, AZ 85029 ",85029,0.36807121336460114,0.7693049609661102,0.2831590104302033,219900,https://www.zillow.com/homedetails/1612-W-Andorra-Dr-Phoenix-AZ-85029/7784242_zpid/,33.6066,-112.094,6380,2017-06-20
354473,23783928,"2302 E Beck Ln, Phoenix, AZ 85022 ",85022,0.35877813398838043,0.7891844213008881,0.2831421140470325,149900,https://www.zillow.com/homedetails/2302-E-Beck-Ln-Phoenix-AZ-85022/8007955_zpid/,33.6274,-112.03299999999999,6282,2017-03-14
440994,23821180,"8228 W Fairmount Ave, Phoenix, AZ 85033 ",85033,0.3173931986093521,0.8920084834098816,0.2831174257361395,167000,https://www.zillow.com/homedetails/8228-W-Fairmount-Ave-Phoenix-AZ-85033/7478785_zpid/,33.4907,-112.23700000000001,6517,2017-11-04
402667,23823693,"15234 N 51st Dr, Glendale, AZ 85306 ",85306,0.3222033977508545,0.8783543407917023,0.28300875303229844,245000,https://www.zillow.com/homedetails/15234-N-51st-Dr-Glendale-AZ-85306/7911002_zpid/,33.6236,-112.169,6519,2017-11-06
9001785,23834299,"6614 W Weldon Ave, Phoenix, AZ 85033 ",85033,0.31574586778879166,0.896263062953949,0.282991358579435,149000,https://www.zillow.com/homedetails/6614-W-Weldon-Ave-Phoenix-AZ-85033/7489041_zpid/,33.4907,-112.20200000000001,6524,2017-11-11
9001435,23827303,"9401 W Hidden Valley Cir, Sun City, AZ 85351 ",85351,0.3168850541114807,0.8925755620002747,0.28284385526304234,180000,https://www.zillow.com/homedetails/9401-W-Hidden-Valley-Cir-Sun-City-AZ-85351/7922785_zpid/,33.631,-112.262,6525,2017-11-12
9022258,23835030,"3023 W Krall St, Phoenix, AZ 85017 ",85017,0.32683123648166656,0.8643677234649658,0.282502371834898,249900,https://www.zillow.com/homedetails/3023-W-Krall-St-Phoenix-AZ-85017/7759497_zpid/,33.534,-112.125,6530,2017-11-17
8996051,23841761,"3410 N 67TH Dr, Phoenix, AZ 85033 ",85033,0.3106938600540161,0.909037709236145,0.28243243481723823,220000,https://www.zillow.com/homedetails/3410-N-67th-Dr-Phoenix-AZ-85033/7485764_zpid/,33.4878,-112.204,6537,2017-11-24
1354714,21989085,"6518 N 60th Ave, Glendale, AZ 85301 ",85301,0.4013078659772873,0.7036658227443695,0.28238662968669503,115000,https://www.zillow.com/homedetails/6518-N-60th-Ave-Glendale-AZ-85301/7707850_zpid/,33.532,-112.19,6359,2017-05-30
330099,22738563,"3820 N 23rd Ave, Phoenix, AZ 85015 ",85015,0.34292128682136536,0.8227941393852234,0.28215362506705866,245000,https://www.zillow.com/homedetails/3820-N-23rd-Ave-Phoenix-AZ-85015/7516043_zpid/,33.4921,-112.10799999999999,6487,2017-10-05
244488,23837399,"1935 W Davis Rd, Phoenix, AZ 85023 ",85023,0.31570207327604294,0.8936749696731567,0.2821350407607204,199500,https://www.zillow.com/homedetails/1935-W-Davis-Rd-Phoenix-AZ-85023/81978440_zpid/,33.632,-112.101,6533,2017-11-20
405134,21884112,"4532 W Bobbie Ter, Glendale, AZ 85306 ",85306,0.3479897156357765,0.8093347549438477,0.2816401712270604,234975,https://www.zillow.com/homedetails/4532-W-Bobbie-Ter-Glendale-AZ-85306/7950550_zpid/,33.635999999999996,-112.154,6281,2017-03-13
441880,23831779,"3901 N 84th Ln, Phoenix, AZ 85037 ",85037,0.3121596574783325,0.9010402262210846,0.281268408391373,174000,https://www.zillow.com/homedetails/3901-N-84th-Ln-Phoenix-AZ-85037/67081706_zpid/,33.4925,-112.241,6526,2017-11-13
428369,23828377,"6211 W Clarendon Ave, Phoenix, AZ 85033 ",85033,0.3213832378387451,0.8742390871047974,0.2809657884589285,219000,https://www.zillow.com/homedetails/6211-W-Clarendon-Ave-Phoenix-AZ-85033/7496532_zpid/,33.4914,-112.193,6513,2017-10-31
453577,23828246,"4508 N 50th Ave, Phoenix, AZ 85031 ",85031,0.3276558369398117,0.8572106957435608,0.2808700879476147,155000,https://www.zillow.com/homedetails/4508-N-50th-Ave-Phoenix-AZ-85031/7720645_zpid/,33.5027,-112.167,6520,2017-11-07
830701,23830958,"3833 W Ocotillo Rd, Phoenix, AZ 85019 ",85019,0.3164282664656639,0.8847953379154205,0.27997425495347783,199900,https://www.zillow.com/homedetails/3833-W-Ocotillo-Rd-Phoenix-AZ-85019/7758511_zpid/,33.5346,-112.14200000000001,6525,2017-11-12
470656,22708029,"3446 W Montebello Ave, Phoenix, AZ 85017 ",85017,0.3578097075223923,0.7823739647865295,0.27994099951340257,169800,https://www.zillow.com/homedetails/3446-W-Montebello-Ave-Phoenix-AZ-85017/7762454_zpid/,33.5205,-112.134,6472,2017-09-20
231468,23814655,"1516 W Hartford Ave, Phoenix, AZ 85023 ",85023,0.3272872492671013,0.8540599048137665,0.27952291695582,150000,https://www.zillow.com/homedetails/1516-W-Hartford-Ave-Phoenix-AZ-85023/7965136_zpid/,33.6433,-112.09200000000001,6512,2017-10-30
556266,23783983,"2325 N 28th Pl, Phoenix, AZ 85008 ",85008,0.3560033217072487,0.7850521802902222,0.27948118389683696,144000,https://www.zillow.com/homedetails/2325-N-28th-Pl-Phoenix-AZ-85008/7542977_zpid/,33.4742,-112.02,6305,2017-04-06
342843,23840815,"1701 S 65th Dr, Phoenix, AZ 85043 ",85043,0.3078469783067703,0.9067235291004181,0.27913209859321464,176000,https://www.zillow.com/homedetails/1701-S-65th-Dr-Phoenix-AZ-85043/52621334_zpid/,33.4331,-112.2,6537,2017-11-24
9023482,23827286,"15606 N 99th Dr, Sun City, AZ 85351 ",85351,0.3129604607820511,0.8914988934993744,0.2790039044962529,192500,https://www.zillow.com/homedetails/15606-N-99th-Dr-Sun-City-AZ-85351/2092083796_zpid/,33.6257,-112.271,6526,2017-11-13
386131,23834497,"1914 W Voltaire Ave, Phoenix, AZ 85029 ",85029,0.31638847291469574,0.8810838162899017,0.27876476314581433,199000,https://www.zillow.com/homedetails/1914-W-Voltaire-Ave-Phoenix-AZ-85029/7749583_zpid/,33.609,-112.1,6529,2017-11-16
331642,22613792,"5025 N 20th Ave, Phoenix, AZ 85015 ",85015,0.3879421055316925,0.7182000875473022,0.2786200541561463,199900,https://www.zillow.com/homedetails/5025-N-20th-Ave-Phoenix-AZ-85015/7765209_zpid/,33.5105,-112.102,6451,2017-08-30
9021461,23758479,"2442 E Adams St, Phoenix, AZ 85034 ",85034,0.39958456158638,0.6970219612121582,0.278519214787039,175000,https://www.zillow.com/homedetails/2442-E-Adams-St-Phoenix-AZ-85034/7544716_zpid/,33.4495,-112.02799999999999,6502,2017-10-20
256392,23822269,"4228 W Hearn Rd, Phoenix, AZ 85053 ",85053,0.3160001039505005,0.8811180889606476,0.278433407704231,229500,https://www.zillow.com/homedetails/4228-W-Hearn-Rd-Phoenix-AZ-85053/7944988_zpid/,33.6147,-112.15100000000001,6518,2017-11-05
7546896,22096492,"6102 W Mulberry Dr, Phoenix, AZ 85033 ",85033,0.35967402160167694,0.7712769508361816,0.2774082826759283,165000,https://www.zillow.com/homedetails/6102-W-Mulberry-Dr-Phoenix-AZ-85033/7498385_zpid/,33.4872,-112.19200000000001,6321,2017-04-22
329444,22745740,"2423 W San Miguel Ave, Phoenix, AZ 85015 ",85015,0.35209841281175613,0.7875988781452179,0.27731231492725095,178800,https://www.zillow.com/homedetails/2423-W-San-Miguel-Ave-Phoenix-AZ-85015/7763696_zpid/,33.5193,-112.11200000000001,6488,2017-10-06
416064,23818791,"4416 W Turquoise Ave, Glendale, AZ 85302 ",85302,0.31695935130119324,0.8742048144340515,0.277087390887397,249900,https://www.zillow.com/homedetails/4416-W-Turquoise-Ave-Glendale-AZ-85302/7729268_zpid/,33.5757,-112.154,6515,2017-11-02
388744,23819809,"3835 W Camino Acequia, Phoenix, AZ 85051 ",85051,0.3145188242197037,0.8774116337299347,0.27596247539742835,233900,https://www.zillow.com/homedetails/3835-W-Camino-Acequia-Phoenix-AZ-85051/7745922_zpid/,33.5749,-112.14200000000001,6516,2017-11-03
9023953,23835041,"3306 W Pierson St, Phoenix, AZ 85017 ",85017,0.33136919140815735,0.8325490951538086,0.2758811204687106,159000,https://www.zillow.com/homedetails/3306-W-Pierson-St-Phoenix-AZ-85017/7766533_zpid/,33.507,-112.13,6527,2017-11-14
457725,23828275,"5216 W Mulberry Dr, Phoenix, AZ 85031 ",85031,0.3082699105143547,0.8936484754085541,0.2754849355454845,175000,https://www.zillow.com/homedetails/5216-W-Mulberry-Dr-Phoenix-AZ-85031/7497059_zpid/,33.4869,-112.17200000000001,6523,2017-11-10
1844940,23839763,"7728 W Crittenden Ln, Phoenix, AZ 85033 ",85033,0.30765169113874435,0.8944764733314514,0.275187199704241,165500,https://www.zillow.com/homedetails/7728-W-Crittenden-Ln-Phoenix-AZ-85033/7478567_zpid/,33.4884,-112.226,6530,2017-11-17
420303,23834253,"5729 W Purdue Cir, Glendale, AZ 85302 ",85302,0.3067566305398941,0.8967074453830719,0.27507095452574726,220000,https://www.zillow.com/homedetails/5729-W-Purdue-Cir-Glendale-AZ-85302/7734981_zpid/,33.5741,-112.18299999999999,6528,2017-11-15
388115,23831776,"3814 W Davidson Ln, Phoenix, AZ 85051 ",85051,0.3145979717373848,0.8735757172107697,0.27482514879353936,192000,https://www.zillow.com/homedetails/3814-W-Davidson-Ln-Phoenix-AZ-85051/7746767_zpid/,33.5701,-112.141,6520,2017-11-07
8970322,23833063,"3323 N 63rd Ave, Phoenix, AZ 85033 ",85033,0.3087905943393707,0.8894619047641754,0.2746574702143585,165000,https://www.zillow.com/homedetails/3323-N-63rd-Ave-Phoenix-AZ-85033/7498361_zpid/,33.4857,-112.195,6528,2017-11-15
8944881,17734724,"3302 W Edgemont Ave, Phoenix, AZ 85009 ",85009,0.3828645795583725,0.7163847386837006,0.27427834177816957,138000,https://www.zillow.com/homedetails/3302-W-Edgemont-Ave-Phoenix-AZ-85009/7510406_zpid/,33.4799,-112.13,6334,2017-05-05
409622,23825573,"4447 W Mercer Ln, Glendale, AZ 85304 ",85304,0.30888766050338745,0.885291337966919,0.2734555702485153,227000,https://www.zillow.com/homedetails/4447-W-Mercer-Ln-Glendale-AZ-85304/7727953_zpid/,33.5852,-112.156,6526,2017-11-13
398944,22432872,"9409 N 36th Dr, Phoenix, AZ 85051 ",85051,0.34357063472270966,0.7953768074512482,0.27326811457974776,215000,https://www.zillow.com/homedetails/9409-N-36th-Dr-Phoenix-AZ-85051/7746677_zpid/,33.5717,-112.137,6330,2017-05-01
7454178,23781563,"1831 E Monte Vista Rd, Phoenix, AZ 85006 ",85006,0.3881625682115555,0.7031638622283936,0.2729418906361296,224900,https://www.zillow.com/homedetails/1831-E-Monte-Vista-Rd-Phoenix-AZ-85006/7531909_zpid/,33.4709,-112.042,6286,2017-03-18
9023068,23823620,"15224 N 30th St, Phoenix, AZ 85032 ",85032,0.3296385854482651,0.8262262344360352,0.27235604717974127,229000,https://www.zillow.com/homedetails/15224-N-30th-St-Phoenix-AZ-85032/8011594_zpid/,33.6253,-112.01799999999999,6520,2017-11-07
319525,23824915,"2238 N 22nd St, Phoenix, AZ 85006 ",85006,0.34176570177078247,0.7957012057304382,0.271943380976321,249900,https://www.zillow.com/homedetails/2238-N-22nd-St-Phoenix-AZ-85006/7531630_zpid/,33.4726,-112.035,6522,2017-11-09
837297,23835058,"6553 N 41st Ave, Phoenix, AZ 85019 ",85019,0.30721521377563477,0.8846989572048187,0.27179297926475954,199999,https://www.zillow.com/homedetails/6553-N-41st-Ave-Phoenix-AZ-85019/7762442_zpid/,33.5332,-112.147,6531,2017-11-18
701826,23841957,"2733 W Jacinto Cir, Mesa, AZ 85202 ",85202,0.30704180896282196,0.8845584392547607,0.2715964233221122,200000,https://www.zillow.com/homedetails/2733-W-Jacinto-Cir-Mesa-AZ-85202/8250117_zpid/,33.3796,-111.891,6535,2017-11-22
830006,22432017,"3735 W Catalina Dr, Phoenix, AZ 85019 ",85019,0.3765667825937271,0.7210928499698639,0.2715396144644928,144000,https://www.zillow.com/homedetails/3735-W-Catalina-Dr-Phoenix-AZ-85019/7507455_zpid/,33.4817,-112.14,6334,2017-05-05
827683,22544155,"3017 N 40th Dr, Phoenix, AZ 85019 ",85019,0.3452002555131912,0.785916805267334,0.27129868199039464,140000,https://www.zillow.com/homedetails/3017-N-40th-Dr-Phoenix-AZ-85019/7509168_zpid/,33.483000000000004,-112.146,6437,2017-08-16
451162,23786507,"3442 N 49th Dr, Phoenix, AZ 85031 ",85031,0.34707265347242355,0.7790524065494537,0.2703877859351962,165000,https://www.zillow.com/homedetails/3442-N-49th-Dr-Phoenix-AZ-85031/7508566_zpid/,33.4893,-112.166,6233,2017-01-24
331783,22651353,"10428 N 13th Ave, Phoenix, AZ 85021 ",85021,0.35305681824684143,0.7656729519367218,0.27032605622844574,195000,https://www.zillow.com/homedetails/10428-N-13th-Ave-Phoenix-AZ-85021/7781474_zpid/,33.5811,-112.089,6463,2017-09-11
343249,23831593,"2019 N 37th Ave, Phoenix, AZ 85009 ",85009,0.3097466081380844,0.8715122640132904,0.26994796772885943,145000,https://www.zillow.com/homedetails/2019-N-37th-Ave-Phoenix-AZ-85009/7511305_zpid/,33.4704,-112.139,6523,2017-11-10
380026,23830832,"2815 W Echo Ln, Phoenix, AZ 85051 ",85051,0.32131369411945343,0.8381882607936859,0.26932136644317906,179900,https://www.zillow.com/homedetails/2815-W-Echo-Ln-Phoenix-AZ-85051/7750984_zpid/,33.5592,-112.12,6527,2017-11-14
321465,23512213,"358 N 15th St, Phoenix, AZ 85006 ",85006,0.38832373917102814,0.6929144263267517,0.2690751209567521,180000,https://www.zillow.com/homedetails/358-N-15th-St-Phoenix-AZ-85006/7529011_zpid/,33.4535,-112.04899999999999,6491,2017-10-09
834955,22429468,"3614 W Sierra Vista Dr, Phoenix, AZ 85019 ",85019,0.3593454957008362,0.7481566369533539,0.2688467175678735,175000,https://www.zillow.com/homedetails/3614-W-Sierra-Vista-Dr-Phoenix-AZ-85019/7761685_zpid/,33.5322,-112.137,6327,2017-04-28
326266,22680508,"1747 W Colter St, Phoenix, AZ 85015 ",85015,0.36012043058872223,0.7462678253650665,0.2687462906049771,249900,https://www.zillow.com/homedetails/1747-W-Colter-St-Phoenix-AZ-85015/7775943_zpid/,33.5127,-112.098,6466,2017-09-14
333549,23831460,"1415 W Cinnabar Ave, Phoenix, AZ 85021 ",85021,0.3190821334719658,0.8418757021427155,0.26862749515790685,215000,https://www.zillow.com/homedetails/1415-W-Cinnabar-Ave-Phoenix-AZ-85021/7781704_zpid/,33.5764,-112.09100000000001,6522,2017-11-09
469757,23786316,"3342 W Krall St, Phoenix, AZ 85017 ",85017,0.3638406842947006,0.7364858388900757,0.2679635115951218,139900,https://www.zillow.com/homedetails/3342-W-Krall-St-Phoenix-AZ-85017/82817782_zpid/,33.5343,-112.132,6289,2017-03-21
384150,23834117,"3417 W Diana Ave, Phoenix, AZ 85051 ",85051,0.30498503148555756,0.878426730632782,0.2679070040997944,179900,https://www.zillow.com/homedetails/3417-W-Diana-Ave-Phoenix-AZ-85051/7753849_zpid/,33.5627,-112.133,6526,2017-11-13
458973,22036993,"5608 W Heatherbrae Dr, Phoenix, AZ 85031 ",85031,0.3510117009282112,0.7623980641365051,0.26761064127693013,165000,https://www.zillow.com/homedetails/5608-W-Heatherbrae-Dr-Phoenix-AZ-85031/7713127_zpid/,33.4974,-112.181,6348,2017-05-19
5187848,21947200,"16030 N Lakeforest Dr, Sun City, AZ 85351 ",85351,0.34118983894586563,0.7838307023048401,0.26743507108021314,239900,https://www.zillow.com/homedetails/16030-N-Lakeforest-Dr-Sun-City-AZ-85351/7923097_zpid/,33.6324,-112.272,6375,2017-06-15
350252,22116796,"3827 W Taylor St, Phoenix, AZ 85009 ",85009,0.38709644973278046,0.6889214515686035,0.2666790480469601,112500,https://www.zillow.com/homedetails/3827-W-Taylor-St-Phoenix-AZ-85009/7505668_zpid/,33.454,-112.14299999999999,6364,2017-06-04
8982670,23842974,"1934 N Iowa St, Chandler, AZ 85225 ",85225,0.29709628224372864,0.8967215716838837,0.26641264515503504,212500,https://www.zillow.com/homedetails/1934-N-Iowa-St-Chandler-AZ-85225/8182675_zpid/,33.3331,-111.85,6540,2017-11-27
7515382,22616806,"3843 W Grant St, Phoenix, AZ 85009 ",85009,0.3710189610719681,0.7168405652046204,0.26596144175646064,114900,https://www.zillow.com/homedetails/3843-W-Grant-St-Phoenix-AZ-85009/7506219_zpid/,33.4411,-112.14299999999999,6403,2017-07-13
1346962,23823701,"4935 W Lamar Rd, Glendale, AZ 85301 ",85301,0.3115755319595337,0.8535318076610565,0.2659396270163761,149900,https://www.zillow.com/homedetails/4935-W-Lamar-Rd-Glendale-AZ-85301/7722382_zpid/,33.5365,-112.166,6520,2017-11-07
2044933,22443059,"1446 W Bentley St, Mesa, AZ 85201 ",85201,0.3585926294326782,0.7401103079319,0.2653981013915292,220000,https://www.zillow.com/homedetails/1446-W-Bentley-St-Mesa-AZ-85201/7610672_zpid/,33.4202,-111.86200000000001,6338,2017-05-09
316554,23837195,"1843 E Harvard St, Phoenix, AZ 85006 ",85006,0.34067852050065994,0.7788557410240173,0.2653394215355074,119900,https://www.zillow.com/homedetails/1843-E-Harvard-St-Phoenix-AZ-85006/7531029_zpid/,33.4737,-112.041,6529,2017-11-16
409973,23835214,"4617 W Christy Dr, Glendale, AZ 85304 ",85304,0.3009353131055832,0.8816857635974884,0.2653303813289454,230000,https://www.zillow.com/homedetails/4617-W-Christy-Dr-Glendale-AZ-85304/7727674_zpid/,33.5841,-112.15899999999999,6530,2017-11-17
9021767,23840851,"1139 W Auburn St, Mesa, AZ 85201 ",85201,0.301168791949749,0.8792935013771057,0.2648157615790079,215000,https://www.zillow.com/homedetails/1139-W-Auburn-St-Mesa-AZ-85201/81997574_zpid/,33.4176,-111.85600000000001,6536,2017-11-23
9019302,23841992,"4718 W Nicolet Ave, Glendale, AZ 85301 ",85301,0.29822690039873123,0.8878122866153717,0.2647695063732123,159999,https://www.zillow.com/homedetails/4718-W-Nicolet-Ave-Glendale-AZ-85301/7725715_zpid/,33.5429,-112.161,6535,2017-11-22
331769,23835049,"5044 N 20th Ave, Phoenix, AZ 85015 ",85015,0.31883441656827927,0.8302370607852936,0.2647081488888421,198900,https://www.zillow.com/homedetails/5044-N-20th-Ave-Phoenix-AZ-85015/7765233_zpid/,33.510999999999996,-112.103,6528,2017-11-15
321430,23803362,"334 N 15th St, Phoenix, AZ 85006 ",85006,0.3850574493408203,0.686955451965332,0.26451731414454116,187000,https://www.zillow.com/homedetails/334-N-15th-St-Phoenix-AZ-85006/7529005_zpid/,33.4527,-112.04899999999999,6506,2017-10-24
411159,23837722,"5131 W Corrine Dr, Glendale, AZ 85304 ",85304,0.2960057705640793,0.8890905976295471,0.26317594745261186,235000,https://www.zillow.com/homedetails/5131-W-Corrine-Dr-Glendale-AZ-85304/7911511_zpid/,33.6005,-112.171,6533,2017-11-20
477931,23837214,"1802 N 66th Ave, Phoenix, AZ 85035 ",85035,0.29716409742832184,0.884816586971283,0.26293572245692953,150000,https://www.zillow.com/homedetails/1802-N-66th-Ave-Phoenix-AZ-85035/7490498_zpid/,33.4678,-112.20200000000001,6531,2017-11-18
409836,23788987,"4544 W Cholla St, Glendale, AZ 85304 ",85304,0.3392486423254013,0.7746635377407074,0.26280355343752726,230000,https://www.zillow.com/homedetails/4544-W-Cholla-St-Glendale-AZ-85304/7727053_zpid/,33.5891,-112.15700000000001,6319,2017-04-20
8947825,23859679,"11910 N 89th Dr, Peoria, AZ 85345 ",85345,0.29093341529369354,0.9021432399749756,0.2624636138900378,199000,https://www.zillow.com/homedetails/11910-N-89th-Dr-Peoria-AZ-85345/7685566_zpid/,33.5927,-112.25200000000001,6547,2017-12-04
461231,23830943,"2512 W Luke Ave, Phoenix, AZ 85017 ",85017,0.3253103867173195,0.8048079907894135,0.261812398716893,180000,https://www.zillow.com/homedetails/2512-W-Luke-Ave-Phoenix-AZ-85017/7763843_zpid/,33.5188,-112.113,6522,2017-11-09
352271,23842122,"6938 W Villa St, Phoenix, AZ 85043 ",85043,0.28936104476451874,0.9036018550395966,0.26146717682541487,165000,https://www.zillow.com/homedetails/6938-W-Villa-St-Phoenix-AZ-85043/7476296_zpid/,33.455999999999996,-112.209,6540,2017-11-27
9019709,23816778,"2325 W Adams St, Phoenix, AZ 85009 ",85009,0.359390065073967,0.7195365130901337,0.25859427426255843,150000,https://www.zillow.com/homedetails/2325-W-Adams-St-Phoenix-AZ-85009/7515215_zpid/,33.4489,-112.11,6514,2017-11-01
22930,21627869,"5725 W Highland Ave, Phoenix, AZ 85031 ",85031,0.34153567254543304,0.7563219964504242,0.25831094171860025,175000,https://www.zillow.com/homedetails/5725-W-Highland-Ave-Phoenix-AZ-85031/7713313_zpid/,33.5057,-112.18299999999999,6328,2017-04-29
9024018,23835783,"1725 W Auburn St, Mesa, AZ 85201 ",85201,0.306464321911335,0.8427495658397675,0.2582726742361563,189900,https://www.zillow.com/homedetails/1725-W-Auburn-St-Mesa-AZ-85201/7612538_zpid/,33.4176,-111.869,6529,2017-11-16
334027,23820917,"6217 N 25th Ave, Phoenix, AZ 85015 ",85015,0.3190707042813301,0.8091569542884827,0.2581782792789622,186500,https://www.zillow.com/homedetails/6217-N-25th-Ave-Phoenix-AZ-85015/7772678_zpid/,33.5283,-112.11200000000001,6516,2017-11-03
502071,22116293,"3625 N 48th Ave, Phoenix, AZ 85031 ",85031,0.3377721831202507,0.7642673552036285,0.2581482530546697,158000,https://www.zillow.com/homedetails/3625-N-48th-Ave-Phoenix-AZ-85031/7508647_zpid/,33.4911,-112.163,6338,2017-05-09
8990554,23839230,"3845 N 59th Ave, Phoenix, AZ 85033 ",85033,0.2895788997411728,0.8891853392124176,0.2574893121951134,176000,https://www.zillow.com/homedetails/3845-N-59th-Ave-Phoenix-AZ-85033/7496809_zpid/,33.493,-112.186,6531,2017-11-18
8990467,22512781,"1711 E Harvard Street Phoenix Az, Phoenix, AZ 85006 ",85006,0.39093439280986786,0.6578327417373657,0.2571694434615477,100000,https://www.zillow.com/homedetails/1711-E-Harvard-Street-Phoenix-Az-Phoenix-AZ-85006/2093095994_zpid/,33.4742,-112.04700000000001,6437,2017-08-16
1351717,23840567,"6001 W Northview Ave, Glendale, AZ 85301 ",85301,0.3093840032815933,0.8295266926288605,0.2566422889944566,179000,https://www.zillow.com/homedetails/6001-W-Northview-Ave-Glendale-AZ-85301/7705497_zpid/,33.5431,-112.189,6534,2017-11-21
470861,22224283,"4135 N 29th Dr, Phoenix, AZ 85017 ",85017,0.36597054451704025,0.6996411085128784,0.25604803744896376,125000,https://www.zillow.com/homedetails/4135-N-29th-Dr-Phoenix-AZ-85017/64623257_zpid/,33.4965,-112.12200000000001,6321,2017-04-22
389338,23787313,"3912 W Townley Ave, Phoenix, AZ 85051 ",85051,0.3478411063551903,0.7353802025318146,0.2557954632403703,184900,https://www.zillow.com/homedetails/3912-W-Townley-Ave-Phoenix-AZ-85051/7754475_zpid/,33.5662,-112.14399999999999,6291,2017-03-23
318413,23837869,"2142 E Garfield St, Phoenix, AZ 85006 ",85006,0.35235781222581863,0.7254698574542999,0.2556249718083736,185000,https://www.zillow.com/homedetails/2142-E-Garfield-St-Phoenix-AZ-85006/7528690_zpid/,33.458,-112.035,6529,2017-11-16
403477,23842141,"12447 N 50th Ln, Glendale, AZ 85304 ",85304,0.28418705612421036,0.8952295780181885,0.2544126583323081,209900,https://www.zillow.com/homedetails/12447-N-50th-Ln-Glendale-AZ-85304/7954648_zpid/,33.5997,-112.16799999999999,6540,2017-11-27
7569182,23846194,"11603 N Rio Vista Dr, Sun City, AZ 85351 ",85351,0.2909529507160187,0.8737360835075378,0.25421609164357584,164000,https://www.zillow.com/homedetails/11603-N-Rio-Vista-Dr-Sun-City-AZ-85351/7686077_zpid/,33.5899,-112.266,6543,2017-11-30
380762,23785452,"2911 W Lawrence Ln, Phoenix, AZ 85051 ",85051,0.3487945422530174,0.7264606356620789,0.25338550488059086,155000,https://www.zillow.com/homedetails/2911-W-Lawrence-Ln-Phoenix-AZ-85051/7750459_zpid/,33.5641,-112.12200000000001,6274,2017-03-06
328960,22284604,"2322 W Cheery Lynn Rd, Phoenix, AZ 85015 ",85015,0.35136552155017853,0.7204223275184631,0.25313156684491833,249900,https://www.zillow.com/homedetails/2322-W-Cheery-Lynn-Rd-Phoenix-AZ-85015/7517610_zpid/,33.4857,-112.109,6398,2017-07-08
8981328,22485420,"1411 E Whitton Ave, Phoenix, AZ 85014 ",85014,0.3429276570677757,0.7364551424980164,0.25255083655235966,160000,https://www.zillow.com/homedetails/1411-E-Whitton-Ave-Phoenix-AZ-85014/7534776_zpid/,33.4887,-112.051,6421,2017-07-31
451525,21618159,"4229 N 51st Ave, Phoenix, AZ 85031 ",85031,0.3544991761445999,0.7087128758430481,0.2512381306094307,165000,https://www.zillow.com/homedetails/4229-N-51st-Ave-Phoenix-AZ-85031/7721281_zpid/,33.4982,-112.169,6355,2017-05-26
9005709,23843235,"7738 W Monterey Way, Phoenix, AZ 85033 ",85033,0.27748897671699524,0.9045936465263367,0.25101476531928846,161000,https://www.zillow.com/homedetails/7738-W-Monterey-Way-Phoenix-AZ-85033/7469325_zpid/,33.4849,-112.226,6540,2017-11-27
9023845,23833062,"1333 N 32nd Ave, Phoenix, AZ 85009 ",85009,0.32179904729127884,0.7799117267131805,0.2509748506275977,125000,https://www.zillow.com/homedetails/1333-N-32nd-Ave-Phoenix-AZ-85009/7513099_zpid/,33.464,-112.12700000000001,6528,2017-11-15
225855,23847348,"1461 E Renee Dr, Phoenix, AZ 85024 ",85024,0.273987278342247,0.9147400856018066,0.25062714644459305,249000,https://www.zillow.com/homedetails/1461-E-Renee-Dr-Phoenix-AZ-85024/7996071_zpid/,33.6554,-112.05,6545,2017-12-02
8986493,22488468,"1714 E Madison St, Phoenix, AZ 85034 ",85034,0.3854244351387024,0.6497717499732971,0.2504379097025442,190000,https://www.zillow.com/homedetails/1714-E-Madison-St-Phoenix-AZ-85034/7527760_zpid/,33.4464,-112.045,6428,2017-08-07
328718,23810569,"2235 W Highland Ave, Phoenix, AZ 85015 ",85015,0.33565298467874527,0.74392369389534,0.24970020822920813,99000,https://www.zillow.com/homedetails/2235-W-Highland-Ave-Phoenix-AZ-85015/7767290_zpid/,33.5055,-112.10799999999999,6509,2017-10-27
453580,23853046,"4508 N 57th Ave, Phoenix, AZ 85031 ",85031,0.2836625203490257,0.8802227079868317,0.24968619181598917,189950,https://www.zillow.com/homedetails/4508-N-57th-Ave-Phoenix-AZ-85031/7713228_zpid/,33.5028,-112.182,6537,2017-11-24
1166,23837694,"8039 N 29th Ave, Phoenix, AZ 85051 ",85051,0.2866594195365906,0.8701587021350861,0.2494391884587568,180000,https://www.zillow.com/homedetails/8039-N-29th-Ave-Phoenix-AZ-85051/7751052_zpid/,33.5545,-112.12100000000001,6533,2017-11-20
330587,22131299,"4508 N 17th Ave, Phoenix, AZ 85015 ",85015,0.323060043156147,0.7713934779167175,0.2492064102661451,185000,https://www.zillow.com/homedetails/4508-N-17th-Ave-Phoenix-AZ-85015/7772361_zpid/,33.5027,-112.096,6321,2017-04-22
9011104,22672448,"12997 N 71st Ave, Peoria, AZ 85381 ",85381,0.3654909282922745,0.6786390542984009,0.2480364179309138,200000,https://www.zillow.com/homedetails/12997-N-71st-Ave-Peoria-AZ-85381/50185506_zpid/,33.603,-112.211,6408,2017-07-18
553645,23781775,"1901 N 44th St, Phoenix, AZ 85008 ",85008,0.36378246545791626,0.6774376332759857,0.24643993242711382,189000,https://www.zillow.com/homedetails/1901-N-44th-St-Phoenix-AZ-85008/7561032_zpid/,33.4681,-111.98700000000001,6317,2017-04-18
9025872,23860172,"15168 N 90th Ln, Peoria, AZ 85381 ",85381,0.26949454843997955,0.9124947190284729,0.24591235225844432,218700,https://www.zillow.com/homedetails/15168-N-90th-Ln-Peoria-AZ-85381/7908827_zpid/,33.6229,-112.25399999999999,6546,2017-12-03
308089,23836076,"742 S 1ST St, Phoenix, AZ 85004 ",85004,0.3399505466222763,0.7222461104393005,0.24552796003965316,135000,https://www.zillow.com/homedetails/742-S-1st-St-Phoenix-AZ-85004/7522903_zpid/,33.4396,-112.073,6530,2017-11-17
258487,23844522,"619 W Wescott Dr, Phoenix, AZ 85027 ",85027,0.27009980380535126,0.9082398116588593,0.24531539493726706,239900,https://www.zillow.com/homedetails/619-W-Wescott-Dr-Phoenix-AZ-85027/7968519_zpid/,33.6581,-112.08200000000001,6543,2017-11-30
349445,23786888,"3622 W Berkeley Rd, Phoenix, AZ 85009 ",85009,0.3521277904510498,0.6919571459293365,0.2436573408829119,144900,https://www.zillow.com/homedetails/3622-W-Berkeley-Rd-Phoenix-AZ-85009/7512043_zpid/,33.4684,-112.137,6316,2017-04-17
9021286,23820140,"2141 E Garfield St, Phoenix, AZ 85006 ",85006,0.34721163660287857,0.6942689716815948,0.2410582659001641,117900,https://www.zillow.com/homedetails/2141-E-Garfield-St-Phoenix-AZ-85006/7528698_zpid/,33.4575,-112.035,6516,2017-11-03
342222,23780659,"1648 N 38th Dr, Phoenix, AZ 85009 ",85009,0.3545515611767769,0.679217666387558,0.2408176839965559,129900,https://www.zillow.com/homedetails/1648-N-38th-Dr-Phoenix-AZ-85009/7511922_zpid/,33.4675,-112.14200000000001,6321,2017-04-22
9026097,23861966,"8850 W Greenbrian Dr, Peoria, AZ 85382 ",85382,0.2637879475951195,0.9101121723651886,0.24007662202954871,185000,https://www.zillow.com/homedetails/8850-W-Greenbrian-Dr-Peoria-AZ-85382/7898281_zpid/,33.6434,-112.25,6548,2017-12-05
345521,23753202,"2846 W Melvin St, Phoenix, AZ 85009 ",85009,0.3581794798374176,0.6665759384632111,0.23875382291089142,80000,https://www.zillow.com/homedetails/2846-W-Melvin-St-Phoenix-AZ-85009/7514191_zpid/,33.4524,-112.12200000000001,6497,2017-10-15
359281,23846977,"2013 S 86th Ave, Tolleson, AZ 85353 ",85353,0.25399377942085266,0.9362139105796814,0.23779250949450947,215000,https://www.zillow.com/homedetails/2013-S-86th-Ave-Tolleson-AZ-85353/59271375_zpid/,33.4287,-112.244,6546,2017-12-03
256906,23848601,"609 W Beverly Ln, Phoenix, AZ 85023 ",85023,0.2627245783805847,0.9041147530078888,0.23753316729166407,224900,https://www.zillow.com/homedetails/609-W-Beverly-Ln-Phoenix-AZ-85023/7965493_zpid/,33.6333,-112.08200000000001,6547,2017-12-04
9024040,23847794,"2215 S 99th Ln, Tolleson, AZ 85353 ",85353,0.2516765221953392,0.9435145258903503,0.2374604545168677,224000,https://www.zillow.com/homedetails/2215-S-99th-Ln-Tolleson-AZ-85353/95076703_zpid/,33.4261,-112.273,6547,2017-12-04
312944,23779408,"1426 E Hubbell St, Phoenix, AZ 85006 ",85006,0.3884582072496414,0.610175609588623,0.23702772340825362,249900,https://www.zillow.com/homedetails/1426-E-Hubbell-St-Phoenix-AZ-85006/7532374_zpid/,33.4705,-112.051,6311,2017-04-12
499623,23853309,"7113 W Holly St, Phoenix, AZ 85035 ",85035,0.25654252618551254,0.9143533110618591,0.2345705082458971,135000,https://www.zillow.com/homedetails/7113-W-Holly-St-Phoenix-AZ-85035/7475387_zpid/,33.4699,-112.213,6548,2017-12-05
