property_id,transaction_id,address,zipcode,any_sell,good_sell,bayesian,list,url,lat,long,date_listed,transaction_date
9030467,23907928,"1105 S 6th Ave, Phoenix, AZ 85003 ",85003,0.1791515089571476,0.9969369173049927,0.1786027530702765,50000,https://www.zillow.com/homedetails/1105-S-6th-Ave-Phoenix-AZ-85003/2091048360_zpid/,33.437,-112.08200000000001,6619,2018-02-14
625494,23866146,"1522 W Plana Ave, Mesa, AZ 85202 ",85202,0.18038630113005638,0.939160943031311,0.1694117686792338,242500,https://www.zillow.com/homedetails/1522-W-Plana-Ave-Mesa-AZ-85202/8172015_zpid/,33.3588,-111.866,6585,2018-01-11
9029090,23901746,"2331 W Comstock Dr, Chandler, AZ 85224 ",85224,0.1791515089571476,0.9412628412246704,0.16862865833069174,245000,https://www.zillow.com/homedetails/2331-W-Comstock-Dr-Chandler-AZ-85224/8201985_zpid/,33.3471,-111.882,6625,2018-02-20
1128437,23920629,"3298 N Ash Dr, Chandler, AZ 85224 ",85224,0.1791515089571476,0.9404450058937073,0.16848214189707122,240000,https://www.zillow.com/homedetails/3298-N-Ash-Dr-Chandler-AZ-85224/8191971_zpid/,33.3549,-111.87100000000001,6636,2018-03-03
1126522,23920569,"2802 N Pennington Dr, Chandler, AZ 85224 ",85224,0.1791515089571476,0.9381847977638245,0.1680772222000455,249000,https://www.zillow.com/homedetails/2802-N-Pennington-Dr-Chandler-AZ-85224/8176474_zpid/,33.3465,-111.87100000000001,6634,2018-03-01
1112872,23885785,"1482 W Orchid Ln, Chandler, AZ 85224 ",85224,0.1786506064236164,0.9392516016960144,0.167797868227346,249900,https://www.zillow.com/homedetails/1482-W-Orchid-Ln-Chandler-AZ-85224/8203452_zpid/,33.3237,-111.867,6614,2018-02-09
9026756,23893480,"1033 W Orchid Ln, Chandler, AZ 85224 ",85224,0.1786506064236164,0.9392080307006836,0.16779008424260766,249900,https://www.zillow.com/homedetails/1033-W-Orchid-Ln-Chandler-AZ-85224/8203649_zpid/,33.3236,-111.86,6619,2018-02-14
354297,23929964,"8118 W Whyman Ave, Phoenix, AZ 85043 ",85043,0.17799460142850876,0.9414261281490326,0.16756876845427127,205000,https://www.zillow.com/homedetails/8118-W-Whyman-Ave-Phoenix-AZ-85043/52423847_zpid/,33.4273,-112.235,6640,2018-03-07
9033237,23929791,"2405 S 90TH Gln, Tolleson, AZ 85353 ",85353,0.17799460142850876,0.941315233707428,0.16754902984233722,210000,https://www.zillow.com/homedetails/2405-S-90TH-Gln-Tolleson-AZ-85353/67772731_zpid/,33.4252,-112.255,6633,2018-02-28
9026868,23897793,"1302 W Cortez Ct, Chandler, AZ 85224 ",85224,0.1791515089571476,0.93519327044487,0.16754128556676828,249500,https://www.zillow.com/homedetails/1302-W-Cortez-Ct-Chandler-AZ-85224/8172446_zpid/,33.3554,-111.86399999999999,6624,2018-02-19
1094758,23892220,"818 W Nopal Pl, Chandler, AZ 85225 ",85225,0.1791515089571476,0.9351450800895691,0.16753265219189895,249990,https://www.zillow.com/homedetails/818-W-Nopal-Pl-Chandler-AZ-85225/8177792_zpid/,33.3423,-111.85799999999999,6627,2018-02-22
959786,23890197,"3817 W Folley St, Chandler, AZ 85226 ",85226,0.1786506064236164,0.9377028942108154,0.1675211906959424,235000,https://www.zillow.com/homedetails/3817-W-Folley-St-Chandler-AZ-85226/8156123_zpid/,33.2977,-111.90799999999999,6625,2018-02-20
1118177,23920469,"2027 N Villas Ln, Chandler, AZ 85224 ",85224,0.1791515089571476,0.9350641667842865,0.16751815645116286,220000,https://www.zillow.com/homedetails/2027-N-Villas-Ln-Chandler-AZ-85224/8199734_zpid/,33.3361,-111.87200000000001,6632,2018-02-27
362997,23929962,"9017 W Hilton Ave, Tolleson, AZ 85353 ",85353,0.17799460142850876,0.9411227405071259,0.16751476709187174,210000,https://www.zillow.com/homedetails/9017-W-Hilton-Ave-Tolleson-AZ-85353/62726889_zpid/,33.4271,-112.25399999999999,6638,2018-03-05
1115749,23864072,"1721 W Nopal Dr, Chandler, AZ 85224 ",85224,0.18038630113005638,0.9284482896327972,0.16747935275738757,249900,https://www.zillow.com/homedetails/1721-W-Nopal-Dr-Chandler-AZ-85224/8198402_zpid/,33.3418,-111.874,6581,2018-01-07
9028534,23899487,"9926 W Gross Ave, Tolleson, AZ 85353 ",85353,0.17799460142850876,0.9401162564754486,0.1673356183678092,217000,https://www.zillow.com/homedetails/9926-W-Gross-Ave-Tolleson-AZ-85353/89456847_zpid/,33.428000000000004,-112.274,6633,2018-02-28
359488,23929707,"2409 S 90TH Gln, Tolleson, AZ 85353 ",85353,0.17799460142850876,0.9400599300861359,0.16732559257459356,213900,https://www.zillow.com/homedetails/2409-S-90TH-Gln-Tolleson-AZ-85353/67772730_zpid/,33.425,-112.25399999999999,6647,2018-03-14
9018003,23920413,"1842 W Alamo Dr, Chandler, AZ 85224 ",85224,0.1791515089571476,0.9339780211448669,0.16732357182091362,244000,https://www.zillow.com/homedetails/1842-W-Alamo-Dr-Chandler-AZ-85224/8199834_zpid/,33.3482,-111.875,6639,2018-03-06
352885,23929847,"7223 W Zak Rd, Phoenix, AZ 85043 ",85043,0.17799460142850876,0.9399792551994324,0.16731123288028948,179900,https://www.zillow.com/homedetails/7223-W-Zak-Rd-Phoenix-AZ-85043/52424200_zpid/,33.4269,-112.21600000000001,6646,2018-03-13
1097216,23886156,"901 W Cheyenne Dr, Chandler, AZ 85225 ",85225,0.1791515089571476,0.9339083433151245,0.1673110889325744,240000,https://www.zillow.com/homedetails/901-W-Cheyenne-Dr-Chandler-AZ-85225/8176783_zpid/,33.3463,-111.85600000000001,6618,2018-02-13
9026899,23893911,"1318 W Boxelder Ct, Chandler, AZ 85224 ",85224,0.1791515089571476,0.9324887990951538,0.16705677544353525,239900,https://www.zillow.com/homedetails/1318-W-Boxelder-Ct-Chandler-AZ-85224/8172413_zpid/,33.3542,-111.865,6604,2018-01-30
973060,23891307,"600 N Aspen Dr, Chandler, AZ 85226 ",85226,0.1786506064236164,0.9349796772003174,0.16703468632559382,223900,https://www.zillow.com/homedetails/600-N-Aspen-Dr-Chandler-AZ-85226/8262023_zpid/,33.3128,-111.945,6624,2018-02-19
365838,23892504,"9923 W Whyman Ave, Tolleson, AZ 85353 ",85353,0.17799460142850876,0.9381884932518005,0.16699248692116742,224000,https://www.zillow.com/homedetails/9923-W-Whyman-Ave-Tolleson-AZ-85353/95149673_zpid/,33.4254,-112.274,6634,2018-03-01
363090,23874641,"9025 W Hilton Ave, Tolleson, AZ 85353 ",85353,0.17799460142850876,0.938186526298523,0.16699213681410274,189900,https://www.zillow.com/homedetails/9025-W-Hilton-Ave-Tolleson-AZ-85353/67772691_zpid/,33.4271,-112.25399999999999,6608,2018-02-03
352675,23874598,"7143 W Zak Rd, Phoenix, AZ 85043 ",85043,0.17799460142850876,0.9381629228591919,0.16698793552932667,190000,https://www.zillow.com/homedetails/7143-W-Zak-Rd-Phoenix-AZ-85043/52424124_zpid/,33.4268,-112.214,6606,2018-02-01
43394,23929854,"7910 W Winslow Ave, Phoenix, AZ 85043 ",85043,0.17799460142850876,0.9379884302616119,0.1669568767889682,239950,https://www.zillow.com/homedetails/7910-W-Winslow-Ave-Phoenix-AZ-85043/67764464_zpid/,33.4221,-112.23,6644,2018-03-11
1078091,23885832,"2052 N Holguin Way, Chandler, AZ 85225 ",85225,0.18038630113005638,0.9255324602127075,0.16695337707357139,219000,https://www.zillow.com/homedetails/2052-N-Holguin-Way-Chandler-AZ-85225/60985138_zpid/,33.3362,-111.84899999999999,6593,2018-01-19
40027,23874516,"2248 S 82ND Ln, Phoenix, AZ 85043 ",85043,0.17799460142850876,0.937952071428299,0.16695040511292425,210000,https://www.zillow.com/homedetails/2248-S-82ND-Ln-Phoenix-AZ-85043/52423821_zpid/,33.4267,-112.238,6612,2018-02-07
9026644,23892930,"1956 N Illinois St, Chandler, AZ 85225 ",85225,0.1791515089571476,0.9317590892314911,0.16692604682035916,237500,https://www.zillow.com/homedetails/1956-N-Illinois-St-Chandler-AZ-85225/8182717_zpid/,33.3332,-111.84899999999999,6619,2018-02-14
43860,23874625,"8140 W Gibson Ln, Phoenix, AZ 85043 ",85043,0.17799460142850876,0.9377325475215912,0.16691133104264577,214900,https://www.zillow.com/homedetails/8140-W-Gibson-Ln-Phoenix-AZ-85043/52423784_zpid/,33.4279,-112.236,6615,2018-02-10
354449,23889724,"8137 W Hess Ave, Phoenix, AZ 85043 ",85043,0.17799460142850876,0.9376709759235382,0.16690037163059102,205000,https://www.zillow.com/homedetails/8137-W-Hess-Ave-Phoenix-AZ-85043/40371664_zpid/,33.4291,-112.236,6624,2018-02-19
1116516,23920475,"1806 N Arrowhead Dr, Chandler, AZ 85224 ",85224,0.1791515089571476,0.9314768016338348,0.16687547457127916,225000,https://www.zillow.com/homedetails/1806-N-Arrowhead-Dr-Chandler-AZ-85224/8193583_zpid/,33.3327,-111.866,6639,2018-03-06
359312,23869360,"2024 S 85TH Ln, Tolleson, AZ 85353 ",85353,0.17920678108930588,0.9311038255691528,0.16686011944018642,185000,https://www.zillow.com/homedetails/2024-S-85th-Ln-Tolleson-AZ-85353/59271383_zpid/,33.4284,-112.244,6595,2018-01-21
972984,23921177,"5975 W Del Rio St, Chandler, AZ 85226 ",85226,0.1786506064236164,0.9335678815841675,0.16678246818262243,220000,https://www.zillow.com/homedetails/5975-W-Del-Rio-St-Chandler-AZ-85226/8262022_zpid/,33.3128,-111.945,6648,2018-03-15
962858,23920761,"4276 W Park Ave, Chandler, AZ 85226 ",85226,0.1786506064236164,0.9334791600704193,0.1667666180303885,215000,https://www.zillow.com/homedetails/4276-W-Park-Ave-Chandler-AZ-85226/8153857_zpid/,33.3215,-111.91799999999999,6635,2018-03-02
6833,23886010,"3873 W Commonwealth Ave, Chandler, AZ 85226 ",85226,0.1786506064236164,0.9332486093044281,0.16672542999623274,230000,https://www.zillow.com/homedetails/3873-W-Commonwealth-Ave-Chandler-AZ-85226/55273361_zpid/,33.3027,-111.90899999999999,6618,2018-02-13
9022216,23869757,"8333 W Watkins St, Tolleson, AZ 85353 ",85353,0.17920678108930588,0.9302946329116821,0.16671510662876,190000,https://www.zillow.com/homedetails/8333-W-Watkins-St-Tolleson-AZ-85353/54886336_zpid/,33.4265,-112.24,6594,2018-01-20
1111311,23885718,"1319 W Straford Dr, Chandler, AZ 85224 ",85224,0.1791515089571476,0.9304549694061279,0.16669241178578442,209000,https://www.zillow.com/homedetails/1319-W-Straford-Dr-Chandler-AZ-85224/8172355_zpid/,33.353,-111.865,6618,2018-02-13
1123841,23911895,"2713 W Estrella Dr, Chandler, AZ 85224 ",85224,0.1791515089571476,0.9304477572441101,0.16669111971607609,218700,https://www.zillow.com/homedetails/2713-W-Estrella-Dr-Chandler-AZ-85224/8193175_zpid/,33.3327,-111.889,6646,2018-03-13
1126602,23890192,"2807 N Central Dr, Chandler, AZ 85224 ",85224,0.1791515089571476,0.9302230775356293,0.1666508680072697,180000,https://www.zillow.com/homedetails/2807-N-Central-Dr-Chandler-AZ-85224/8199127_zpid/,33.3475,-111.866,6625,2018-02-20
9027233,23895214,"8406 W Hamster Ln, Tolleson, AZ 85353 ",85353,0.17799460142850876,0.9358018934726715,0.16656768504471198,189000,https://www.zillow.com/homedetails/8406-W-Hamster-Ln-Tolleson-AZ-85353/58883271_zpid/,33.4288,-112.241,6614,2018-02-09
354192,23874622,"8108 W Magnolia St, Phoenix, AZ 85043 ",85043,0.17799460142850876,0.9357501864433289,0.16655848147263308,217000,https://www.zillow.com/homedetails/8108-W-Magnolia-St-Phoenix-AZ-85043/50884736_zpid/,33.425,-112.234,6613,2018-02-08
9024040,23873322,"2215 S 99TH Ln, Tolleson, AZ 85353 ",85353,0.17799460142850876,0.9346573352813721,0.1663639598656399,213999,https://www.zillow.com/homedetails/2215-S-99TH-Ln-Tolleson-AZ-85353/95076703_zpid/,33.4261,-112.273,6610,2018-02-05
359281,23890314,"2013 S 86TH Ave, Tolleson, AZ 85353 ",85353,0.17799460142850876,0.9345760941505432,0.16634949938293841,211000,https://www.zillow.com/homedetails/2013-S-86TH-Ave-Tolleson-AZ-85353/59271375_zpid/,33.4287,-112.244,6624,2018-02-19
361198,23929894,"8529 W Hughes Dr, Tolleson, AZ 85353 ",85353,0.17799460142850876,0.9342416822910309,0.16628997587729155,239900,https://www.zillow.com/homedetails/8529-W-Hughes-Dr-Tolleson-AZ-85353/59271124_zpid/,33.4249,-112.244,6635,2018-03-02
1113596,23885766,"1567 W Kesler Ln, Chandler, AZ 85224 ",85224,0.17987562343478203,0.9242876470088959,0.1662568167387929,245000,https://www.zillow.com/homedetails/1567-W-Kesler-Ln-Chandler-AZ-85224/8226104_zpid/,33.2918,-111.869,6596,2018-01-22
9033245,23929967,"8536 W Magnolia St, Tolleson, AZ 85353 ",85353,0.17799460142850876,0.9332093000411987,0.1661062174102108,230000,https://www.zillow.com/homedetails/8536-W-Magnolia-St-Tolleson-AZ-85353/59271181_zpid/,33.4238,-112.245,6643,2018-03-10
1120336,23889251,"2231 W Ironwood Dr, Chandler, AZ 85224 ",85224,0.1786506064236164,0.9296126663684845,0.16607586658580475,219900,https://www.zillow.com/homedetails/2231-W-Ironwood-Dr-Chandler-AZ-85224/8192970_zpid/,33.3246,-111.881,6624,2018-02-19
41792,23874571,"6411 W Winslow Ave, Phoenix, AZ 85043 ",85043,0.17799460142850876,0.9327487945556641,0.16602424991985743,210000,https://www.zillow.com/homedetails/6411-W-Winslow-Ave-Phoenix-AZ-85043/49641685_zpid/,33.4219,-112.198,6610,2018-02-05
1851930,23885755,"1315 W Manor St, Chandler, AZ 85224 ",85224,0.1786506064236164,0.9289922714233398,0.16596503265263252,247500,https://www.zillow.com/homedetails/1315-W-Manor-St-Chandler-AZ-85224/8194266_zpid/,33.328,-111.86399999999999,6605,2018-01-31
9026770,23893524,"1518 W Marlboro Dr, Chandler, AZ 85224 ",85224,0.18038630113005638,0.9199980795383453,0.16595505061467752,237500,https://www.zillow.com/homedetails/1518-W-Marlboro-Dr-Chandler-AZ-85224/8176555_zpid/,33.3476,-111.87,6591,2018-01-17
350150,23874570,"6406 W Preston Ln, Phoenix, AZ 85043 ",85043,0.17799460142850876,0.9322336912155151,0.16593256430613312,169900,https://www.zillow.com/homedetails/6406-W-Preston-Ln-Phoenix-AZ-85043/55257443_zpid/,33.4237,-112.198,6606,2018-02-01
349674,23890334,"6325 W Magnolia St, Phoenix, AZ 85043 ",85043,0.17799460142850876,0.9319572746753693,0.1658833636542416,193000,https://www.zillow.com/homedetails/6325-W-Magnolia-St-Phoenix-AZ-85043/54948469_zpid/,33.4246,-112.197,6625,2018-02-20
1094634,23886104,"814 W Palomino Dr, Chandler, AZ 85225 ",85225,0.1791515089571476,0.9258290231227875,0.16586366652876927,195000,https://www.zillow.com/homedetails/814-W-Palomino-Dr-Chandler-AZ-85225/8177734_zpid/,33.3408,-111.85700000000001,6616,2018-02-11
352694,23929821,"7205 W Hess Ave, Phoenix, AZ 85043 ",85043,0.17799460142850876,0.9312005639076233,0.16574867322274,209990,https://www.zillow.com/homedetails/7205-W-Hess-Ave-Phoenix-AZ-85043/52424247_zpid/,33.4296,-112.215,6639,2018-03-06
359511,23875667,"2422 S 84th Ln, Tolleson, AZ 85353 ",85353,0.17799460142850876,0.9311519265174866,0.1657400160298681,197500,https://www.zillow.com/homedetails/2422-S-84th-Ln-Tolleson-AZ-85353/59271244_zpid/,33.4258,-112.242,6605,2018-01-31
350370,23890327,"6417 W Preston Ln, Phoenix, AZ 85043 ",85043,0.17799460142850876,0.93097323179245,0.16570820933350783,203800,https://www.zillow.com/homedetails/6417-W-Preston-Ln-Phoenix-AZ-85043/55257431_zpid/,33.4233,-112.199,6626,2018-02-21
350839,23886786,"6514 W Sonora St, Phoenix, AZ 85043 ",85043,0.17799460142850876,0.9305307865142822,0.16562945646256644,175000,https://www.zillow.com/homedetails/6514-W-Sonora-St-Phoenix-AZ-85043/7500079_zpid/,33.4338,-112.2,6621,2018-02-16
361380,23886784,"8601 W Flavia Hvn, Tolleson, AZ 85353 ",85353,0.17799460142850876,0.9304598867893219,0.16561683669428073,245000,https://www.zillow.com/homedetails/8601-W-Flavia-Hvn-Tolleson-AZ-85353/59271170_zpid/,33.4241,-112.245,6621,2018-02-16
961362,23890199,"3986 W Calle Segunda, Chandler, AZ 85226 ",85226,0.1786506064236164,0.9262911975383759,0.1654824841650887,215000,https://www.zillow.com/homedetails/3986-W-Calle-Segunda-Chandler-AZ-85226/8156357_zpid/,33.304,-111.911,6625,2018-02-20
349981,23889261,"6342 W Whyman Ave, Phoenix, AZ 85043 ",85043,0.17799460142850876,0.9294886291027069,0.16544395806946732,179900,https://www.zillow.com/homedetails/6342-W-Whyman-Ave-Phoenix-AZ-85043/53206189_zpid/,33.4274,-112.198,6624,2018-02-19
1120141,23885857,"2213 W Los Arboles Pl, Chandler, AZ 85224 ",85224,0.1791515089571476,0.9233279824256897,0.16541560131392097,239990,https://www.zillow.com/homedetails/2213-W-Los-Arboles-Pl-Chandler-AZ-85224/8192352_zpid/,33.3355,-111.88,6613,2018-02-08
359526,23874541,"2429 S 83RD Dr, Tolleson, AZ 85353 ",85353,0.17799460142850876,0.9291988015174866,0.16539237032395304,209999,https://www.zillow.com/homedetails/2429-S-83RD-Dr-Tolleson-AZ-85353/59271229_zpid/,33.4258,-112.23899999999999,6600,2018-01-26
976364,23921519,"77 S Tercera Pl, Chandler, AZ 85226 ",85226,0.1786506064236164,0.9255271255970001,0.16534598224941066,224900,https://www.zillow.com/homedetails/77-S-Tercera-Pl-Chandler-AZ-85226/55273352_zpid/,33.3021,-111.90700000000001,6650,2018-03-17
343494,23875666,"2518 S 66th Dr, Phoenix, AZ 85043 ",85043,0.17920678108930588,0.9226212799549103,0.1653399897452148,194900,https://www.zillow.com/homedetails/2518-S-66th-Dr-Phoenix-AZ-85043/67773235_zpid/,33.425,-112.20200000000001,6581,2018-01-07
21550,23880121,"8329 W Gross Ave, Tolleson, AZ 85353 ",85353,0.17799460142850876,0.9283947646617889,0.1652492561042893,198000,https://www.zillow.com/homedetails/8329-W-Gross-Ave-Tolleson-AZ-85353/59271315_zpid/,33.4293,-112.24,6620,2018-02-15
625114,23886893,"2235 S Hosick, Mesa, AZ 85210 ",85210,0.1791515089571476,0.9219078719615936,0.16516118638139232,200000,https://www.zillow.com/homedetails/2235-S-Hosick-Mesa-AZ-85210/8170281_zpid/,33.3741,-111.848,6621,2018-02-16
9028443,23899268,"3147 N Bentrup Cir, Chandler, AZ 85224 ",85224,0.1791515089571476,0.9218758046627045,0.16515544147640815,249900,https://www.zillow.com/homedetails/3147-N-Bentrup-Cir-Chandler-AZ-85224/8171571_zpid/,33.3509,-111.891,6633,2018-02-28
40028,23875647,"2304 S 66TH Ln, Phoenix, AZ 85043 ",85043,0.17799460142850876,0.9275683164596558,0.1651021527859493,219900,https://www.zillow.com/homedetails/2304-S-66TH-Ln-Phoenix-AZ-85043/67773205_zpid/,33.427,-112.204,6617,2018-02-12
9032346,23921566,"538 W Monterey St, Chandler, AZ 85225 ",85225,0.1786506064236164,0.9240947961807251,0.16509009573059474,171400,https://www.zillow.com/homedetails/538-W-Monterey-St-Chandler-AZ-85225/8187065_zpid/,33.315,-111.84899999999999,6630,2018-02-25
650458,23872026,"2419 W Naranja Ave, Mesa, AZ 85202 ",85202,0.1791515089571476,0.9210452735424042,0.16500665057297048,218000,https://www.zillow.com/homedetails/2419-W-Naranja-Ave-Mesa-AZ-85202/8251330_zpid/,33.3643,-111.88600000000001,6603,2018-01-29
40196,23874530,"2907 S 71st Dr, Phoenix, AZ 85043 ",85043,0.17799460142850876,0.9263252913951874,0.1648809010350336,240000,https://www.zillow.com/homedetails/2907-S-71st-Dr-Phoenix-AZ-85043/71604365_zpid/,33.4222,-112.213,6613,2018-02-08
1127341,23920612,"2909 W Curry St, Chandler, AZ 85224 ",85224,0.1791515089571476,0.9198772311210632,0.1647973940106613,238700,https://www.zillow.com/homedetails/2909-W-Curry-St-Chandler-AZ-85224/8197532_zpid/,33.3541,-111.89299999999999,6628,2018-02-23
958181,23885961,"3473 W Barcelona Dr, Chandler, AZ 85226 ",85226,0.1786506064236164,0.9214954674243927,0.16462572407198162,209000,https://www.zillow.com/homedetails/3473-W-Barcelona-Dr-Chandler-AZ-85226/8263797_zpid/,33.3222,-111.902,6604,2018-01-30
976190,23921531,"739 N Valencia Pl, Chandler, AZ 85226 ",85226,0.1786506064236164,0.9211058616638184,0.16455612076658888,244900,https://www.zillow.com/homedetails/739-N-Valencia-Pl-Chandler-AZ-85226/8155195_zpid/,33.3161,-111.90899999999999,6651,2018-03-18
1108960,23920279,"1170 W Butler Dr, Chandler, AZ 85224 ",85224,0.1786506064236164,0.9200361967086792,0.16436502447368317,249900,https://www.zillow.com/homedetails/1170-W-Butler-Dr-Chandler-AZ-85224/8207445_zpid/,33.3013,-111.86200000000001,6642,2018-03-09
349688,23875696,"6325 W Whyman Ave, Phoenix, AZ 85043 ",85043,0.17920678108930588,0.9165873825550079,0.16425867441475517,225000,https://www.zillow.com/homedetails/6325-W-Whyman-Ave-Phoenix-AZ-85043/53206198_zpid/,33.4269,-112.197,6579,2018-01-05
1121899,23885878,"2404 W Chilton St, Chandler, AZ 85224 ",85224,0.1791515089571476,0.916394829750061,0.1641735165502518,209000,https://www.zillow.com/homedetails/2404-W-Chilton-St-Chandler-AZ-85224/8196978_zpid/,33.3522,-111.884,6608,2018-02-03
39857,23889258,"1810 S 82nd Dr, Phoenix, AZ 85043 ",85043,0.17799460142850876,0.9213945865631104,0.16400326219368644,179900,https://www.zillow.com/homedetails/1810-S-82nd-Dr-Phoenix-AZ-85043/60047254_zpid/,33.4316,-112.238,6624,2018-02-19
450725,23873992,"8746 W Granada Rd, Phoenix, AZ 85037 ",85037,0.17799460142850876,0.920911431312561,0.16391726316743682,199900,https://www.zillow.com/homedetails/8746-W-Granada-Rd-Phoenix-AZ-85037/7487519_zpid/,33.4683,-112.249,6611,2018-02-06
351354,23929786,"6558 W Nez Perce St, Phoenix, AZ 85043 ",85043,0.17799460142850876,0.9206551611423492,0.16387164846063196,185000,https://www.zillow.com/homedetails/6558-W-Nez-Perce-St-Phoenix-AZ-85043/54938704_zpid/,33.431999999999995,-112.20100000000001,6643,2018-03-10
9027265,23895296,"8555 W Sonora St, Tolleson, AZ 85353 ",85353,0.17799460142850876,0.9206298291683197,0.16386713950601117,190500,https://www.zillow.com/homedetails/8555-W-Sonora-St-Tolleson-AZ-85353/58494114_zpid/,33.4325,-112.244,6608,2018-02-03
22091,23889710,"8335 W Lewis Ave, Phoenix, AZ 85037 ",85037,0.17799460142850876,0.9203965663909912,0.16382561999093248,184900,https://www.zillow.com/homedetails/8335-W-Lewis-Ave-Phoenix-AZ-85037/81996643_zpid/,33.4736,-112.23899999999999,6625,2018-02-20
629569,23853723,"1645 W Peralta Ave, Mesa, AZ 85202 ",85202,0.18038630113005638,0.907711386680603,0.1637386995369483,222900,https://www.zillow.com/homedetails/1645-W-Peralta-Ave-Mesa-AZ-85202/8191627_zpid/,33.3572,-111.87,6553,2017-12-10
637717,23877260,"1942 W Portobello Ave, Mesa, AZ 85202 ",85202,0.1791515089571476,0.9137019217014313,0.16369107800985694,232500,https://www.zillow.com/homedetails/1942-W-Portobello-Ave-Mesa-AZ-85202/8191364_zpid/,33.3598,-111.876,6617,2018-02-12
402846,23919717,"12115 N 66TH Ave, Glendale, AZ 85304 ",85304,0.17799460142850876,0.9194791913032532,0.1636623321778301,229990,https://www.zillow.com/homedetails/12115-N-66TH-Ave-Glendale-AZ-85304/67401338_zpid/,33.5959,-112.20100000000001,6646,2018-03-13
350999,23875711,"6522 W Preston Ln, Phoenix, AZ 85043 ",85043,0.17920678108930588,0.9126951694488525,0.16356116343268745,230000,https://www.zillow.com/homedetails/6522-W-Preston-Ln-Phoenix-AZ-85043/62727413_zpid/,33.4236,-112.20100000000001,6561,2017-12-18
41583,23874562,"6321 W Mohave St, Phoenix, AZ 85043 ",85043,0.17799460142850876,0.9187506139278412,0.16353264933828382,195000,https://www.zillow.com/homedetails/6321-W-Mohave-St-Phoenix-AZ-85043/55257280_zpid/,33.4315,-112.196,6608,2018-02-03
39873,23876462,"1904 S 82nd Dr, Phoenix, AZ 85043 ",85043,0.17799460142850876,0.9185183346271515,0.16349130487673746,207000,https://www.zillow.com/homedetails/1904-S-82nd-Dr-Phoenix-AZ-85043/58770129_zpid/,33.4313,-112.238,6619,2018-02-14
351243,23874592,"6540 W Gross Ave, Phoenix, AZ 85043 ",85043,0.17799460142850876,0.9180859923362732,0.1634143502829919,229900,https://www.zillow.com/homedetails/6540-W-Gross-Ave-Phoenix-AZ-85043/62727279_zpid/,33.4297,-112.20200000000001,6613,2018-02-08
1406510,23868833,"6760 N 77th Ave, Glendale, AZ 85303 ",85303,0.17920678108930588,0.911158412694931,0.16328576620149993,195000,https://www.zillow.com/homedetails/6760-N-77th-Ave-Glendale-AZ-85303/7463200_zpid/,33.5359,-112.225,6593,2018-01-19
41747,23929839,"6402 W Pima St, Phoenix, AZ 85043 ",85043,0.17799460142850876,0.9171546101570129,0.16324856928321685,179900,https://www.zillow.com/homedetails/6402-W-Pima-St-Phoenix-AZ-85043/7499989_zpid/,33.4351,-112.198,6646,2018-03-13
1370379,23919991,"6634 N 84TH Ln, Glendale, AZ 85305 ",85305,0.17799460142850876,0.9169653654098511,0.16321488473987333,205000,https://www.zillow.com/homedetails/6634-N-84TH-Ln-Glendale-AZ-85305/7461312_zpid/,33.5325,-112.241,6633,2018-02-28
1416563,23872427,"7608 W Peck Dr, Glendale, AZ 85303 ",85303,0.17799460142850876,0.9163789749145508,0.1631105103973809,249900,https://www.zillow.com/homedetails/7608-W-Peck-Dr-Glendale-AZ-85303/95094058_zpid/,33.5268,-112.22399999999999,6605,2018-01-31
1094985,23886129,"825 W Temple St, Chandler, AZ 85225 ",85225,0.18038630113005638,0.9038303196430206,0.16303860820960103,230000,https://www.zillow.com/homedetails/825-W-Temple-St-Chandler-AZ-85225/8183622_zpid/,33.3326,-111.85700000000001,6591,2018-01-17
400927,23919688,"11014 N 59TH Ln, Glendale, AZ 85304 ",85304,0.17799460142850876,0.9159343838691711,0.16303137559145986,235000,https://www.zillow.com/homedetails/11014-N-59TH-Ln-Glendale-AZ-85304/7698599_zpid/,33.5861,-112.18799999999999,6634,2018-03-01
9030014,23905762,"7436 W Sanna St, Peoria, AZ 85345 ",85345,0.17920678108930588,0.9096966087818146,0.16302380102764658,214997,https://www.zillow.com/homedetails/7436-W-Sanna-St-Peoria-AZ-85345/7702407_zpid/,33.5693,-112.21600000000001,6596,2018-01-22
1108948,23885722,"1169 W Nopal Pl, Chandler, AZ 85224 ",85224,0.1791515089571476,0.9097613990306854,0.16298512742731297,244900,https://www.zillow.com/homedetails/1169-W-Nopal-Pl-Chandler-AZ-85224/8175911_zpid/,33.341,-111.86200000000001,6602,2018-01-28
423474,23920179,"8651 N 57TH Dr, Glendale, AZ 85302 ",85302,0.17849023640155792,0.9127275049686432,0.16291294813205726,245000,https://www.zillow.com/homedetails/8651-N-57TH-Dr-Glendale-AZ-85302/55260816_zpid/,33.5631,-112.182,6639,2018-03-06
450133,23873086,"8659 W Palm Ln, Phoenix, AZ 85037 ",85037,0.17799460142850876,0.9151851832866669,0.162898021932387,179900,https://www.zillow.com/homedetails/8659-W-Palm-Ln-Phoenix-AZ-85037/7487502_zpid/,33.47,-112.244,6607,2018-02-02
1413295,23920069,"7305 W Lamar Rd, Glendale, AZ 85303 ",85303,0.17799460142850876,0.9149607717990875,0.16285807789909934,230000,https://www.zillow.com/homedetails/7305-W-Lamar-Rd-Glendale-AZ-85303/7706962_zpid/,33.535,-112.21600000000001,6645,2018-03-12
423622,23892126,"8816 N 44TH Ln, Glendale, AZ 85302 ",85302,0.17849023640155792,0.9123214781284332,0.1628404763053628,209000,https://www.zillow.com/homedetails/8816-N-44TH-Ln-Glendale-AZ-85302/7731485_zpid/,33.565,-112.155,6627,2018-02-22
436257,23914816,"2352 N 84TH Dr, Phoenix, AZ 85037 ",85037,0.17799460142850876,0.9148429930210114,0.16283711391243894,190000,https://www.zillow.com/homedetails/2352-N-84TH-Dr-Phoenix-AZ-85037/82818698_zpid/,33.4735,-112.241,6640,2018-03-07
9032286,23920168,"7114 N 72nd Ave, Glendale, AZ 85303 ",85303,0.17799460142850876,0.914838045835495,0.16283623334012476,215000,https://www.zillow.com/homedetails/7114-N-72nd-Ave-Glendale-AZ-85303/2090897811_zpid/,33.5392,-112.214,6646,2018-03-13
9029763,23905774,"7055 W Lincoln St, Peoria, AZ 85345 ",85345,0.17799460142850876,0.9145877659320831,0.1627916848684714,198000,https://www.zillow.com/homedetails/7055-W-Lincoln-St-Peoria-AZ-85345/63200896_zpid/,33.5844,-112.211,6620,2018-02-15
1414034,23890084,"7334 W Lamar Rd, Glendale, AZ 85303 ",85303,0.17799460142850876,0.914432168006897,0.16276398927779478,226000,https://www.zillow.com/homedetails/7334-W-Lamar-Rd-Glendale-AZ-85303/50188064_zpid/,33.5354,-112.21799999999999,6625,2018-02-20
9031500,23914158,"7009 W Cherry Hills Dr, Peoria, AZ 85345 ",85345,0.17799460142850876,0.9144286811351776,0.16276336863345287,245000,https://www.zillow.com/homedetails/7009-W-Cherry-Hills-Dr-Peoria-AZ-85345/7699971_zpid/,33.5931,-112.21,6642,2018-03-09
9031389,23913600,"10929 N 72ND Dr, Peoria, AZ 85345 ",85345,0.17799460142850876,0.9141524732112885,0.16271420511412882,234900,https://www.zillow.com/homedetails/10929-N-72ND-Dr-Peoria-AZ-85345/7701012_zpid/,33.5845,-112.215,6640,2018-03-07
485999,23881464,"4650 W Hubbell St, Phoenix, AZ 85035 ",85035,0.17849023640155792,0.9115418791770935,0.16270132550423977,173000,https://www.zillow.com/homedetails/4650-W-Hubbell-St-Phoenix-AZ-85035/7494965_zpid/,33.4703,-112.16,6620,2018-02-15
1093584,23859955,"781 W Del Rio St, Chandler, AZ 85225 ",85225,0.17987562343478203,0.904475063085556,0.1626930158537282,248900,https://www.zillow.com/homedetails/781-W-Del-Rio-St-Chandler-AZ-85225/8186554_zpid/,33.3158,-111.854,6565,2017-12-22
9021795,23854390,"747 W Rosal Pl, Chandler, AZ 85225 ",85225,0.18038630113005638,0.9018166661262512,0.16267537269995347,244800,https://www.zillow.com/homedetails/747-W-Rosal-Pl-Chandler-AZ-85225/8177685_zpid/,33.3412,-111.855,6551,2017-12-08
1370616,23920014,"6750 N 89TH Ave, Glendale, AZ 85305 ",85305,0.17799460142850876,0.9137265384197235,0.16263839102066968,217700,https://www.zillow.com/homedetails/6750-N-89TH-Ave-Glendale-AZ-85305/7461686_zpid/,33.5333,-112.251,6630,2018-02-25
525211,23915067,"9201 W Cambridge Ave, Phoenix, AZ 85037 ",85037,0.17799460142850876,0.913581907749176,0.16261264754211124,239000,https://www.zillow.com/homedetails/9201-W-Cambridge-Ave-Phoenix-AZ-85037/60974862_zpid/,33.4763,-112.257,6640,2018-03-07
9033206,23929346,"18649 N 42ND Ave, Glendale, AZ 85308 ",85308,0.17799460142850876,0.9135716259479523,0.16261081743700045,234900,https://www.zillow.com/homedetails/18649-N-42ND-Ave-Glendale-AZ-85308/7935950_zpid/,33.656,-112.149,6646,2018-03-13
41535,23889260,"6314 W Mohave St, Phoenix, AZ 85043 ",85043,0.17799460142850876,0.913519948720932,0.16260161916957405,190000,https://www.zillow.com/homedetails/6314-W-Mohave-St-Phoenix-AZ-85043/55257271_zpid/,33.431999999999995,-112.196,6623,2018-02-18
9030025,23905718,"7026 W Brown St, Peoria, AZ 85345 ",85345,0.17799460142850876,0.9134357869625092,0.16258663883092805,224900,https://www.zillow.com/homedetails/7026-W-Brown-St-Peoria-AZ-85345/7701724_zpid/,33.5772,-112.21,6606,2018-02-01
9029961,23905490,"6926 W Mountain View Rd, Peoria, AZ 85345 ",85345,0.17799460142850876,0.9133512079715729,0.16257158422714713,218000,https://www.zillow.com/homedetails/6926-W-Mountain-View-Rd-Peoria-AZ-85345/7701856_zpid/,33.5743,-112.208,6620,2018-02-15
1408259,23883188,"6919 N 73rd Dr, Glendale, AZ 85303 ",85303,0.17799460142850876,0.9132688045501709,0.16255691686299834,214000,https://www.zillow.com/homedetails/6919-N-73rd-Dr-Glendale-AZ-85303/7706959_zpid/,33.5365,-112.21600000000001,6608,2018-02-03
9030034,23905759,"7410 W Sierra St, Peoria, AZ 85345 ",85345,0.17920678108930588,0.907036155462265,0.16254702975201174,249777,https://www.zillow.com/homedetails/7410-W-Sierra-St-Peoria-AZ-85345/7700341_zpid/,33.5901,-112.219,6599,2018-01-25
833199,23888418,"5269 N 42ND Ln, Phoenix, AZ 85019 ",85019,0.17849023640155792,0.9106698334217072,0.16254567385120788,209900,https://www.zillow.com/homedetails/5269-N-42ND-Ln-Phoenix-AZ-85019/55260747_zpid/,33.5158,-112.15,6622,2018-02-17
1466624,23913753,"17462 N 92ND Gln, Peoria, AZ 85382 ",85382,0.17799460142850876,0.9130876660346985,0.16252467518513347,224000,https://www.zillow.com/homedetails/17462-N-92ND-Gln-Peoria-AZ-85382/95142094_zpid/,33.6425,-112.259,6638,2018-03-05
9029774,23904701,"7414 W Paradise Dr, Peoria, AZ 85345 ",85345,0.17799460142850876,0.9129179120063782,0.1624944598845217,179900,https://www.zillow.com/homedetails/7414-W-Paradise-Dr-Peoria-AZ-85345/7700773_zpid/,33.5939,-112.219,6620,2018-02-15
9031576,23914627,"9130 W Topeka Dr, Peoria, AZ 85382 ",85382,0.17799460142850876,0.9128619730472565,0.16248450305178852,228700,https://www.zillow.com/homedetails/9130-W-Topeka-Dr-Peoria-AZ-85382/67084737_zpid/,33.6583,-112.257,6649,2018-03-16
7542144,23891819,"4205 W Rockwood Dr, Glendale, AZ 85308 ",85308,0.17799460142850876,0.9127767086029053,0.1624693264410002,219900,https://www.zillow.com/homedetails/4205-W-Rockwood-Dr-Glendale-AZ-85308/7935978_zpid/,33.6561,-112.149,6627,2018-02-22
1415136,23887527,"7425 W Ocotillo Rd, Glendale, AZ 85303 ",85303,0.17799460142850876,0.9126550853252411,0.16244767815416794,188900,https://www.zillow.com/homedetails/7425-W-Ocotillo-Rd-Glendale-AZ-85303/7706749_zpid/,33.5341,-112.219,6621,2018-02-16
519544,23891946,"8906 W Cypress St, Phoenix, AZ 85037 ",85037,0.17799460142850876,0.9126083254814148,0.16243935515440322,219000,https://www.zillow.com/homedetails/8906-W-Cypress-St-Phoenix-AZ-85037/7487715_zpid/,33.4719,-112.251,6627,2018-02-22
446025,23914909,"4721 N 91ST Ln, Phoenix, AZ 85037 ",85037,0.17799460142850876,0.9125609397888184,0.1624309207569361,179900,https://www.zillow.com/homedetails/4721-N-91ST-Ln-Phoenix-AZ-85037/7466510_zpid/,33.5063,-112.256,6643,2018-03-10
9030024,23905709,"7267 W Charter Oak Rd, Peoria, AZ 85381 ",85381,0.17799460142850876,0.912490040063858,0.1624183009886504,248000,https://www.zillow.com/homedetails/7267-W-Charter-Oak-Rd-Peoria-AZ-85381/7912731_zpid/,33.5972,-112.21600000000001,6614,2018-02-09
435409,23915054,"7910 W Catalina Dr, Phoenix, AZ 85033 ",85033,0.17799460142850876,0.9124387502670288,0.16240917168170643,217000,https://www.zillow.com/homedetails/7910-W-Catalina-Dr-Phoenix-AZ-85033/7469393_zpid/,33.4815,-112.228,6629,2018-02-24
259107,23915301,"18839 N 45TH Ave, Glendale, AZ 85308 ",85308,0.17799460142850876,0.91236612200737,0.16239624424357602,198000,https://www.zillow.com/homedetails/18839-N-45TH-Ave-Glendale-AZ-85308/7938698_zpid/,33.6576,-112.15700000000001,6628,2018-02-23
9031493,23914127,"6868 W Cheryl Dr, Peoria, AZ 85345 ",85345,0.17799460142850876,0.912286788225174,0.16238212325863421,225000,https://www.zillow.com/homedetails/6868-W-Cheryl-Dr-Peoria-AZ-85345/7702035_zpid/,33.5782,-112.20700000000001,6641,2018-03-08
1415178,23920260,"7431 W Mclellan Rd, Glendale, AZ 85303 ",85303,0.17799460142850876,0.9122538864612579,0.1623762669222797,185000,https://www.zillow.com/homedetails/7431-W-Mclellan-Rd-Glendale-AZ-85303/7706647_zpid/,33.5321,-112.219,6642,2018-03-09
445506,23891936,"4646 N 84TH Ln, Phoenix, AZ 85037 ",85037,0.17799460142850876,0.9122293591499329,0.16237190119327627,198000,https://www.zillow.com/homedetails/4646-N-84TH-Ln-Phoenix-AZ-85037/7481172_zpid/,33.505,-112.242,6627,2018-02-22
445188,23891613,"4627 N 91ST Dr, Phoenix, AZ 85037 ",85037,0.17799460142850876,0.9121539294719696,0.16235847511781132,236900,https://www.zillow.com/homedetails/4627-N-91st-Dr-Phoenix-AZ-85037/7466477_zpid/,33.5051,-112.256,6626,2018-02-21
448361,23888250,"8402 W Coolidge St, Phoenix, AZ 85037 ",85037,0.17799460142850876,0.9120967090129852,0.16234829018502084,183500,https://www.zillow.com/homedetails/8402-W-Coolidge-St-Phoenix-AZ-85037/7481009_zpid/,33.5049,-112.24,6622,2018-02-17
415221,23919702,"10031 N 65TH Ln, Glendale, AZ 85302 ",85302,0.17799460142850876,0.912043958902359,0.16233890095010461,195000,https://www.zillow.com/homedetails/10031-N-65TH-Ln-Glendale-AZ-85302/7706565_zpid/,33.5772,-112.2,6633,2018-02-28
501561,23888074,"7826 W Palm Ln, Phoenix, AZ 85035 ",85035,0.17799460142850876,0.9119998514652252,0.16233105006441195,172000,https://www.zillow.com/homedetails/7826-W-Palm-Ln-Phoenix-AZ-85035/95097689_zpid/,33.469,-112.228,6622,2018-02-17
420581,23882618,"5810 W Alice Ave, Glendale, AZ 85302 ",85302,0.17971212416887283,0.9032585322856903,0.1623265095107198,234500,https://www.zillow.com/homedetails/5810-W-Alice-Ave-Glendale-AZ-85302/7733216_zpid/,33.5645,-112.185,6590,2018-01-16
450364,23891932,"8721 W Virginia Ave, Phoenix, AZ 85037 ",85037,0.17799460142850876,0.9119327068328857,0.16231909868234062,189000,https://www.zillow.com/homedetails/8721-W-Virginia-Ave-Phoenix-AZ-85037/7473685_zpid/,33.4763,-112.24799999999999,6627,2018-02-22
9031428,23913803,"19526 N 84TH Ave, Peoria, AZ 85382 ",85382,0.17799460142850876,0.911866158246994,0.1623072533933192,232000,https://www.zillow.com/homedetails/19526-N-84TH-Ave-Peoria-AZ-85382/8102086_zpid/,33.6619,-112.241,6644,2018-03-11
440506,23914803,"2405 N 83RD Dr, Phoenix, AZ 85037 ",85037,0.17799460142850876,0.9117928743362427,0.1622942092528339,169900,https://www.zillow.com/homedetails/2405-N-83RD-Dr-Phoenix-AZ-85037/81976574_zpid/,33.4739,-112.238,6643,2018-03-10
9031395,23913606,"11812 N 76TH Ln, Peoria, AZ 85345 ",85345,0.17799460142850876,0.9117834866046906,0.16229253828729795,195000,https://www.zillow.com/homedetails/11812-N-76TH-Ln-Peoria-AZ-85345/7680546_zpid/,33.5924,-112.22399999999999,6647,2018-03-14
1414901,23920094,"7410 W Krall St, Glendale, AZ 85303 ",85303,0.17799460142850876,0.9117169976234436,0.1622807036075815,190000,https://www.zillow.com/homedetails/7410-W-Krall-St-Glendale-AZ-85303/7706717_zpid/,33.5339,-112.219,6646,2018-03-13
9031391,23913583,"11213 N 69TH Ave, Peoria, AZ 85345 ",85345,0.17799460142850876,0.9114824831485748,0.16223896129709803,199900,https://www.zillow.com/homedetails/11213-N-69TH-Ave-Peoria-AZ-85345/7699594_zpid/,33.5872,-112.20700000000001,6640,2018-03-07
965657,23930144,"4724 W Del Rio St, Chandler, AZ 85226 ",85226,0.1786506064236164,0.9081023335456848,0.16223303258263777,237000,https://www.zillow.com/homedetails/4724-W-Del-Rio-St-Chandler-AZ-85226/8156655_zpid/,33.3162,-111.925,6656,2018-03-23
422018,23920001,"6459 W Golden Ln, Glendale, AZ 85302 ",85302,0.17799460142850876,0.9114124178886414,0.16222649005908218,194000,https://www.zillow.com/homedetails/6459-W-Golden-Ln-Glendale-AZ-85302/7704509_zpid/,33.5652,-112.199,6641,2018-03-08
9021871,23872703,"12120 N 89th Dr, Peoria, AZ 85345 ",85345,0.17799460142850876,0.9112939834594727,0.1622054093700669,239900,https://www.zillow.com/homedetails/12120-N-89th-Dr-Peoria-AZ-85345/7685583_zpid/,33.5947,-112.25200000000001,6606,2018-02-01
976127,23846057,"734 N Tangerine Dr, Chandler, AZ 85226 ",85226,0.17987562343478203,0.9016780257225037,0.16218989701427877,204900,https://www.zillow.com/homedetails/734-N-Tangerine-Dr-Chandler-AZ-85226/8156625_zpid/,33.3162,-111.928,6544,2017-12-01
8980472,23915022,"7748 W Minnezona Ave, Phoenix, AZ 85033 ",85033,0.17799460142850876,0.9109416306018829,0.162142692463618,169900,https://www.zillow.com/homedetails/7748-W-Minnezona-Ave-Phoenix-AZ-85033/7482425_zpid/,33.5021,-112.227,6645,2018-03-12
351665,23889721,"6616 W Johnson St, Phoenix, AZ 85043 ",85043,0.17799460142850876,0.9108087122440338,0.16211903371349012,180000,https://www.zillow.com/homedetails/6616-W-Johnson-St-Phoenix-AZ-85043/67788378_zpid/,33.4544,-112.20200000000001,6625,2018-02-20
1373435,23873994,"8759 W Peppertree Ln, Glendale, AZ 85305 ",85305,0.17799460142850876,0.9104917943477631,0.16206262403885785,240000,https://www.zillow.com/homedetails/8759-W-Peppertree-Ln-Glendale-AZ-85305/95158696_zpid/,33.5368,-112.24700000000001,6612,2018-02-07
1375062,23920152,"9054 W Nicolet Ave, Glendale, AZ 85305 ",85305,0.17799460142850876,0.9103783965110779,0.16204243983611422,245000,https://www.zillow.com/homedetails/9054-W-Nicolet-Ave-Glendale-AZ-85305/95083641_zpid/,33.5409,-112.25399999999999,6642,2018-03-09
2936,23920080,"6904 W Golden Ln, Peoria, AZ 85345 ",85345,0.17799460142850876,0.9103381335735321,0.16203527325059341,239900,https://www.zillow.com/homedetails/6904-W-Golden-Ln-Peoria-AZ-85345/50187959_zpid/,33.5653,-112.208,6641,2018-03-08
413457,23882770,"6021 W Shangri La Rd, Glendale, AZ 85304 ",85304,0.17799460142850876,0.9102895259857178,0.162026621362374,229000,https://www.zillow.com/homedetails/6021-W-Shangri-La-Rd-Glendale-AZ-85304/7698519_zpid/,33.586999999999996,-112.189,6616,2018-02-11
8946286,23890062,"3545 W Griswold Rd, Phoenix, AZ 85051 ",85051,0.1791515089571476,0.9044016599655151,0.16202492208617114,203000,https://www.zillow.com/homedetails/3545-W-Griswold-Rd-Phoenix-AZ-85051/7753645_zpid/,33.5561,-112.13600000000001,6625,2018-02-20
450213,23877909,"8705 W Palm Ln, Phoenix, AZ 85037 ",85037,0.17920678108930588,0.904113382101059,0.16202324894609643,199900,https://www.zillow.com/homedetails/8705-W-Palm-Ln-Phoenix-AZ-85037/7487495_zpid/,33.4682,-112.24799999999999,6593,2018-01-19
1410407,23890694,"7080 W Glenn Dr, Glendale, AZ 85303 ",85303,0.17799460142850876,0.9102624654769897,0.1620218047379085,234650,https://www.zillow.com/homedetails/7080-W-Glenn-Dr-Glendale-AZ-85303/55173602_zpid/,33.5399,-112.211,6626,2018-02-21
234736,23915231,"15919 N 21ST Ln, Phoenix, AZ 85023 ",85023,0.1791515089571476,0.9043662548065186,0.16201857919851204,199000,https://www.zillow.com/homedetails/15919-N-21ST-Ln-Phoenix-AZ-85023/82823718_zpid/,33.6305,-112.105,6646,2018-03-13
9025869,23913573,"11848 N 79th Dr, Peoria, AZ 85345 ",85345,0.17799460142850876,0.9102308750152588,0.16201618180626376,215000,https://www.zillow.com/homedetails/11848-N-79th-Dr-Peoria-AZ-85345/146039846_zpid/,33.5928,-112.23,6632,2018-02-27
423213,23920166,"8553 N 63RD Dr, Glendale, AZ 85302 ",85302,0.17799460142850876,0.9101219773292542,0.16199679860604688,222000,https://www.zillow.com/homedetails/8553-N-63RD-Dr-Glendale-AZ-85302/81980207_zpid/,33.5622,-112.195,6646,2018-03-13
1413599,23870195,"7315 W Midway Ave, Glendale, AZ 85303 ",85303,0.17920678108930588,0.9038528203964233,0.16197655452173354,203000,https://www.zillow.com/homedetails/7315-W-Midway-Ave-Glendale-AZ-85303/95160837_zpid/,33.541,-112.21600000000001,6597,2018-01-23
523764,23888833,"9034 W Avalon Dr, Phoenix, AZ 85037 ",85037,0.17799460142850876,0.9099796414375305,0.16197146358573056,180000,https://www.zillow.com/homedetails/9034-W-Avalon-Dr-Phoenix-AZ-85037/54948475_zpid/,33.4832,-112.25399999999999,6623,2018-02-18
450573,23877887,"8734 W Granada Rd, Phoenix, AZ 85037 ",85037,0.17920678108930588,0.9038063883781433,0.1619682335891981,195000,https://www.zillow.com/homedetails/8734-W-Granada-Rd-Phoenix-AZ-85037/7487516_zpid/,33.4682,-112.249,6597,2018-01-23
1419842,23883468,"7842 W Fleetwood Ln, Glendale, AZ 85303 ",85303,0.17799460142850876,0.9099588692188263,0.1619677662429415,217500,https://www.zillow.com/homedetails/7842-W-Fleetwood-Ln-Glendale-AZ-85303/7462815_zpid/,33.5367,-112.228,6617,2018-02-12
9031626,23915129,"6902 W Crittenden Ln, Phoenix, AZ 85033 ",85033,0.17799460142850876,0.9099204242229462,0.1619609232412229,190000,https://www.zillow.com/homedetails/6902-W-Crittenden-Ln-Phoenix-AZ-85033/7485984_zpid/,33.4891,-112.208,6645,2018-03-12
9029845,23913752,"17748 N 89TH Dr, Peoria, AZ 85382 ",85382,0.17799460142850876,0.9099054038524628,0.1619582496963654,241900,https://www.zillow.com/homedetails/17748-N-89TH-Dr-Peoria-AZ-85382/81952280_zpid/,33.6443,-112.251,6638,2018-03-05
9031713,23915791,"4130 W Muriel Dr, Glendale, AZ 85308 ",85308,0.17799460142850876,0.9097652733325958,0.16193330722033372,240000,https://www.zillow.com/homedetails/4130-W-Muriel-Dr-Glendale-AZ-85308/7947225_zpid/,33.6458,-112.149,6636,2018-03-03
1370662,23883178,"6798 N 87TH Ln, Glendale, AZ 85305 ",85305,0.17920678108930588,0.9036055505275726,0.16193224208447643,247900,https://www.zillow.com/homedetails/6798-N-87TH-Ln-Glendale-AZ-85305/95111567_zpid/,33.5346,-112.24799999999999,6598,2018-01-24
423926,23883680,"8921 N 65th Dr, Glendale, AZ 85302 ",85302,0.17799460142850876,0.9096345007419586,0.16191003040518548,228800,https://www.zillow.com/homedetails/8921-N-65th-Dr-Glendale-AZ-85302/50187782_zpid/,33.5665,-112.2,6614,2018-02-09
418810,23919891,"5231 W Seldon Ln, Glendale, AZ 85302 ",85302,0.17849023640155792,0.907098650932312,0.16190825264444264,212000,https://www.zillow.com/homedetails/5231-W-Seldon-Ln-Glendale-AZ-85302/7733881_zpid/,33.5609,-112.165,6639,2018-03-06
9030023,23905783,"8112 W Laurel Ln, Peoria, AZ 85345 ",85345,0.17920678108930588,0.903459906578064,0.16190614170109985,243000,https://www.zillow.com/homedetails/8112-W-Laurel-Ln-Peoria-AZ-85345/7680881_zpid/,33.5932,-112.234,6580,2018-01-06
419255,23890686,"5351 W Onyx Ave, Glendale, AZ 85302 ",85302,0.17849023640155792,0.9070621430873871,0.16190173635057148,235000,https://www.zillow.com/homedetails/5351-W-Onyx-Ave-Glendale-AZ-85302/7736018_zpid/,33.5768,-112.176,6626,2018-02-21
1933748,23915060,"7145 W Mulberry Dr, Phoenix, AZ 85033 ",85033,0.17799460142850876,0.9095636308193207,0.16189741594155227,185000,https://www.zillow.com/homedetails/7145-W-Mulberry-Dr-Phoenix-AZ-85033/7485834_zpid/,33.4866,-112.214,6628,2018-02-23
9031515,23914288,"7601 W Cheryl Dr, Peoria, AZ 85345 ",85345,0.17799460142850876,0.9095636308193207,0.16189741594155227,217500,https://www.zillow.com/homedetails/7601-W-Cheryl-Dr-Peoria-AZ-85345/7682109_zpid/,33.5774,-112.223,6641,2018-03-08
252070,23915737,"3728 W Carol Ann Way, Phoenix, AZ 85053 ",85053,0.1791515089571476,0.9036789238452911,0.16189544281965518,198900,https://www.zillow.com/homedetails/3728-W-Carol-Ann-Way-Phoenix-AZ-85053/7945963_zpid/,33.6283,-112.139,6627,2018-02-22
412814,23882559,"5615 W Mescal St, Glendale, AZ 85304 ",85304,0.17849023640155792,0.9067706763744354,0.16184971238807355,199999,https://www.zillow.com/homedetails/5615-W-Mescal-St-Glendale-AZ-85304/7736409_zpid/,33.5861,-112.18,6612,2018-02-07
1091759,23886133,"701 W Dublin St, Chandler, AZ 85225 ",85225,0.17987562343478203,0.8997332751750946,0.16184008379713843,225000,https://www.zillow.com/homedetails/701-W-Dublin-St-Chandler-AZ-85225/8189377_zpid/,33.3186,-111.853,6588,2018-01-14
412834,23919986,"5620 W Lupine Ave, Glendale, AZ 85304 ",85304,0.17849023640155792,0.9066233038902283,0.16182340783852833,225000,https://www.zillow.com/homedetails/5620-W-Lupine-Ave-Glendale-AZ-85304/7737909_zpid/,33.5901,-112.181,6642,2018-03-09
9028736,23900205,"6736 W Kings Ave, Peoria, AZ 85382 ",85382,0.17799460142850876,0.9091030359268188,0.1618154325372414,200000,https://www.zillow.com/homedetails/6736-W-Kings-Ave-Peoria-AZ-85382/7902943_zpid/,33.6345,-112.205,6627,2018-02-22
1411973,23883269,"7202 W Tuckey Ln, Glendale, AZ 85303 ",85303,0.17799460142850876,0.9090589284896851,0.16180758165154874,159900,https://www.zillow.com/homedetails/7202-W-Tuckey-Ln-Glendale-AZ-85303/7706850_zpid/,33.5332,-112.214,6613,2018-02-08
390332,23890671,"4015 W Harmont Dr, Phoenix, AZ 85051 ",85051,0.17849023640155792,0.9065066277980804,0.16180258229525846,188000,https://www.zillow.com/homedetails/4015-W-Harmont-Dr-Phoenix-AZ-85051/7753081_zpid/,33.5542,-112.146,6626,2018-02-21
9032281,23920178,"7006 W Kings Ave, Peoria, AZ 85382 ",85382,0.17799460142850876,0.9090067148208618,0.16179828790037742,225000,https://www.zillow.com/homedetails/7006-W-Kings-Ave-Peoria-AZ-85382/7903074_zpid/,33.6345,-112.21,6639,2018-03-06
1348426,23873785,"5406 W Sands Rd, Glendale, AZ 85301 ",85301,0.17849023640155792,0.9063533544540405,0.16177522449984671,205000,https://www.zillow.com/homedetails/5406-W-Sands-Rd-Glendale-AZ-85301/7726252_zpid/,33.5525,-112.17399999999999,6607,2018-02-02
447841,23877841,"8329 W Mulberry Dr, Phoenix, AZ 85037 ",85037,0.17920678108930588,0.9026876986026764,0.16176775679549915,175000,https://www.zillow.com/homedetails/8329-W-Mulberry-Dr-Phoenix-AZ-85037/7470394_zpid/,33.486,-112.23899999999999,6597,2018-01-23
1370392,23883185,"6654 N 84TH Ln, Glendale, AZ 85305 ",85305,0.17799460142850876,0.9088087975978851,0.16176305970315785,220000,https://www.zillow.com/homedetails/6654-N-84TH-Ln-Glendale-AZ-85305/7461308_zpid/,33.5331,-112.24,6604,2018-01-30
9029087,23901717,"6915 W Jenan Dr, Peoria, AZ 85345 ",85345,0.17799460142850876,0.9087108671665192,0.16174562861505914,203000,https://www.zillow.com/homedetails/6915-W-Jenan-Dr-Peoria-AZ-85345/7699796_zpid/,33.5918,-112.208,6620,2018-02-15
440692,23880113,"2509 N 90th Ln, Phoenix, AZ 85037 ",85037,0.17799460142850876,0.908633679151535,0.161731889565097,205000,https://www.zillow.com/homedetails/2509-N-90th-Ln-Phoenix-AZ-85037/7473832_zpid/,33.4751,-112.25399999999999,6620,2018-02-15
1414408,23870613,"7359 N 70th Ave, Glendale, AZ 85303 ",85303,0.17920678108930588,0.9024797081947327,0.1617304835039941,174900,https://www.zillow.com/homedetails/7359-N-70th-Ave-Glendale-AZ-85303/7704942_zpid/,33.5441,-112.21,6598,2018-01-24
1859,23868513,"9128 W Alvarado St, Phoenix, AZ 85037 ",85037,0.17920678108930588,0.9024768769741058,0.16172997613005902,210000,https://www.zillow.com/homedetails/9128-W-Alvarado-St-Phoenix-AZ-85037/60047210_zpid/,33.4712,-112.257,6592,2018-01-18
9029597,23903877,"9147 W Minnezona Ave, Phoenix, AZ 85037 ",85037,0.17799460142850876,0.908611387014389,0.1617279216850307,249990,https://www.zillow.com/homedetails/9147-W-Minnezona-Ave-Phoenix-AZ-85037/2091007381_zpid/,33.5024,-112.251,6622,2018-02-17
1410883,23888985,"7120 W Sierra Vista Dr, Glendale, AZ 85303 ",85303,0.17799460142850876,0.9085884690284729,0.161723842407262,182000,https://www.zillow.com/homedetails/7120-W-Sierra-Vista-Dr-Glendale-AZ-85303/7706907_zpid/,33.5318,-112.213,6622,2018-02-17
623384,23877222,"1441 S Revere, Mesa, AZ 85210 ",85210,0.1791515089571476,0.9026893973350525,0.16171816765219282,175000,https://www.zillow.com/homedetails/1441-S-Revere-Mesa-AZ-85210/7599342_zpid/,33.3886,-111.84700000000001,6618,2018-02-13
1878732,23888713,"8133 W Larkspur Dr, Peoria, AZ 85381 ",85381,0.17799460142850876,0.9085012972354889,0.161708326298714,232500,https://www.zillow.com/homedetails/8133-W-Larkspur-Dr-Peoria-AZ-85381/8100861_zpid/,33.5992,-112.235,6620,2018-02-15
9016482,23874213,"7522 W Turquoise Ave, Peoria, AZ 85345 ",85345,0.17799460142850876,0.9084517061710358,0.16169949935696226,199000,https://www.zillow.com/homedetails/7522-W-Turquoise-Ave-Peoria-AZ-85345/7682171_zpid/,33.5747,-112.221,6613,2018-02-08
235315,23915223,"16027 N 19TH Dr, Phoenix, AZ 85023 ",85023,0.1791515089571476,0.9025498926639557,0.16169317517985926,249900,https://www.zillow.com/homedetails/16027-N-19TH-Dr-Phoenix-AZ-85023/81980470_zpid/,33.6314,-112.1,6631,2018-02-26
523366,23877920,"9026 W Windsor Ave, Phoenix, AZ 85037 ",85037,0.17799460142850876,0.9084160327911377,0.1616931496879257,191000,https://www.zillow.com/homedetails/9026-W-Windsor-Ave-Phoenix-AZ-85037/7474171_zpid/,33.4766,-112.255,6606,2018-02-01
1086717,23921027,"401 N Cheri Lynn Dr, Chandler, AZ 85225 ",85225,0.1786506064236164,0.9050778448581696,0.1616927058444918,229999,https://www.zillow.com/homedetails/401-N-Cheri-Lynn-Dr-Chandler-AZ-85225/8186935_zpid/,33.3099,-111.853,6636,2018-03-03
9026282,23865594,"9621 N 82nd Ln, Peoria, AZ 85345 ",85345,0.17920678108930588,0.9022661447525024,0.16169221148695367,205000,https://www.zillow.com/homedetails/9621-N-82nd-Ln-Peoria-AZ-85345/67710601_zpid/,33.5723,-112.236,6585,2018-01-11
561461,23912399,"1056 W Frito Ave, Mesa, AZ 85210 ",85210,0.1791515089571476,0.9025103151798248,0.1616860848138565,199900,https://www.zillow.com/homedetails/1056-W-Frito-Ave-Mesa-AZ-85210/7598718_zpid/,33.3955,-111.855,6638,2018-03-05
524624,23887143,"9123 W Cambridge Ave, Phoenix, AZ 85037 ",85037,0.17799460142850876,0.9083608984947205,0.16168333608080987,232000,https://www.zillow.com/homedetails/9123-W-Cambridge-Ave-Phoenix-AZ-85037/60974866_zpid/,33.4764,-112.257,6620,2018-02-15
1850957,23888709,"7907 W Sweetwater Ave, Peoria, AZ 85381 ",85381,0.17799460142850876,0.9083605110645294,0.16168326712032743,229500,https://www.zillow.com/homedetails/7907-W-Sweetwater-Ave-Peoria-AZ-85381/8101192_zpid/,33.6026,-112.229,6619,2018-02-14
9027451,23904608,"6826 W Carol Ave, Peoria, AZ 85345 ",85345,0.17799460142850876,0.9083050787448883,0.16167340046668666,155000,https://www.zillow.com/homedetails/6826-W-Carol-Ave-Peoria-AZ-85345/7702635_zpid/,33.5711,-112.206,6625,2018-02-20
9024615,23915698,"4345 W Morrow Dr, Glendale, AZ 85308 ",85308,0.17799460142850876,0.9082426130771637,0.16166228191505705,245000,https://www.zillow.com/homedetails/4345-W-Morrow-Dr-Glendale-AZ-85308/7938791_zpid/,33.6569,-112.154,6640,2018-03-07
452001,23881474,"8826 W Wilshire Dr, Phoenix, AZ 85037 ",85037,0.17799460142850876,0.9080740213394165,0.1616322734958926,187000,https://www.zillow.com/homedetails/8826-W-Wilshire-Dr-Phoenix-AZ-85037/7473924_zpid/,33.475,-112.25,6620,2018-02-15
5231985,23914892,"4221 N 79TH Dr, Phoenix, AZ 85033 ",85033,0.17799460142850876,0.9080272912979126,0.16162395580078037,183000,https://www.zillow.com/homedetails/4221-N-79TH-Dr-Phoenix-AZ-85033/7481959_zpid/,33.4971,-112.229,6630,2018-02-25
1472355,23885687,"9834 W Kerry Ln, Peoria, AZ 85382 ",85382,0.17799460142850876,0.9079114198684692,0.16160333131187965,224900,https://www.zillow.com/homedetails/9834-W-Kerry-Ln-Peoria-AZ-85382/7893293_zpid/,33.6592,-112.272,6611,2018-02-06
9029979,23905545,"6851 W Jenan Dr, Peoria, AZ 85345 ",85345,0.17799460142850876,0.9078996181488037,0.1616012306694916,194900,https://www.zillow.com/homedetails/6851-W-Jenan-Dr-Peoria-AZ-85345/7699802_zpid/,33.5918,-112.20700000000001,6612,2018-02-07
702251,23892614,"3043 S Los Altos, Mesa, AZ 85202 ",85202,0.1791515089571476,0.9019731283187866,0.16158984697710954,249500,https://www.zillow.com/homedetails/3043-S-Los-Altos-Mesa-AZ-85202/8171114_zpid/,33.3592,-111.88,6635,2018-03-02
446948,23914963,"4832 N 84TH Dr, Phoenix, AZ 85037 ",85037,0.17799460142850876,0.9078149795532227,0.1615861654564057,155000,https://www.zillow.com/homedetails/4832-N-84TH-Dr-Phoenix-AZ-85037/7481144_zpid/,33.508,-112.241,6633,2018-02-28
9031552,23914473,"8540 W Shaw Butte Dr, Peoria, AZ 85345 ",85345,0.17799460142850876,0.9078061580657959,0.16158459527926716,235000,https://www.zillow.com/homedetails/8540-W-Shaw-Butte-Dr-Peoria-AZ-85345/7685370_zpid/,33.5951,-112.243,6641,2018-03-08
9029736,23904559,"14462 N Lakeforest Dr, Sun City, AZ 85351 ",85351,0.17799460142850876,0.9077920019626617,0.16158207556933202,170000,https://www.zillow.com/homedetails/14462-N-Lakeforest-Dr-Sun-City-AZ-85351/7922311_zpid/,33.6164,-112.26700000000001,6625,2018-02-20
9027479,23914308,"8015 W Yucca St, Peoria, AZ 85345 ",85345,0.17799460142850876,0.9076958894729614,0.1615649680650355,209000,https://www.zillow.com/homedetails/8015-W-Yucca-St-Peoria-AZ-85345/7681526_zpid/,33.5872,-112.23200000000001,6627,2018-02-22
412972,23919895,"5718 W Shangri La Rd, Glendale, AZ 85304 ",85304,0.17849023640155792,0.9051665663719177,0.16156339441451006,249000,https://www.zillow.com/homedetails/5718-W-Shangri-La-Rd-Glendale-AZ-85304/7736192_zpid/,33.5872,-112.18299999999999,6647,2018-03-14
9028425,23899113,"6937 W Ironwood Dr, Peoria, AZ 85345 ",85345,0.17799460142850876,0.9076530039310455,0.16155733467009514,187000,https://www.zillow.com/homedetails/6937-W-Ironwood-Dr-Peoria-AZ-85345/7701801_zpid/,33.5758,-112.209,6624,2018-02-19
1122798,23892196,"256 S Dobson Rd, Chandler, AZ 85224 ",85224,0.1786506064236164,0.9041724801063538,0.16153096188254534,199000,https://www.zillow.com/homedetails/256-S-Dobson-Rd-Chandler-AZ-85224/8207976_zpid/,33.2994,-111.87700000000001,6627,2018-02-22
703769,23889330,"736 S Sycamore, Mesa, AZ 85202 ",85202,0.1791515089571476,0.9016396999359131,0.1615301127791886,239900,https://www.zillow.com/homedetails/736-S-Sycamore-Mesa-AZ-85202/7604484_zpid/,33.4012,-111.87,6624,2018-02-19
259043,23891802,"18615 N 48TH Ave, Glendale, AZ 85308 ",85308,0.17799460142850876,0.9074662625789642,0.1615240957175612,210000,https://www.zillow.com/homedetails/18615-N-48TH-Ave-Glendale-AZ-85308/7939425_zpid/,33.655,-112.165,6627,2018-02-22
391862,23884713,"4128 W Solar Dr, Phoenix, AZ 85051 ",85051,0.17849023640155792,0.904906153678894,0.1615169132913703,195000,https://www.zillow.com/homedetails/4128-W-Solar-Dr-Phoenix-AZ-85051/7756636_zpid/,33.54,-112.148,6612,2018-02-07
8985192,23888637,"13250 N 79TH Ave, Peoria, AZ 85381 ",85381,0.17799460142850876,0.9073389172554016,0.1615014289374499,249900,https://www.zillow.com/homedetails/13250-N-79TH-Ave-Peoria-AZ-85381/8100968_zpid/,33.6054,-112.229,6620,2018-02-15
1357833,23920153,"7783 N 58TH Ave, Glendale, AZ 85301 ",85301,0.17849023640155792,0.9048008918762207,0.16149812508732708,219800,https://www.zillow.com/homedetails/7783-N-58TH-Ave-Glendale-AZ-85301/62728699_zpid/,33.5502,-112.18299999999999,6645,2018-03-12
445581,23914884,"4654 N 84TH Ln, Phoenix, AZ 85037 ",85037,0.17799460142850876,0.9072886407375336,0.16149247998869076,199000,https://www.zillow.com/homedetails/4654-N-84TH-Ln-Phoenix-AZ-85037/7481170_zpid/,33.5052,-112.242,6647,2018-03-14
9029622,23904013,"5207 W Campo Bello Dr, Glendale, AZ 85308 ",85308,0.17799460142850876,0.9072667360305786,0.1614885810691069,230000,https://www.zillow.com/homedetails/5207-W-Campo-Bello-Dr-Glendale-AZ-85308/8100316_zpid/,33.6426,-112.17200000000001,6625,2018-02-20
1422434,23920133,"8207 W Tuckey Ln, Glendale, AZ 85303 ",85303,0.17799460142850876,0.9072082936763763,0.16147817864556413,245000,https://www.zillow.com/homedetails/8207-W-Tuckey-Ln-Glendale-AZ-85303/7462558_zpid/,33.5327,-112.23700000000001,6648,2018-03-15
9029837,23905016,"8053 W Caron Dr, Peoria, AZ 85345 ",85345,0.17920678108930588,0.9009564816951752,0.16145751098613847,169000,https://www.zillow.com/homedetails/8053-W-Caron-Dr-Peoria-AZ-85345/50187192_zpid/,33.5672,-112.23200000000001,6583,2018-01-09
449536,23875547,"8542 W Lewis Ave, Phoenix, AZ 85037 ",85037,0.17799460142850876,0.9070494771003723,0.16144991015241805,246000,https://www.zillow.com/homedetails/8542-W-Lewis-Ave-Phoenix-AZ-85037/7487365_zpid/,33.4742,-112.244,6617,2018-02-12
419105,23890699,"5326 W Diana Ave, Glendale, AZ 85302 ",85302,0.17849023640155792,0.9044923186302185,0.16144304777570095,200000,https://www.zillow.com/homedetails/5326-W-Diana-Ave-Glendale-AZ-85302/7733750_zpid/,33.5632,-112.175,6626,2018-02-21
8952020,23914430,"8419 W Columbine Dr, Peoria, AZ 85381 ",85381,0.17799460142850876,0.9070054590702057,0.16144207518068288,234900,https://www.zillow.com/homedetails/8419-W-Columbine-Dr-Peoria-AZ-85381/7914550_zpid/,33.5984,-112.24,6647,2018-03-14
9027668,23915751,"4828 W Kristal Way, Glendale, AZ 85308 ",85308,0.17799460142850876,0.9069096446037292,0.16142502072291132,239900,https://www.zillow.com/homedetails/4828-W-Kristal-Way-Glendale-AZ-85308/7939901_zpid/,33.6616,-112.165,6631,2018-02-26
415739,23919682,"10452 N 63RD Dr, Glendale, AZ 85302 ",85302,0.17799460142850876,0.9068324863910675,0.16141128697760165,189900,https://www.zillow.com/homedetails/10452-N-63RD-Dr-Glendale-AZ-85302/7705971_zpid/,33.5815,-112.196,6635,2018-03-02
562277,23912570,"1407 W 7TH Dr, Mesa, AZ 85202 ",85202,0.1791515089571476,0.9009198546409607,0.16140115140838218,199000,https://www.zillow.com/homedetails/1407-W-7TH-Dr-Mesa-AZ-85202/7604609_zpid/,33.4013,-111.86200000000001,6645,2018-03-12
9029842,23905028,"9830 W Kerry Ln, Peoria, AZ 85382 ",85382,0.17799460142850876,0.9067347943782806,0.1613938983267229,221500,https://www.zillow.com/homedetails/9830-W-Kerry-Ln-Peoria-AZ-85382/7893295_zpid/,33.6593,-112.272,6608,2018-02-03
9029901,23905267,"7329 W Peoria Ave, Peoria, AZ 85345 ",85345,0.17799460142850876,0.9067138433456421,0.1613901691560189,192000,https://www.zillow.com/homedetails/7329-W-Peoria-Ave-Peoria-AZ-85345/7705949_zpid/,33.5815,-112.21700000000001,6621,2018-02-16
415150,23919739,"10021 N 53RD Ave, Glendale, AZ 85302 ",85302,0.17849023640155792,0.9041886031627655,0.16138883753011646,238900,https://www.zillow.com/homedetails/10021-N-53RD-Ave-Glendale-AZ-85302/7735790_zpid/,33.5774,-112.17299999999999,6631,2018-02-26
415051,23919687,"10007 N 48TH Dr, Glendale, AZ 85302 ",85302,0.17849023640155792,0.9041593968868256,0.16138362449501953,233000,https://www.zillow.com/homedetails/10007-N-48TH-Dr-Glendale-AZ-85302/7728794_zpid/,33.5766,-112.162,6630,2018-02-25
9005657,23871977,"10439 W Papago St, Tolleson, AZ 85353 ",85353,0.17799460142850876,0.9066030383110046,0.16137044645804233,220000,https://www.zillow.com/homedetails/10439-W-Papago-St-Tolleson-AZ-85353/125986296_zpid/,33.4338,-112.24600000000001,6603,2018-01-29
9031657,23915259,"1122 E Villa Theresa Dr, Phoenix, AZ 85022 ",85022,0.1786506064236164,0.9031403660774231,0.16134657408537856,247500,https://www.zillow.com/homedetails/1122-E-Villa-Theresa-Dr-Phoenix-AZ-85022/8002659_zpid/,33.6538,-112.057,6648,2018-03-15
9029809,23904890,"17460 N 92ND Ave, Peoria, AZ 85382 ",85382,0.17799460142850876,0.9064178466796875,0.16133748334743814,226000,https://www.zillow.com/homedetails/17460-N-92ND-Ave-Peoria-AZ-85382/95103614_zpid/,33.6425,-112.258,6621,2018-02-16
261169,23890427,"4527 W Oraibi Dr, Glendale, AZ 85308 ",85308,0.17799460142850876,0.9064099490642548,0.16133607761452695,249000,https://www.zillow.com/homedetails/4527-W-Oraibi-Dr-Glendale-AZ-85308/7937923_zpid/,33.6626,-112.15799999999999,6626,2018-02-21
9006368,23879941,"4701 N 79TH Dr, Phoenix, AZ 85033 ",85033,0.17799460142850876,0.906382828950882,0.16133125038075646,187499,https://www.zillow.com/homedetails/4701-N-79TH-Dr-Phoenix-AZ-85033/82779611_zpid/,33.5056,-112.229,6614,2018-02-09
9031587,23914701,"9318 W Brown St, Peoria, AZ 85345 ",85345,0.17799460142850876,0.9063503742218018,0.16132547361418936,219900,https://www.zillow.com/homedetails/9318-W-Brown-St-Peoria-AZ-85345/7697571_zpid/,33.5757,-112.26100000000001,6635,2018-03-02
9029872,23914718,"9832 W Kimberly Way, Peoria, AZ 85382 ",85382,0.17799460142850876,0.9063297510147095,0.1613218027946628,239900,https://www.zillow.com/homedetails/9832-W-Kimberly-Way-Peoria-AZ-85382/7893256_zpid/,33.6555,-112.272,6641,2018-03-08
249467,23927324,"413 E Rimrock Dr, Phoenix, AZ 85024 ",85024,0.1786506064236164,0.9029827117919922,0.16131840905168104,222000,https://www.zillow.com/homedetails/413-E-Rimrock-Dr-Phoenix-AZ-85024/7968011_zpid/,33.6625,-112.068,6637,2018-03-04
1409638,23920035,"7005 W Cactus Wren Dr, Glendale, AZ 85303 ",85303,0.17799460142850876,0.9062995612621307,0.16131642918168532,230000,https://www.zillow.com/homedetails/7005-W-Cactus-Wren-Dr-Glendale-AZ-85303/55260444_zpid/,33.5388,-112.21,6648,2018-03-15
8989493,23890965,"3646 N 79TH Dr, Phoenix, AZ 85033 ",85033,0.17799460142850876,0.9062851071357727,0.16131385642522522,169900,https://www.zillow.com/homedetails/3646-N-79th-Dr-Phoenix-AZ-85033/7478627_zpid/,33.4902,-112.23100000000001,6625,2018-02-20
421866,23919982,"6425 W Hatcher Rd, Glendale, AZ 85302 ",85302,0.17799460142850876,0.9062688648700714,0.16131096538961542,194900,https://www.zillow.com/homedetails/6425-W-Hatcher-Rd-Glendale-AZ-85302/7703488_zpid/,33.5711,-112.198,6629,2018-02-24
9026159,23915759,"4349 W Morrow Dr, Glendale, AZ 85308 ",85308,0.17799460142850876,0.9062272906303406,0.16130356539938484,244900,https://www.zillow.com/homedetails/4349-W-Morrow-Dr-Glendale-AZ-85308/7938792_zpid/,33.6569,-112.154,6641,2018-03-08
9029898,23905256,"8350 W Bluefield Ave, Peoria, AZ 85382 ",85382,0.17799460142850876,0.9062201380729675,0.16130229228278603,232000,https://www.zillow.com/homedetails/8350-W-Bluefield-Ave-Peoria-AZ-85382/8129246_zpid/,33.6507,-112.23899999999999,6610,2018-02-05
9029804,23904860,"6849 W Yucca St, Peoria, AZ 85345 ",85345,0.17799460142850876,0.9061786830425262,0.16129491351116543,225000,https://www.zillow.com/homedetails/6849-W-Yucca-St-Peoria-AZ-85345/7699653_zpid/,33.5881,-112.20700000000001,6620,2018-02-15
9029902,23905265,"11226 N 67th Dr, Peoria, AZ 85345 ",85345,0.17799460142850876,0.9061490595340729,0.16128964068658536,214900,https://www.zillow.com/homedetails/11226-N-67th-Dr-Peoria-AZ-85345/7699634_zpid/,33.5882,-112.20299999999999,6618,2018-02-13
9031551,23914472,"8539 W Shaw Butte Dr, Peoria, AZ 85345 ",85345,0.17799460142850876,0.9061224460601807,0.16128490363190728,248000,https://www.zillow.com/homedetails/8539-W-Shaw-Butte-Dr-Peoria-AZ-85345/7685410_zpid/,33.5947,-112.243,6631,2018-02-26
836918,23890072,"5609 N 38TH Dr, Phoenix, AZ 85019 ",85019,0.17849023640155792,0.9035353064537048,0.16127223044607586,195900,https://www.zillow.com/homedetails/5609-N-38TH-Dr-Phoenix-AZ-85019/7719599_zpid/,33.5183,-112.14200000000001,6625,2018-02-20
9031700,23915672,"3736 W Villa Maria Dr, Glendale, AZ 85308 ",85308,0.17799460142850876,0.9060202240943909,0.1612667086738493,239000,https://www.zillow.com/homedetails/3736-W-Villa-Maria-Dr-Glendale-AZ-85308/7948248_zpid/,33.6519,-112.141,6628,2018-02-23
1091154,23858452,"668 W Shawnee Dr, Chandler, AZ 85225 ",85225,0.18038630113005638,0.8939207792282104,0.16125106286827462,239900,https://www.zillow.com/homedetails/668-W-Shawnee-Dr-Chandler-AZ-85225/8200509_zpid/,33.3448,-111.852,6535,2017-11-22
9029976,23905541,"8769 W Grovers Ave, Peoria, AZ 85382 ",85382,0.17799460142850876,0.9059247672557831,0.16124971787190767,189900,https://www.zillow.com/homedetails/8769-W-Grovers-Ave-Peoria-AZ-85382/7898340_zpid/,33.6451,-112.24799999999999,6607,2018-02-02
483296,23891539,"2625 N 73RD Dr, Phoenix, AZ 85035 ",85035,0.17799460142850876,0.9058999717235565,0.1612453044010318,205000,https://www.zillow.com/homedetails/2625-N-73rd-Dr-Phoenix-AZ-85035/95093273_zpid/,33.4771,-112.21600000000001,6623,2018-02-18
838479,23892080,"4127 W Cavalier Dr, Phoenix, AZ 85019 ",85019,0.17849023640155792,0.9033326506614685,0.16123605836581145,179900,https://www.zillow.com/homedetails/4127-W-Cavalier-Dr-Phoenix-AZ-85019/7760505_zpid/,33.525999999999996,-112.148,6627,2018-02-22
349587,23892378,"18405 N 16TH Way, Phoenix, AZ 85022 ",85022,0.1786506064236164,0.9025010168552399,0.16123235395911906,224900,https://www.zillow.com/homedetails/18405-N-16TH-Way-Phoenix-AZ-85022/8001243_zpid/,33.6533,-112.045,6630,2018-02-25
424925,23920234,"9808 N 47TH Ave, Glendale, AZ 85302 ",85302,0.17849023640155792,0.9033078849315643,0.1612316379248262,244900,https://www.zillow.com/homedetails/9808-N-47TH-Ave-Glendale-AZ-85302/7728902_zpid/,33.575,-112.16,6646,2018-03-13
413432,23882762,"6016 W Desert Cove Ave, Glendale, AZ 85304 ",85304,0.17799460142850876,0.9058040082454681,0.16122822341999776,206000,https://www.zillow.com/homedetails/6016-W-Desert-Cove-Ave-Glendale-AZ-85304/7698491_zpid/,33.5861,-112.189,6613,2018-02-08
9020198,23867892,"17950 N 88th Ave, Peoria, AZ 85382 ",85382,0.17920678108930588,0.8995491862297058,0.16120531409573013,249000,https://www.zillow.com/homedetails/17950-N-88th-Ave-Peoria-AZ-85382/7898435_zpid/,33.6467,-112.24799999999999,6590,2018-01-16
9026853,23923313,"9920 W Cameo Dr, Sun City, AZ 85351 ",85351,0.17799460142850876,0.905669242143631,0.16120423578141518,149900,https://www.zillow.com/homedetails/9920-W-Cameo-Dr-Sun-City-AZ-85351/7907926_zpid/,33.6129,-112.26899999999999,6632,2018-02-27
9029818,23904939,"6741 W Brown St, Peoria, AZ 85345 ",85345,0.17799460142850876,0.9056626856327057,0.16120306875786627,209900,https://www.zillow.com/homedetails/6741-W-Brown-St-Peoria-AZ-85345/7701605_zpid/,33.5773,-112.204,6608,2018-02-03
9029324,23902714,"7007 W Windsor Ave, Phoenix, AZ 85035 ",85035,0.17799460142850876,0.9056480228900909,0.16120045886883871,159900,https://www.zillow.com/homedetails/7007-W-Windsor-Ave-Phoenix-AZ-85035/2091066637_zpid/,33.4782,-112.21,6618,2018-02-13
1466691,23869657,"17797 N 89TH Dr, Peoria, AZ 85382 ",85382,0.17920678108930588,0.8994715213775635,0.16119139602757393,241500,https://www.zillow.com/homedetails/17797-N-89TH-Dr-Peoria-AZ-85382/71616751_zpid/,33.6449,-112.251,6594,2018-01-20
561282,23877184,"1050 W Farmdale Ave, Mesa, AZ 85210 ",85210,0.1791515089571476,0.8997171819210052,0.16118569077582057,195000,https://www.zillow.com/homedetails/1050-W-Farmdale-Ave-Mesa-AZ-85210/7598750_zpid/,33.3962,-111.854,6619,2018-02-14
1118968,23920456,"2113 W Boston St, Chandler, AZ 85224 ",85224,0.1786506064236164,0.9022081196308136,0.1611800276923555,205000,https://www.zillow.com/homedetails/2113-W-Boston-St-Chandler-AZ-85224/8208049_zpid/,33.3016,-111.87799999999999,6642,2018-03-09
9032285,23920247,"7579 W Wikieup Ln, Glendale, AZ 85308 ",85308,0.17799460142850876,0.9055132865905762,0.16117647653490863,249900,https://www.zillow.com/homedetails/7579-W-Wikieup-Ln-Glendale-AZ-85308/7892240_zpid/,33.6639,-112.221,6640,2018-03-07
418482,23919845,"5133 W Purdue Ave, Glendale, AZ 85302 ",85302,0.17849023640155792,0.9028998911380768,0.16115881501617624,229900,https://www.zillow.com/homedetails/5133-W-Purdue-Ave-Glendale-AZ-85302/7734426_zpid/,33.5739,-112.171,6644,2018-03-11
9032612,23923307,"9410 W Raintree Dr, Sun City, AZ 85351 ",85351,0.17799460142850876,0.9054139852523804,0.16115880143279515,194500,https://www.zillow.com/homedetails/9410-W-Raintree-Dr-Sun-City-AZ-85351/7922067_zpid/,33.6169,-112.26100000000001,6648,2018-03-15
243943,23929305,"18466 N 5TH Ave, Phoenix, AZ 85023 ",85023,0.1786506064236164,0.902076244354248,0.1611564680942248,244000,https://www.zillow.com/homedetails/18466-N-5TH-Ave-Phoenix-AZ-85023/7956365_zpid/,33.6543,-112.08,6628,2018-02-23
8967906,23915527,"2908 W Angela Dr, Phoenix, AZ 85053 ",85053,0.1791515089571476,0.8994826972484589,0.16114368249290656,189000,https://www.zillow.com/homedetails/2908-W-Angela-Dr-Phoenix-AZ-85053/7942295_zpid/,33.6461,-112.12200000000001,6638,2018-03-05
9029927,23905344,"11212 N 76th Dr, Peoria, AZ 85345 ",85345,0.17799460142850876,0.9052988290786743,0.1611383042555543,180000,https://www.zillow.com/homedetails/11212-N-76th-Dr-Peoria-AZ-85345/7681911_zpid/,33.5861,-112.22399999999999,6620,2018-02-15
9016481,23867228,"7401 W Jenan Dr, Peoria, AZ 85345 ",85345,0.17920678108930588,0.8991601169109344,0.1611355902354925,240000,https://www.zillow.com/homedetails/7401-W-Jenan-Dr-Peoria-AZ-85345/7700306_zpid/,33.5916,-112.21799999999999,6589,2018-01-15
418906,23882456,"5241 W Barbara Ave, Glendale, AZ 85302 ",85302,0.17849023640155792,0.9027563333511353,0.16113319135284776,241995,https://www.zillow.com/homedetails/5241-W-Barbara-Ave-Glendale-AZ-85302/7733970_zpid/,33.5639,-112.17299999999999,6620,2018-02-15
9025883,23888696,"7436 W Beryl Ave, Peoria, AZ 85345 ",85345,0.17799460142850876,0.9052473306655884,0.16112913781604288,189900,https://www.zillow.com/homedetails/7436-W-Beryl-Ave-Peoria-AZ-85345/7705847_zpid/,33.5785,-112.219,6620,2018-02-15
9029920,23914705,"9614 W Purdue Ave, Peoria, AZ 85345 ",85345,0.17799460142850876,0.9052381813526154,0.1611275092877269,195500,https://www.zillow.com/homedetails/9614-W-Purdue-Ave-Peoria-AZ-85345/7687220_zpid/,33.5723,-112.266,6645,2018-03-12
412006,23890703,"5332 W Aster Dr, Glendale, AZ 85304 ",85304,0.17849023640155792,0.9027141630649567,0.16112566436849862,192600,https://www.zillow.com/homedetails/5332-W-Aster-Dr-Glendale-AZ-85304/7911537_zpid/,33.6008,-112.17399999999999,6619,2018-02-14
9031637,23915107,"7641 W Sells Dr, Phoenix, AZ 85033 ",85033,0.17799460142850876,0.9052115082740784,0.16112276162374384,189000,https://www.zillow.com/homedetails/7641-W-Sells-Dr-Phoenix-AZ-85033/7482080_zpid/,33.5006,-112.225,6641,2018-03-08
1672223,23923282,"9506 W Appaloosa Dr, Sun City, AZ 85373 ",85373,0.17799460142850876,0.9051836729049683,0.16111780707831347,194900,https://www.zillow.com/homedetails/9506-W-Appaloosa-Dr-Sun-City-AZ-85373/8095180_zpid/,33.6452,-112.26700000000001,6649,2018-03-16
17802,23914440,"8338 W Bluefield Ave, Peoria, AZ 85382 ",85382,0.17799460142850876,0.9051589369773865,0.16111340421674258,219900,https://www.zillow.com/homedetails/8338-W-Bluefield-Ave-Peoria-AZ-85382/8129243_zpid/,33.6507,-112.23899999999999,6649,2018-03-16
498525,23890285,"6931 W Lewis Ave, Phoenix, AZ 85035 ",85035,0.17799460142850876,0.9051254391670227,0.16110744178733816,169888,https://www.zillow.com/homedetails/6931-W-Lewis-Ave-Phoenix-AZ-85035/7475491_zpid/,33.475,-112.209,6626,2018-02-21
9015636,23887124,"7118 W Sells Dr, Phoenix, AZ 85033 ",85033,0.17799460142850876,0.905104786157608,0.1611037656631591,175000,https://www.zillow.com/homedetails/7118-W-Sells-Dr-Phoenix-AZ-85033/88889219_zpid/,33.5022,-112.213,6620,2018-02-15
398139,23888411,"4133 W Bloomfield Rd, Phoenix, AZ 85029 ",85029,0.17849023640155792,0.9025207757949829,0.16109114662896395,230000,https://www.zillow.com/homedetails/4133-W-Bloomfield-Rd-Phoenix-AZ-85029/7742616_zpid/,33.5986,-112.148,6622,2018-02-17
445830,23877779,"4710 N 84th Ln, Phoenix, AZ 85037 ",85037,0.17920678108930588,0.8989095091819763,0.16109067963106982,175000,https://www.zillow.com/homedetails/4710-N-84th-Ln-Phoenix-AZ-85037/7481167_zpid/,33.5057,-112.242,6594,2018-01-20
9031394,23913649,"11435 N 93RD Ave, Peoria, AZ 85345 ",85345,0.17799460142850876,0.9050077497959137,0.16108649371463524,179900,https://www.zillow.com/homedetails/11435-N-93RD-Ave-Peoria-AZ-85345/7686640_zpid/,33.5892,-112.259,6635,2018-03-02
9028602,23899875,"8136 W Monterey Way, Phoenix, AZ 85033 ",85033,0.17799460142850876,0.9049958288669586,0.16108437185363722,179000,https://www.zillow.com/homedetails/8136-W-Monterey-Way-Phoenix-AZ-85033/7479180_zpid/,33.4844,-112.236,6621,2018-02-16
9031633,23915091,"7755 W Heatherbrae Dr, Phoenix, AZ 85033 ",85033,0.17799460142850876,0.9049842655658722,0.16108231364846914,189900,https://www.zillow.com/homedetails/7755-W-Heatherbrae-Dr-Phoenix-AZ-85033/7467562_zpid/,33.497,-112.228,6634,2018-03-01
9029771,23904721,"8834 W Palo Verde Ave, Peoria, AZ 85345 ",85345,0.17799460142850876,0.90497225522995,0.16108017587351364,206000,https://www.zillow.com/homedetails/8834-W-Palo-Verde-Ave-Peoria-AZ-85345/7696466_zpid/,33.5722,-112.25,6625,2018-02-20
1090009,23867209,"615 W Dublin St, Chandler, AZ 85225 ",85225,0.17987562343478203,0.8954784870147705,0.1610747511242172,247000,https://www.zillow.com/homedetails/615-W-Dublin-St-Chandler-AZ-85225/8189370_zpid/,33.3189,-111.851,6586,2018-01-12
9029861,23905103,"8642 W Echo Ln, Peoria, AZ 85345 ",85345,0.17799460142850876,0.9049316644668579,0.1610729509368154,185000,https://www.zillow.com/homedetails/8642-W-Echo-Ln-Peoria-AZ-85345/50187500_zpid/,33.5583,-112.24600000000001,6617,2018-02-12
1466859,23888642,"18393 N 88TH Dr, Peoria, AZ 85382 ",85382,0.17799460142850876,0.9049056172370911,0.16106831467053473,239900,https://www.zillow.com/homedetails/18393-N-88TH-Dr-Peoria-AZ-85382/7898763_zpid/,33.6514,-112.249,6619,2018-02-14
9026278,23865568,"8630 W El Caminito Dr, Peoria, AZ 85345 ",85345,0.17920678108930588,0.8987811505794525,0.1610676768990864,199999,https://www.zillow.com/homedetails/8630-W-El-Caminito-Dr-Peoria-AZ-85345/50187525_zpid/,33.5576,-112.24600000000001,6585,2018-01-11
1405541,23883136,"6702 N 82ND Dr, Glendale, AZ 85303 ",85303,0.17920678108930588,0.8987630605697632,0.1610644350466801,229900,https://www.zillow.com/homedetails/6702-N-82ND-Dr-Glendale-AZ-85303/7462533_zpid/,33.5329,-112.23700000000001,6585,2018-01-11
416979,23919743,"4635 W Palo Verde Ave, Glendale, AZ 85302 ",85302,0.17849023640155792,0.9023348093032837,0.1610579534258978,214900,https://www.zillow.com/homedetails/4635-W-Palo-Verde-Ave-Glendale-AZ-85302/7729514_zpid/,33.5728,-112.15899999999999,6645,2018-03-12
385650,23891580,"3601 W Royal Palm Rd, Phoenix, AZ 85051 ",85051,0.1791515089571476,0.8989832401275635,0.16105420399603876,228900,https://www.zillow.com/homedetails/3601-W-Royal-Palm-Rd-Phoenix-AZ-85051/7753622_zpid/,33.5554,-112.137,6617,2018-02-12
9029929,23905358,"8408 W Surrey Ave, Peoria, AZ 85381 ",85381,0.17799460142850876,0.9047809839248657,0.16104613061380046,249900,https://www.zillow.com/homedetails/8408-W-Surrey-Ave-Peoria-AZ-85381/7914278_zpid/,33.6041,-112.24,6617,2018-02-12
9024755,23914845,"3026 N 75TH Dr, Phoenix, AZ 85033 ",85033,0.17799460142850876,0.9047737717628479,0.16104484688789666,174000,https://www.zillow.com/homedetails/3026-N-75TH-Dr-Phoenix-AZ-85033/7469531_zpid/,33.4832,-112.221,6629,2018-02-24
424361,23920272,"9210 N 51ST Dr, Glendale, AZ 85302 ",85302,0.17849023640155792,0.9022290110588074,0.16103906947223035,195000,https://www.zillow.com/homedetails/9210-N-51ST-Dr-Glendale-AZ-85302/7734593_zpid/,33.57,-112.17,6635,2018-03-02
477598,23914855,"1641 N 72ND Ln, Phoenix, AZ 85035 ",85035,0.17799460142850876,0.9047192931175232,0.16103514998313573,173000,https://www.zillow.com/homedetails/1641-N-72ND-Ln-Phoenix-AZ-85035/7475213_zpid/,33.4673,-112.215,6642,2018-03-09
426202,23889384,"4309 N 82nd Dr, Phoenix, AZ 85033 ",85033,0.17799460142850876,0.9046680331230164,0.16102602598084426,189900,https://www.zillow.com/homedetails/4309-N-82nd-Dr-Phoenix-AZ-85033/2091011523_zpid/,33.4983,-112.23700000000001,6624,2018-02-19
450091,23876135,"8648 W Turney Ave, Phoenix, AZ 85037 ",85037,0.17799460142850876,0.9046430885791779,0.1610215859867059,215900,https://www.zillow.com/homedetails/8648-W-Turney-Ave-Phoenix-AZ-85037/7480550_zpid/,33.4996,-112.24600000000001,6618,2018-02-13
423604,23883734,"8812 N 57TH Dr, Glendale, AZ 85302 ",85302,0.17849023640155792,0.9020393490791321,0.16100521666064171,239000,https://www.zillow.com/homedetails/8812-N-57TH-Dr-Glendale-AZ-85302/7733242_zpid/,33.5658,-112.18299999999999,6603,2018-01-29
522482,23866699,"9013 W Virginia Ave, Phoenix, AZ 85037 ",85037,0.17920678108930588,0.8983896672725677,0.1609975204358094,174900,https://www.zillow.com/homedetails/9013-W-Virginia-Ave-Phoenix-AZ-85037/7473884_zpid/,33.4743,-112.25399999999999,6583,2018-01-09
9027929,23897509,"3756 E Surrey Ave, Phoenix, AZ 85032 ",85032,0.1786506064236164,0.9011552333831787,0.16099192892572045,234500,https://www.zillow.com/homedetails/3756-E-Surrey-Ave-Phoenix-AZ-85032/7814169_zpid/,33.6058,-112.0,6630,2018-02-25
8980462,23888704,"7814 W Mescal St, Peoria, AZ 85345 ",85345,0.17799460142850876,0.9043373465538025,0.16096716555675927,235000,https://www.zillow.com/homedetails/7814-W-Mescal-St-Peoria-AZ-85345/7681854_zpid/,33.5861,-112.227,6617,2018-02-12
354030,23866666,"8023 W Brill St, Phoenix, AZ 85043 ",85043,0.17920678108930588,0.8982133269309998,0.1609659190508208,210000,https://www.zillow.com/homedetails/8023-W-Brill-St-Phoenix-AZ-85043/81990661_zpid/,33.4639,-112.23200000000001,6587,2018-01-13
9030886,23910458,"18650 N 45th Dr, Glendale, AZ 85308 ",85308,0.17799460142850876,0.9043163061141968,0.16096342047209777,214900,https://www.zillow.com/homedetails/18650-N-45th-Dr-Glendale-AZ-85308/7938990_zpid/,33.6559,-112.15799999999999,6619,2018-02-14
497626,23889892,"6811 W Encanto Blvd, Phoenix, AZ 85035 ",85035,0.17799460142850876,0.9042945206165314,0.1609595427711239,189900,https://www.zillow.com/homedetails/6811-W-Encanto-Blvd-Phoenix-AZ-85035/7475710_zpid/,33.4732,-112.206,6625,2018-02-20
478050,23914790,"1807 N 77TH Dr, Phoenix, AZ 85035 ",85035,0.17799460142850876,0.904275119304657,0.16095608944234963,189900,https://www.zillow.com/homedetails/1807-N-77TH-Dr-Phoenix-AZ-85035/95087672_zpid/,33.4676,-112.225,6646,2018-03-13
414666,23919968,"6513 W Mescal St, Glendale, AZ 85304 ",85304,0.17799460142850876,0.9042475521564484,0.1609511826387917,204900,https://www.zillow.com/homedetails/6513-W-Mescal-St-Glendale-AZ-85304/7699113_zpid/,33.586,-112.199,6648,2018-03-15
7442560,23888689,"7114 W Cochise Dr, Peoria, AZ 85345 ",85345,0.17799460142850876,0.9042158126831055,0.1609455331838845,185000,https://www.zillow.com/homedetails/7114-W-Cochise-Dr-Peoria-AZ-85345/7701382_zpid/,33.58,-112.212,6621,2018-02-16
528117,23877942,"9562 W Monte Vista Rd, Phoenix, AZ 85037 ",85037,0.17799460142850876,0.9042148888111115,0.16094536873965715,209900,https://www.zillow.com/homedetails/9562-W-Monte-Vista-Rd-Phoenix-AZ-85037/60975006_zpid/,33.4704,-112.26700000000001,6617,2018-02-12
527415,23868869,"9437 W Terri Lee Dr, Phoenix, AZ 85037 ",85037,0.17920678108930588,0.8980121612548828,0.16092986879753823,199500,https://www.zillow.com/homedetails/9437-W-Terri-Lee-Dr-Phoenix-AZ-85037/67764458_zpid/,33.4667,-112.264,6593,2018-01-19
1879274,23888645,"14647 N 87TH Ave, Peoria, AZ 85381 ",85381,0.17920678108930588,0.8979112207889557,0.16091177958155778,249000,https://www.zillow.com/homedetails/14647-N-87TH-Ave-Peoria-AZ-85381/8103174_zpid/,33.6178,-112.245,6596,2018-01-22
9025882,23869744,"7140 W Desert Cove Ave, Peoria, AZ 85345 ",85345,0.17920678108930588,0.8978511095046997,0.16090100723179912,234900,https://www.zillow.com/homedetails/7140-W-Desert-Cove-Ave-Peoria-AZ-85345/7701093_zpid/,33.585,-112.213,6595,2018-01-21
412657,23882523,"5545 W Garden Dr, Glendale, AZ 85304 ",85304,0.17849023640155792,0.9014341235160828,0.16089718980681678,199000,https://www.zillow.com/homedetails/5545-W-Garden-Dr-Glendale-AZ-85304/7736309_zpid/,33.5882,-112.179,6606,2018-02-01
411832,23919811,"5309 W Sierra St, Glendale, AZ 85304 ",85304,0.17849023640155792,0.9013573825359344,0.16088349229112842,199000,https://www.zillow.com/homedetails/5309-W-Sierra-St-Glendale-AZ-85304/7737309_zpid/,33.5911,-112.17399999999999,6641,2018-03-08
9029846,23905037,"7351 W Eva St, Peoria, AZ 85345 ",85345,0.17799460142850876,0.9038671851158142,0.1608834793589975,219990,https://www.zillow.com/homedetails/7351-W-Eva-St-Peoria-AZ-85345/7702451_zpid/,33.5684,-112.21700000000001,6609,2018-02-04
249685,23929319,"421 E Kerry Ln, Phoenix, AZ 85024 ",85024,0.1786506064236164,0.900528609752655,0.16087998223412803,200000,https://www.zillow.com/homedetails/421-E-Kerry-Ln-Phoenix-AZ-85024/7972492_zpid/,33.6603,-112.069,6649,2018-03-16
431177,23887130,"6717 W Earll Dr, Phoenix, AZ 85033 ",85033,0.17799460142850876,0.9038088023662567,0.1608730875447597,199900,https://www.zillow.com/homedetails/6717-W-Earll-Dr-Phoenix-AZ-85033/7468542_zpid/,33.4834,-112.204,6621,2018-02-16
9031381,23913537,"10356 N 68TH Ln, Peoria, AZ 85345 ",85345,0.17799460142850876,0.9037142097949982,0.16085625057774044,239000,https://www.zillow.com/homedetails/10356-N-68TH-Ln-Peoria-AZ-85345/7702010_zpid/,33.5798,-112.20700000000001,6648,2018-03-15
429235,23914962,"6338 W Thomas Rd, Phoenix, AZ 85033 ",85033,0.17799460142850876,0.9036101996898651,0.16083773734053275,224900,https://www.zillow.com/homedetails/6338-W-Thomas-Rd-Phoenix-AZ-85033/7498752_zpid/,33.4807,-112.197,6636,2018-03-03
9031425,23913807,"19424 N 84TH Ave, Peoria, AZ 85382 ",85382,0.17799460142850876,0.9036093354225159,0.1608375835056104,235900,https://www.zillow.com/homedetails/19424-N-84TH-Ave-Peoria-AZ-85382/8102096_zpid/,33.6609,-112.24,6650,2018-03-17
8975236,23887133,"3643 N 73rd Ave, Phoenix, AZ 85033 ",85033,0.17799460142850876,0.9035935997962952,0.160834782649093,184000,https://www.zillow.com/homedetails/3643-N-73rd-Ave-Phoenix-AZ-85033/7468824_zpid/,33.4911,-112.21600000000001,6621,2018-02-16
9029584,23903830,"6226 N 35TH Ave, Phoenix, AZ 85017 ",85017,0.1791515089571476,0.8977149128913879,0.16082698125782646,139650,https://www.zillow.com/homedetails/6226-N-35TH-Ave-Phoenix-AZ-85017/7761396_zpid/,33.5286,-112.135,6613,2018-02-08
828943,23890684,"3619 W Krall St, Phoenix, AZ 85019 ",85019,0.1791515089571476,0.8976885676383972,0.16082226146599932,179990,https://www.zillow.com/homedetails/3619-W-Krall-St-Phoenix-AZ-85019/7761766_zpid/,33.5341,-112.137,6626,2018-02-21
416728,23890693,"4561 W Echo Ln, Glendale, AZ 85302 ",85302,0.17849023640155792,0.9009849429130554,0.16081701545479543,230000,https://www.zillow.com/homedetails/4561-W-Echo-Ln-Glendale-AZ-85302/7731772_zpid/,33.5592,-112.15799999999999,6626,2018-02-21
422149,23920227,"6523 W Brown St, Glendale, AZ 85302 ",85302,0.17799460142850876,0.9034572243690491,0.1608105085592757,208600,https://www.zillow.com/homedetails/6523-W-Brown-St-Glendale-AZ-85302/7706599_zpid/,33.5779,-112.2,6647,2018-03-14
559662,23912498,"1302 W 7TH Dr, Mesa, AZ 85202 ",85202,0.1791515089571476,0.8976112902164459,0.16080841709924842,177000,https://www.zillow.com/homedetails/1302-W-7TH-Dr-Mesa-AZ-85202/7604299_zpid/,33.4017,-111.859,6635,2018-03-02
9025721,23873511,"4808 W Michigan Ave, Glendale, AZ 85308 ",85308,0.17799460142850876,0.9034216701984406,0.16080418010884912,210000,https://www.zillow.com/homedetails/4808-W-Michigan-Ave-Glendale-AZ-85308/7949548_zpid/,33.6511,-112.163,6611,2018-02-06
422239,23919980,"6545 W Mountain View Rd, Glendale, AZ 85302 ",85302,0.17799460142850876,0.9033767879009247,0.16079619130219158,229900,https://www.zillow.com/homedetails/6545-W-Mountain-View-Rd-Glendale-AZ-85302/7703343_zpid/,33.5742,-112.20100000000001,6638,2018-03-05
832462,23892108,"4208 W Palo Verde Dr, Phoenix, AZ 85019 ",85019,0.17849023640155792,0.9008226096630096,0.16078804055461893,179000,https://www.zillow.com/homedetails/4208-W-Palo-Verde-Dr-Phoenix-AZ-85019/7718993_zpid/,33.5233,-112.149,6627,2018-02-22
425872,23889873,"4041 N 80TH Dr, Phoenix, AZ 85033 ",85033,0.17799460142850876,0.9033092260360718,0.16078416565498532,180000,https://www.zillow.com/homedetails/4041-N-80TH-Dr-Phoenix-AZ-85033/7478679_zpid/,33.4931,-112.23200000000001,6625,2018-02-20
417983,23889534,"4933 W Golden Ln, Glendale, AZ 85302 ",85302,0.17849023640155792,0.9007976949214935,0.16078359351651583,200000,https://www.zillow.com/homedetails/4933-W-Golden-Ln-Glendale-AZ-85302/7730593_zpid/,33.5645,-112.166,6623,2018-02-18
833043,23884776,"5211 N 41st Ave, Phoenix, AZ 85019 ",85019,0.17849023640155792,0.900709480047226,0.16076784802275368,173000,https://www.zillow.com/homedetails/5211-N-41st-Ave-Phoenix-AZ-85019/7721526_zpid/,33.5132,-112.147,6606,2018-02-01
232284,23891805,"17842 N 34TH Dr, Phoenix, AZ 85053 ",85053,0.1786506064236164,0.8999000489711761,0.16076768946934272,145000,https://www.zillow.com/homedetails/17842-N-34TH-Dr-Phoenix-AZ-85053/7941332_zpid/,33.6488,-112.133,6627,2018-02-22
412045,23920191,"5337 W Mercer Ln, Glendale, AZ 85304 ",85304,0.17849023640155792,0.9007067680358887,0.16076736395520896,227799,https://www.zillow.com/homedetails/5337-W-Mercer-Ln-Glendale-AZ-85304/92352572_zpid/,33.5846,-112.175,6647,2018-03-14
242624,23915588,"3202 W Grovers Ave, Phoenix, AZ 85053 ",85053,0.1791515089571476,0.8973678648471832,0.16076480707702656,219900,https://www.zillow.com/homedetails/3202-W-Grovers-Ave-Phoenix-AZ-85053/7941583_zpid/,33.6476,-112.12799999999999,6645,2018-03-12
385549,23892053,"3552 W Echo Ln, Phoenix, AZ 85051 ",85051,0.1791515089571476,0.897365391254425,0.1607643639291514,189500,https://www.zillow.com/homedetails/3552-W-Echo-Ln-Phoenix-AZ-85051/7754436_zpid/,33.5597,-112.137,6627,2018-02-22
833768,23884876,"6226 N 35th Dr, Phoenix, AZ 85019 ",85019,0.1791515089571476,0.8973206877708435,0.1607563552326121,139650,https://www.zillow.com/homedetails/6226-N-35th-Dr-Phoenix-AZ-85019/7761396_zpid/,33.5286,-112.135,6613,2018-02-08
9029957,23905476,"6803 W Jenan Dr, Peoria, AZ 85345 ",85345,0.17799460142850876,0.9030627012252808,0.16074028556954634,216000,https://www.zillow.com/homedetails/6803-W-Jenan-Dr-Peoria-AZ-85345/7699810_zpid/,33.5919,-112.205,6605,2018-01-31
1120647,23919574,"2302 W Ironwood Dr, Chandler, AZ 85224 ",85224,0.1786506064236164,0.8997458517551422,0.16074014204318943,240000,https://www.zillow.com/homedetails/2302-W-Ironwood-Dr-Chandler-AZ-85224/8193050_zpid/,33.3247,-111.882,6656,2018-03-23
9030778,23911308,"4941 W Townley Ave, Glendale, AZ 85302 ",85302,0.17849023640155792,0.9005455076694489,0.16073858055428092,200000,https://www.zillow.com/homedetails/4941-W-Townley-Ave-Glendale-AZ-85302/7730613_zpid/,33.5647,-112.167,6613,2018-02-08
833315,23884788,"5610 N 38th Dr, Phoenix, AZ 85019 ",85019,0.17849023640155792,0.9005306661128998,0.1607359314813439,180000,https://www.zillow.com/homedetails/5610-N-38th-Dr-Phoenix-AZ-85019/7719600_zpid/,33.5183,-112.14200000000001,6613,2018-02-08
231680,23915293,"17618 N 28TH Dr, Phoenix, AZ 85053 ",85053,0.1791515089571476,0.897050529718399,0.16070795600985976,199900,https://www.zillow.com/homedetails/17618-N-28TH-Dr-Phoenix-AZ-85053/7942393_zpid/,33.6461,-112.12100000000001,6642,2018-03-09
9029821,23904953,"8011 N 87th Dr, Peoria, AZ 85345 ",85345,0.17799460142850876,0.9028566479682922,0.16070360920219562,214900,https://www.zillow.com/homedetails/8011-N-87th-Dr-Peoria-AZ-85345/50187488_zpid/,33.5525,-112.24700000000001,6614,2018-02-09
1951814,23890221,"8166 N 90TH Ln, Peoria, AZ 85345 ",85345,0.17799460142850876,0.9028326272964478,0.16069933365228461,185000,https://www.zillow.com/homedetails/8166-N-90TH-Ln-Peoria-AZ-85345/7682985_zpid/,33.5549,-112.255,6625,2018-02-20
1422266,23883525,"8164 W Sierra Vista Dr, Glendale, AZ 85303 ",85303,0.17920678108930588,0.8967244923114777,0.16069910979108193,239900,https://www.zillow.com/homedetails/8164-W-Sierra-Vista-Dr-Glendale-AZ-85303/7462584_zpid/,33.5315,-112.236,6579,2018-01-05
423259,23883620,"8604 N 54TH Dr, Glendale, AZ 85302 ",85302,0.17849023640155792,0.90031698346138,0.16069779121435923,239900,https://www.zillow.com/homedetails/8604-N-54TH-Dr-Glendale-AZ-85302/7733811_zpid/,33.5626,-112.177,6620,2018-02-15
9029936,23905379,"8408 W Bloomfield Rd, Peoria, AZ 85381 ",85381,0.17920678108930588,0.8966915607452393,0.16069320823110012,224900,https://www.zillow.com/homedetails/8408-W-Bloomfield-Rd-Peoria-AZ-85381/7914533_zpid/,33.5976,-112.24,6578,2018-01-04
9029830,23904987,"9503 N 82nd Ln, Peoria, AZ 85345 ",85345,0.17799460142850876,0.9027281701564789,0.1606807408452895,189900,https://www.zillow.com/homedetails/9503-N-82nd-Ln-Peoria-AZ-85345/67765087_zpid/,33.571,-112.236,6621,2018-02-16
434384,23888835,"7629 W Flower St, Phoenix, AZ 85033 ",85033,0.17799460142850876,0.902649313211441,0.1606667047347876,175900,https://www.zillow.com/homedetails/7629-W-Flower-St-Phoenix-AZ-85033/7469131_zpid/,33.4849,-112.22399999999999,6623,2018-02-18
409744,23919751,"4523 W Christy Dr, Glendale, AZ 85304 ",85304,0.17849023640155792,0.9001052379608154,0.1606599967099065,217000,https://www.zillow.com/homedetails/4523-W-Christy-Dr-Glendale-AZ-85304/7727670_zpid/,33.5847,-112.15799999999999,6640,2018-03-07
448574,23887126,"8418 W Fairmount Ave, Phoenix, AZ 85037 ",85037,0.17799460142850876,0.9026089012622833,0.16065951162600434,159996,https://www.zillow.com/homedetails/8418-W-Fairmount-Ave-Phoenix-AZ-85037/7470147_zpid/,33.4902,-112.24,6621,2018-02-16
413808,23882818,"6138 W Poinsettia Dr, Glendale, AZ 85304 ",85304,0.17799460142850876,0.9025196731090546,0.16064362949643418,249000,https://www.zillow.com/homedetails/6138-W-Poinsettia-Dr-Glendale-AZ-85304/7698141_zpid/,33.5938,-112.19200000000001,6615,2018-02-10
1414927,23883462,"7413 N 67TH Dr, Glendale, AZ 85303 ",85303,0.17799460142850876,0.9025173187255859,0.16064321042888707,235000,https://www.zillow.com/homedetails/7413-N-67TH-Dr-Glendale-AZ-85303/7705033_zpid/,33.5447,-112.20299999999999,6611,2018-02-06
429236,23891937,"6338 W Verde Ln, Phoenix, AZ 85033 ",85033,0.17799460142850876,0.9024714529514313,0.1606350465686972,159900,https://www.zillow.com/homedetails/6338-W-Verde-Ln-Phoenix-AZ-85033/7498713_zpid/,33.4819,-112.197,6627,2018-02-22
9025669,23888926,"3607 W Mclellan Blvd, Phoenix, AZ 85019 ",85019,0.1791515089571476,0.8966428935527802,0.16063492737568363,174000,https://www.zillow.com/homedetails/3607-W-Mclellan-Blvd-Phoenix-AZ-85019/7761699_zpid/,33.5325,-112.137,6617,2018-02-12
500715,23888248,"7341 W Cypress St, Phoenix, AZ 85035 ",85035,0.17799460142850876,0.902449369430542,0.16063111582119838,172000,https://www.zillow.com/homedetails/7341-W-Cypress-St-Phoenix-AZ-85035/7474860_zpid/,33.472,-112.21799999999999,6622,2018-02-17
9029860,23905097,"11808 N 78th Dr, Peoria, AZ 85345 ",85345,0.17799460142850876,0.9023769199848175,0.16061822021098293,229900,https://www.zillow.com/homedetails/11808-N-78th-Dr-Peoria-AZ-85345/7680322_zpid/,33.5926,-112.228,6621,2018-02-16
408778,23919946,"6343 W Hearn Rd, Glendale, AZ 85306 ",85306,0.17799460142850876,0.902344137430191,0.16061238509323839,239000,https://www.zillow.com/homedetails/6343-W-Hearn-Rd-Glendale-AZ-85306/8098838_zpid/,33.6179,-112.194,6634,2018-03-01
7452531,23914721,"9318 W Vogel Ave, Peoria, AZ 85345 ",85345,0.17799460142850876,0.902321070432663,0.16060827929220722,225000,https://www.zillow.com/homedetails/9318-W-Vogel-Ave-Peoria-AZ-85345/7697363_zpid/,33.5718,-112.26,6640,2018-03-07
492244,23876132,"5649 W Wilshire Dr, Phoenix, AZ 85035 ",85035,0.17799460142850876,0.9023202359676361,0.16060813076193736,155000,https://www.zillow.com/homedetails/5649-W-Wilshire-Dr-Phoenix-AZ-85035/7492095_zpid/,33.4751,-112.182,6618,2018-02-13
1357797,23883517,"7780 N 58th Dr, Glendale, AZ 85301 ",85301,0.17849023640155792,0.8998067378997803,0.16060671736344645,205000,https://www.zillow.com/homedetails/7780-N-58th-Dr-Glendale-AZ-85301/62728686_zpid/,33.5501,-112.184,6605,2018-01-31
445075,23888238,"4620 N 92ND Dr, Phoenix, AZ 85037 ",85037,0.17799460142850876,0.9023034274578094,0.16060513893793016,241000,https://www.zillow.com/homedetails/4620-N-92ND-Dr-Phoenix-AZ-85037/7466545_zpid/,33.5049,-112.259,6622,2018-02-17
9032611,23923305,"9319 W Arrowhead Dr, Sun City, AZ 85351 ",85351,0.17799460142850876,0.9022999405860901,0.16060451829358824,163000,https://www.zillow.com/homedetails/9319-W-Arrowhead-Dr-Sun-City-AZ-85351/7908165_zpid/,33.6099,-112.26,6638,2018-03-05
42458,23891642,"6830 W Garfield St, Phoenix, AZ 85043 ",85043,0.17799460142850876,0.9022522270679474,0.16059602554494368,199900,https://www.zillow.com/homedetails/6830-W-Garfield-St-Phoenix-AZ-85043/7476107_zpid/,33.4575,-112.20700000000001,6626,2018-02-21
9029848,23905048,"8468 W Audrey Ln, Peoria, AZ 85382 ",85382,0.17920678108930588,0.8961162865161896,0.1605901151882685,249000,https://www.zillow.com/homedetails/8468-W-Audrey-Ln-Peoria-AZ-85382/8128997_zpid/,33.6521,-112.242,6592,2018-01-18
9025872,23872342,"15168 N 90TH Ln, Peoria, AZ 85381 ",85381,0.17799460142850876,0.9022157192230225,0.16058952734563725,213700,https://www.zillow.com/homedetails/15168-N-90th-Ln-Peoria-AZ-85381/7908827_zpid/,33.6229,-112.25399999999999,6605,2018-01-31
410925,23919772,"5042 W Christy Dr, Glendale, AZ 85304 ",85304,0.17849023640155792,0.8996941149234772,0.16058661526178186,239000,https://www.zillow.com/homedetails/5042-W-Christy-Dr-Glendale-AZ-85304/7728276_zpid/,33.5843,-112.16799999999999,6634,2018-03-01
15532,23914178,"7400 W Mission Ln, Peoria, AZ 85345 ",85345,0.17799460142850876,0.9020558297634125,0.16056106788500135,220000,https://www.zillow.com/homedetails/7400-W-Mission-Ln-Peoria-AZ-85345/7702217_zpid/,33.5703,-112.21799999999999,6650,2018-03-17
242834,23891799,"18213 N 11TH Ave, Phoenix, AZ 85023 ",85023,0.1791515089571476,0.8961882293224335,0.16055347359274819,224900,https://www.zillow.com/homedetails/18213-N-11TH-Ave-Phoenix-AZ-85023/7956722_zpid/,33.6516,-112.087,6627,2018-02-22
8958904,23877123,"18619 N 45th Dr, Glendale, AZ 85308 ",85308,0.17799460142850876,0.9019479155540466,0.1605418597383168,200000,https://www.zillow.com/homedetails/18619-N-45th-Dr-Glendale-AZ-85308/7938848_zpid/,33.6553,-112.15700000000001,6617,2018-02-12
228186,23886962,"15806 N 37TH Dr, Phoenix, AZ 85053 ",85053,0.1791515089571476,0.8961015939712524,0.16053795273885507,234999,https://www.zillow.com/homedetails/15806-N-37TH-Dr-Phoenix-AZ-85053/7945936_zpid/,33.6292,-112.139,6617,2018-02-12
418443,23889532,"5127 W Mountain View Rd, Glendale, AZ 85302 ",85302,0.17849023640155792,0.8993572294712067,0.16052648449776585,175000,https://www.zillow.com/homedetails/5127-W-Mountain-View-Rd-Glendale-AZ-85302/7734363_zpid/,33.5744,-112.17,6624,2018-02-19
1960784,23873070,"7424 W Minnezona Ave, Phoenix, AZ 85033 ",85033,0.17799460142850876,0.9018543064594269,0.16052519782482988,170000,https://www.zillow.com/homedetails/7424-W-Minnezona-Ave-Phoenix-AZ-85033/7710976_zpid/,33.5028,-112.219,6607,2018-02-02
9026502,23873986,"8148 W Avalon Dr, Phoenix, AZ 85033 ",85033,0.17799460142850876,0.9018448889255524,0.16052352155464145,156400,https://www.zillow.com/homedetails/8148-W-Avalon-Dr-Phoenix-AZ-85033/7479723_zpid/,33.4826,-112.235,6612,2018-02-07
9023484,23885682,"9501 W Hidden Valley Cir N, Sun City, AZ 85351 ",85351,0.17799460142850876,0.9018003344535828,0.16051559109916136,186000,https://www.zillow.com/homedetails/9501-W-Hidden-Valley-Cir-N-Sun-City-AZ-85351/7904887_zpid/,33.6359,-112.264,6620,2018-02-15
9033246,23929961,"8421 W Cocopah St, Tolleson, AZ 85353 ",85353,0.17799460142850876,0.9017927348613739,0.16051423841277512,219995,https://www.zillow.com/homedetails/8421-W-Cocopah-St-Tolleson-AZ-85353/59271616_zpid/,33.4321,-112.241,6650,2018-03-17
451876,23881479,"8821 W Columbus Ave, Phoenix, AZ 85037 ",85037,0.17799460142850876,0.9017841219902039,0.16051270536820406,174000,https://www.zillow.com/homedetails/8821-W-Columbus-Ave-Phoenix-AZ-85037/7470735_zpid/,33.4888,-112.249,6620,2018-02-15
9029911,23905288,"7550 W Ironwood Dr, Peoria, AZ 85345 ",85345,0.17799460142850876,0.9017628729343414,0.1605089231509751,217500,https://www.zillow.com/homedetails/7550-W-Ironwood-Dr-Peoria-AZ-85345/7682225_zpid/,33.5754,-112.22200000000001,6621,2018-02-16
9029750,23904583,"3902 W Davidson Ln, Phoenix, AZ 85051 ",85051,0.17849023640155792,0.8992279767990112,0.16050341415775016,177000,https://www.zillow.com/homedetails/3902-W-Davidson-Ln-Phoenix-AZ-85051/7746496_zpid/,33.5699,-112.14299999999999,6621,2018-02-16
1885528,23879729,"8223 W Carol Ave, Peoria, AZ 85345 ",85345,0.17799460142850876,0.9016722738742828,0.16049279700739016,215000,https://www.zillow.com/homedetails/8223-W-Carol-Ave-Peoria-AZ-85345/60978276_zpid/,33.5706,-112.236,6618,2018-02-13
8991642,23869584,"9253 W Gold Dust Ave, Peoria, AZ 85345 ",85345,0.17920678108930588,0.8955478966236115,0.16048825586521587,215000,https://www.zillow.com/homedetails/9253-W-Gold-Dust-Ave-Peoria-AZ-85345/7697589_zpid/,33.5765,-112.26,6589,2018-01-15
835317,23884573,"3625 W Rose Ln, Phoenix, AZ 85019 ",85019,0.1791515089571476,0.8958174884319305,0.16048705480278247,182000,https://www.zillow.com/homedetails/3625-W-Rose-Ln-Phoenix-AZ-85019/7759060_zpid/,33.5274,-112.137,6611,2018-02-06
8107,23887040,"4213 W Renee Dr, Glendale, AZ 85308 ",85308,0.17920678108930588,0.8955380022525787,0.1604864827268322,224900,https://www.zillow.com/homedetails/4213-W-Renee-Dr-Glendale-AZ-85308/2100694760_zpid/,33.655,-112.149,6599,2018-01-25
9029692,23904310,"3614 N 64TH Dr, Phoenix, AZ 85033 ",85033,0.17799460142850876,0.901565432548523,0.16047377982819544,159000,https://www.zillow.com/homedetails/3614-N-64TH-Dr-Phoenix-AZ-85033/7489243_zpid/,33.4902,-112.199,6622,2018-02-17
410461,23892061,"4815 W Aster Dr, Glendale, AZ 85304 ",85304,0.17849023640155792,0.8989688754081726,0.1604571670892474,234000,https://www.zillow.com/homedetails/4815-W-Aster-Dr-Glendale-AZ-85304/7954584_zpid/,33.602,-112.163,6627,2018-02-22
9031597,23914748,"9745 W Mcrae Way, Peoria, AZ 85382 ",85382,0.17799460142850876,0.9014712870121002,0.1604570224309636,246650,https://www.zillow.com/homedetails/9745-W-Mcrae-Way-Peoria-AZ-85382/7896606_zpid/,33.6529,-112.27,6647,2018-03-14
225581,23892054,"14649 N 35TH Dr, Phoenix, AZ 85053 ",85053,0.1791515089571476,0.8956266939640045,0.16045287368595285,235000,https://www.zillow.com/homedetails/14649-N-35TH-Dr-Phoenix-AZ-85053/7944244_zpid/,33.6202,-112.134,6627,2018-02-22
241469,23891806,"3136 W Woodridge Dr, Phoenix, AZ 85053 ",85053,0.1791515089571476,0.895624428987503,0.16045246791199486,209900,https://www.zillow.com/homedetails/3136-W-Woodridge-Dr-Phoenix-AZ-85053/7941784_zpid/,33.6405,-112.126,6626,2018-02-21
9024754,23889061,"2007 N 70th Dr, Phoenix, AZ 85035 ",85035,0.17799460142850876,0.9014197587966919,0.16044785068679968,159000,https://www.zillow.com/homedetails/2007-N-70th-Dr-Phoenix-AZ-85035/92350230_zpid/,33.4701,-112.211,6622,2018-02-17
9031502,23914273,"7102 W Brown St, Peoria, AZ 85345 ",85345,0.17799460142850876,0.9013858735561371,0.1604418192969128,210000,https://www.zillow.com/homedetails/7102-W-Brown-St-Peoria-AZ-85345/7701394_zpid/,33.5774,-112.212,6648,2018-03-15
9029943,23905404,"6848 W Mission Ln, Peoria, AZ 85345 ",85345,0.17799460142850876,0.9013819992542267,0.16044112969208846,164900,https://www.zillow.com/homedetails/6848-W-Mission-Ln-Peoria-AZ-85345/7702926_zpid/,33.5695,-112.20700000000001,6611,2018-02-06
9029981,23905553,"7307 W Sunnyslope Ln, Peoria, AZ 85345 ",85345,0.17799460142850876,0.9013766646385193,0.16044018015929185,205000,https://www.zillow.com/homedetails/7307-W-Sunnyslope-Ln-Peoria-AZ-85345/7702241_zpid/,33.5705,-112.21600000000001,6612,2018-02-07
9031722,23915934,"5016 W Tonto Rd, Glendale, AZ 85308 ",85308,0.17799460142850876,0.9013752043247223,0.1604399202313196,230000,https://www.zillow.com/homedetails/5016-W-Tonto-Rd-Glendale-AZ-85308/7937996_zpid/,33.6652,-112.16799999999999,6648,2018-03-15
232639,23915245,"18011 N 33RD Dr, Phoenix, AZ 85053 ",85053,0.1786506064236164,0.8980651795864105,0.16043988894104622,199000,https://www.zillow.com/homedetails/18011-N-33RD-Dr-Phoenix-AZ-85053/7941273_zpid/,33.6496,-112.131,6628,2018-02-23
9030955,23911000,"3711 W Loma Ln, Phoenix, AZ 85051 ",85051,0.1791515089571476,0.8955245912075043,0.16043458182305714,235000,https://www.zillow.com/homedetails/3711-W-Loma-Ln-Phoenix-AZ-85051/7753673_zpid/,33.5541,-112.139,6612,2018-02-07
9029776,23905062,"7441 W Eva St, Peoria, AZ 85345 ",85345,0.17799460142850876,0.9013177752494812,0.16042969816596164,246800,https://www.zillow.com/homedetails/7441-W-Eva-St-Peoria-AZ-85345/7702466_zpid/,33.5683,-112.219,6615,2018-02-10
9026101,23869917,"9032 W Marco Polo Rd, Peoria, AZ 85382 ",85382,0.17920678108930588,0.895147055387497,0.16041642239756393,235000,https://www.zillow.com/homedetails/9032-W-Marco-Polo-Rd-Peoria-AZ-85382/8101657_zpid/,33.6651,-112.25299999999999,6596,2018-01-22
490685,23873517,"5511 W Windsor Ave, Phoenix, AZ 85035 ",85035,0.17849023640155792,0.8987208008766174,0.1604128882074649,169000,https://www.zillow.com/homedetails/5511-W-Windsor-Ave-Phoenix-AZ-85035/7491875_zpid/,33.4779,-112.178,6611,2018-02-06
1414405,23883372,"7358 W Peppertree Ln, Glendale, AZ 85303 ",85303,0.17799460142850876,0.9012029767036438,0.16040926464455074,242000,https://www.zillow.com/homedetails/7358-W-Peppertree-Ln-Glendale-AZ-85303/50188040_zpid/,33.5376,-112.21700000000001,6600,2018-01-26
448657,23877888,"8427 W Berkeley Rd, Phoenix, AZ 85037 ",85037,0.17920678108930588,0.8950724899768829,0.1604030597703472,159990,https://www.zillow.com/homedetails/8427-W-Berkeley-Rd-Phoenix-AZ-85037/7488038_zpid/,33.4676,-112.242,6592,2018-01-18
