property_id,transaction_id,address,zipcode,any_sell,good_sell,bayesian,list,url,lat,long,date_listed,transaction_date
447418,23856851,"8311 W Coolidge St, Phoenix, AZ 85037 ",85037,0.7273960113525391,0.9180198013782501,0.6677639418651893,189900,https://www.zillow.com/homedetails/8311-W-Coolidge-St-Phoenix-AZ-85037/7480994_zpid/,33.5048,-112.238,6560,2017-12-17
1409526,23883258,"7001 N 77th Ave, Glendale, AZ 85303 ",85303,0.7396486699581146,0.8995324671268463,0.6653379928945133,164900,https://www.zillow.com/homedetails/7001-N-77th-Ave-Glendale-AZ-85303/7684833_zpid/,33.5382,-112.22399999999999,6577,2018-01-03
352916,23863486,"213 E Campo Bello Dr, Phoenix, AZ 85022 ",85022,0.7312469780445099,0.9027156233787537,0.6601080716292795,225000,https://www.zillow.com/homedetails/213-E-Campo-Bello-Dr-Phoenix-AZ-85022/7959267_zpid/,33.6435,-112.071,6579,2018-01-05
332059,23858248,"115 E Hartford Ave, Phoenix, AZ 85022 ",85022,0.7345324754714966,0.8981172442436218,0.6596962826779063,215000,https://www.zillow.com/homedetails/115-E-Hartford-Ave-Phoenix-AZ-85022/79527909_zpid/,33.6426,-112.073,6562,2017-12-19
419470,23882476,"5428 W Puget Ave, Glendale, AZ 85302 ",85302,0.7298216819763184,0.8974527418613434,0.6549804695595043,180000,https://www.zillow.com/homedetails/5428-W-Puget-Ave-Glendale-AZ-85302/7733603_zpid/,33.567,-112.177,6559,2017-12-16
1115749,23864072,"1721 W Nopal Dr, Chandler, AZ 85224 ",85224,0.7068719565868378,0.9263431429862976,0.654805989953525,249900,https://www.zillow.com/homedetails/1721-W-Nopal-Dr-Chandler-AZ-85224/8198402_zpid/,33.3418,-111.874,6581,2018-01-07
9021795,23854390,"747 W Rosal Pl, Chandler, AZ 85225 ",85225,0.7216765284538269,0.9066911041736603,0.6543376884400143,244800,https://www.zillow.com/homedetails/747-W-Rosal-Pl-Chandler-AZ-85225/8177685_zpid/,33.3412,-111.855,6551,2017-12-08
9018003,23819878,"1842 W Alamo Dr, Chandler, AZ 85224 ",85224,0.7570100426673889,0.8608583807945251,0.6516784395758428,244500,https://www.zillow.com/homedetails/1842-W-Alamo-Dr-Chandler-AZ-85224/8199834_zpid/,33.3482,-111.875,6516,2017-11-03
976127,23846057,"734 N Tangerine Dr, Chandler, AZ 85226 ",85226,0.7262603342533112,0.8919988870620728,0.6478234098712825,204900,https://www.zillow.com/homedetails/734-N-Tangerine-Dr-Chandler-AZ-85226/8156625_zpid/,33.3162,-111.928,6544,2017-12-01
1091154,23858452,"668 W Shawnee Dr, Chandler, AZ 85225 ",85225,0.7330398857593536,0.8814915120601654,0.6461684372984235,239900,https://www.zillow.com/homedetails/668-W-Shawnee-Dr-Chandler-AZ-85225/8200509_zpid/,33.3448,-111.852,6535,2017-11-22
495328,23862682,"6239 W Encanto Blvd, Phoenix, AZ 85035 ",85035,0.7184930443763733,0.894651472568512,0.6428008601815556,153900,https://www.zillow.com/homedetails/6239-W-Encanto-Blvd-Phoenix-AZ-85035/7491160_zpid/,33.473,-112.195,6576,2018-01-02
460325,23853200,"5810 W Avalon Dr, Phoenix, AZ 85031 ",85031,0.7196413278579712,0.8901019096374512,0.6405541201804112,150000,https://www.zillow.com/homedetails/5810-W-Avalon-Dr-Phoenix-AZ-85031/7490070_zpid/,33.484,-112.185,6551,2017-12-08
222394,23848564,"1010 W Campo Bello Dr, Phoenix, AZ 85023 ",85023,0.7301198244094849,0.8747977614402771,0.6387071879765855,199900,https://www.zillow.com/homedetails/1010-W-Campo-Bello-Dr-Phoenix-AZ-85023/7963596_zpid/,33.644,-112.087,6549,2017-12-06
629569,23853723,"1645 W Peralta Ave, Mesa, AZ 85202 ",85202,0.7044253945350647,0.9066509008407593,0.6386679185303237,222900,https://www.zillow.com/homedetails/1645-W-Peralta-Ave-Mesa-AZ-85202/8191627_zpid/,33.3572,-111.87,6553,2017-12-10
225687,23849553,"1306 W Charleston Ave, Phoenix, AZ 85023 ",85023,0.7238240838050842,0.8819709420204163,0.6383918090506349,245000,https://www.zillow.com/homedetails/1306-W-Charleston-Ave-Phoenix-AZ-85023/7956977_zpid/,33.6491,-112.09,6550,2017-12-07
452056,23863849,"8831 W Mariposa St, Phoenix, AZ 85037 ",85037,0.7067668437957764,0.9012165367603302,0.6369499672626588,209900,https://www.zillow.com/homedetails/8831-W-Mariposa-St-Phoenix-AZ-85037/7483281_zpid/,33.5074,-112.25,6581,2018-01-07
9022735,23864019,"13216 N 31ST Way, Phoenix, AZ 85032 ",85032,0.6965048611164093,0.9125818014144897,0.6356176608515618,241000,https://www.zillow.com/homedetails/13216-N-31st-Way-Phoenix-AZ-85032/50188555_zpid/,33.6068,-112.014,6581,2018-01-07
9019112,23856813,"4426 W Vogel Ave, Glendale, AZ 85302 ",85302,0.7105298936367035,0.893555760383606,0.6348980793838273,219900,https://www.zillow.com/homedetails/4426-W-Vogel-Ave-Glendale-AZ-85302/7729451_zpid/,33.5722,-112.155,6561,2017-12-18
1349332,23855797,"5601 N 61st Ln, Glendale, AZ 85301 ",85301,0.7163197696208954,0.8858288824558258,0.6345367410042924,164000,https://www.zillow.com/homedetails/5601-N-61st-Ln-Glendale-AZ-85301/7714491_zpid/,33.5189,-112.193,6551,2017-12-08
424918,23883758,"9803 N 50th Ave, Glendale, AZ 85302 ",85302,0.712313175201416,0.8904090821743011,0.634250120551755,224500,https://www.zillow.com/homedetails/9803-N-50th-Ave-Glendale-AZ-85302/7728972_zpid/,33.575,-112.167,6571,2017-12-28
9017511,23846619,"7346 W Coolidge St, Phoenix, AZ 85033 ",85033,0.7273960113525391,0.8714951276779175,0.6339220797860889,199900,https://www.zillow.com/homedetails/7346-W-Coolidge-St-Phoenix-AZ-85033/7710836_zpid/,33.5042,-112.21799999999999,6544,2017-12-01
9026628,23892890,"9702 W Campana Dr, Sun City, AZ 85351 ",85351,0.6995561718940735,0.9046036601066589,0.6328210735455819,185950,https://www.zillow.com/homedetails/9702-W-Campana-Dr-Sun-City-AZ-85351/7904989_zpid/,33.6372,-112.26899999999999,6578,2018-01-04
432541,22734473,"7113 W Sheila Ln, Phoenix, AZ 85033 ",85033,0.725176066160202,0.8724250197410583,0.6326617438355573,189000,https://www.zillow.com/homedetails/7113-W-Sheila-Ln-Phoenix-AZ-85033/55257199_zpid/,33.4878,-112.213,6485,2017-10-03
1990166,23862524,"3227 W Corrine Dr, Phoenix, AZ 85029 ",85029,0.712515264749527,0.8870602548122406,0.6320439723063265,180000,https://www.zillow.com/homedetails/3227-W-Corrine-Dr-Phoenix-AZ-85029/7747533_zpid/,33.6005,-112.12799999999999,6578,2018-01-04
456854,23862646,"4925 W Flower St, Phoenix, AZ 85031 ",85031,0.7046417593955994,0.8957438170909882,0.6311784992427238,206000,https://www.zillow.com/homedetails/4925-W-Flower-St-Phoenix-AZ-85031/7509860_zpid/,33.4855,-112.165,6578,2018-01-04
481915,23852927,"2518 N 67TH Dr, Phoenix, AZ 85035 ",85035,0.7060022354125977,0.8902407884597778,0.6285119867080766,145000,https://www.zillow.com/homedetails/2518-N-67th-Dr-Phoenix-AZ-85035/7475839_zpid/,33.4762,-112.204,6551,2017-12-08
225614,23844378,"1303 W Michelle Dr, Phoenix, AZ 85023 ",85023,0.7238240838050842,0.8676182329654694,0.628002972568817,249900,https://www.zillow.com/homedetails/1303-W-Michelle-Dr-Phoenix-AZ-85023/7956957_zpid/,33.6494,-112.09,6543,2017-11-30
1422266,23883525,"8164 W Sierra Vista Dr, Glendale, AZ 85303 ",85303,0.6924943923950195,0.9065190255641937,0.6277593418026015,239900,https://www.zillow.com/homedetails/8164-W-Sierra-Vista-Dr-Glendale-AZ-85303/7462584_zpid/,33.5315,-112.236,6579,2018-01-05
9019728,23843826,"17413 N 8TH Ave, Phoenix, AZ 85023 ",85023,0.7301198244094849,0.8597459197044373,0.6277175399313748,184500,https://www.zillow.com/homedetails/17413-N-8th-Ave-Phoenix-AZ-85023/7963487_zpid/,33.6445,-112.085,6542,2017-11-29
347157,23863475,"17828 N 1ST St, Phoenix, AZ 85022 ",85022,0.7166661322116852,0.8755947947502136,0.62750913493832,104990,https://www.zillow.com/homedetails/17828-N-1st-St-Phoenix-AZ-85022/7956061_zpid/,33.6483,-112.074,6567,2017-12-24
433435,23843217,"7318 W Glenrosa Ave, Phoenix, AZ 85033 ",85033,0.7202903032302856,0.8691226840019226,0.6260206416040646,154999,https://www.zillow.com/homedetails/7318-W-Glenrosa-Ave-Phoenix-AZ-85033/7711188_zpid/,33.4994,-112.21700000000001,6541,2017-11-28
8952180,23860567,"3408 N 67TH Ln, Phoenix, AZ 85033 ",85033,0.694208562374115,0.9003268480300903,0.6250146068377873,195000,https://www.zillow.com/homedetails/3408-N-67th-Ln-Phoenix-AZ-85033/7485759_zpid/,33.4878,-112.205,6570,2017-12-27
9030739,23909196,"7307 N 41st Dr, Phoenix, AZ 85051 ",85051,0.6946337223052979,0.898208886384964,0.6239261821572839,222000,https://www.zillow.com/homedetails/7307-N-41st-Dr-Phoenix-AZ-85051/7756457_zpid/,33.5444,-112.148,6563,2017-12-20
9026050,23861695,"19901 N 98th Ave, Peoria, AZ 85382 ",85382,0.6964065432548523,0.893216460943222,0.622041787943802,239000,https://www.zillow.com/homedetails/19901-N-98th-Ave-Peoria-AZ-85382/7896097_zpid/,33.6647,-112.271,6571,2017-12-28
1346544,23849829,"4852 W Frier Dr, Glendale, AZ 85301 ",85301,0.7095363438129425,0.8749759793281555,0.6208272572966482,229900,https://www.zillow.com/homedetails/4852-W-Frier-Dr-Glendale-AZ-85301/7724567_zpid/,33.5494,-112.164,6550,2017-12-07
495290,23854344,"6237 W Monte Vista Rd, Phoenix, AZ 85035 ",85035,0.6998448371887207,0.886908769607544,0.6206985234672402,178900,https://www.zillow.com/homedetails/6237-W-Monte-Vista-Rd-Phoenix-AZ-85035/7491037_zpid/,33.4705,-112.194,6554,2017-12-11
381077,23870349,"12217 N 30TH Ave, Phoenix, AZ 85029 ",85029,0.718080997467041,0.861873984336853,0.6188953303635003,239000,https://www.zillow.com/homedetails/12217-N-30th-Ave-Phoenix-AZ-85029/7747117_zpid/,33.5971,-112.12299999999999,6577,2018-01-03
9021200,23846457,"3819 N 63RD Ave, Phoenix, AZ 85033 ",85033,0.7111225426197052,0.8686780333518982,0.6177365317950869,164900,https://www.zillow.com/homedetails/3819-N-63rd-Ave-Phoenix-AZ-85033/7496525_zpid/,33.4925,-112.195,6543,2017-11-30
646296,17862449,"2248 W Del Oro Cir, Mesa, AZ 85202 ",85202,0.6177529990673065,0.9990407228469849,0.6171604027290947,230000,https://www.zillow.com/homedetails/2248-W-Del-Oro-Cir-Mesa-AZ-85202/7602090_zpid/,33.4019,-111.88,6291,2017-03-23
417610,23855747,"4832 W Beryl Ave, Glendale, AZ 85302 ",85302,0.700448751449585,0.8793124556541443,0.6159133116970139,217500,https://www.zillow.com/homedetails/4832-W-Beryl-Ave-Glendale-AZ-85302/7728604_zpid/,33.5797,-112.163,6557,2017-12-14
1372616,23883622,"8549 W Tuckey Ln, Glendale, AZ 85305 ",85305,0.7080031633377075,0.8685615658760071,0.6149443361937657,206000,https://www.zillow.com/homedetails/8549-W-Tuckey-Ln-Glendale-AZ-85305/7461499_zpid/,33.533,-112.245,6532,2017-11-19
332879,23849200,"5333 N 22nd Dr, Phoenix, AZ 85015 ",85015,0.7323887944221497,0.8395834267139435,0.6149014937078423,240000,https://www.zillow.com/homedetails/5333-N-22nd-Dr-Phoenix-AZ-85015/7764971_zpid/,33.5163,-112.10700000000001,6549,2017-12-06
255987,23850390,"506 W Beverly Ln, Phoenix, AZ 85023 ",85023,0.6906183958053589,0.8898628950119019,0.6145556850398322,229900,https://www.zillow.com/homedetails/506-W-Beverly-Ln-Phoenix-AZ-85023/7965481_zpid/,33.6337,-112.081,6552,2017-12-09
387030,23862016,"2114 W Sunnyside Dr, Phoenix, AZ 85029 ",85029,0.7052416801452637,0.8708173334598541,0.6141366793488459,174400,https://www.zillow.com/homedetails/2114-W-Sunnyside-Dr-Phoenix-AZ-85029/7748813_zpid/,33.5934,-112.104,6575,2018-01-01
1093584,23859955,"781 W Del Rio St, Chandler, AZ 85225 ",85225,0.6792677938938141,0.9037145376205444,0.6138641802792755,248900,https://www.zillow.com/homedetails/781-W-Del-Rio-St-Chandler-AZ-85225/8186554_zpid/,33.3158,-111.854,6565,2017-12-22
9025493,23853409,"5955 W Mitchell Dr, Phoenix, AZ 85033 ",85033,0.687911719083786,0.8886828124523163,0.6113353212342867,165000,https://www.zillow.com/homedetails/5955-W-Mitchell-Dr-Phoenix-AZ-85033/7489271_zpid/,33.4883,-112.189,6550,2017-12-07
481948,23862444,"2520 N 51st Ln, Phoenix, AZ 85035 ",85035,0.6831800639629364,0.8943051993846893,0.6109714833180186,152000,https://www.zillow.com/homedetails/2520-N-51st-Ln-Phoenix-AZ-85035/7493069_zpid/,33.4755,-112.171,6578,2018-01-04
392024,23860589,"4134 W Linger Ln, Phoenix, AZ 85051 ",85051,0.6878912448883057,0.8879730999469757,0.610828921149853,224900,https://www.zillow.com/homedetails/4134-W-Linger-Ln-Phoenix-AZ-85051/7755387_zpid/,33.5528,-112.148,6572,2017-12-29
9024486,23843769,"6743 W Roma Ave, Phoenix, AZ 85033 ",85033,0.7023933231830597,0.8692886531352997,0.6105825458810292,135000,https://www.zillow.com/homedetails/6743-W-Roma-Ave-Phoenix-AZ-85033/7717104_zpid/,33.5015,-112.205,6542,2017-11-29
451186,23869054,"3607 N 51ST Ave, Phoenix, AZ 85031 ",85031,0.6797387897968292,0.8977599442005157,0.6102422579989275,174900,https://www.zillow.com/homedetails/3607-N-51st-Ave-Phoenix-AZ-85031/7508531_zpid/,33.4904,-112.169,6585,2018-01-11
1112872,23885785,"1482 W Orchid Ln, Chandler, AZ 85224 ",85224,0.6437273919582367,0.947725385427475,0.6100767906538431,249900,https://www.zillow.com/homedetails/1482-W-Orchid-Ln-Chandler-AZ-85224/8203452_zpid/,33.3237,-111.867,6614,2018-02-09
9025997,23861142,"15848 N 99th Dr, Sun City, AZ 85351 ",85351,0.6849574744701385,0.8886350691318512,0.6086772326781498,239500,https://www.zillow.com/homedetails/15848-N-99th-Dr-Sun-City-AZ-85351/8091359_zpid/,33.6291,-112.272,6558,2017-12-15
333266,23854946,"5719 N 23rd Ave, Phoenix, AZ 85015 ",85015,0.7274827659130096,0.8333494067192078,0.6062473313720549,175000,https://www.zillow.com/homedetails/5719-N-23rd-Ave-Phoenix-AZ-85015/7763242_zpid/,33.5217,-112.10799999999999,6557,2017-12-14
1346962,23823701,"4935 W Lamar Rd, Glendale, AZ 85301 ",85301,0.7346559166908264,0.8248045742511749,0.6059475605872837,149900,https://www.zillow.com/homedetails/4935-W-Lamar-Rd-Glendale-AZ-85301/7722382_zpid/,33.5365,-112.166,6520,2017-11-07
1412767,23846610,"7238 W Ocotillo Rd, Glendale, AZ 85303 ",85303,0.6745048463344574,0.8979565799236298,0.6056760649564028,245000,https://www.zillow.com/homedetails/7238-W-Ocotillo-Rd-Glendale-AZ-85303/67800379_zpid/,33.5344,-112.215,6543,2017-11-30
1665351,23862007,"17415 N Country Club Dr, Sun City, AZ 85373 ",85373,0.6849574744701385,0.8839201033115387,0.6054476815976555,219500,https://www.zillow.com/homedetails/17415-N-Country-Club-Dr-Sun-City-AZ-85373/7897399_zpid/,33.6428,-112.26,6574,2017-12-31
392047,23856667,"3214 W Voltaire Ave, Phoenix, AZ 85029 ",85029,0.6870449483394623,0.8794479668140411,0.604220282926998,229000,https://www.zillow.com/homedetails/3214-W-Voltaire-Ave-Phoenix-AZ-85029/7747954_zpid/,33.6091,-112.12799999999999,6560,2017-12-17
349688,23875696,"6325 W Whyman Ave, Phoenix, AZ 85043 ",85043,0.6455105543136597,0.9357633292675018,0.6040451053818607,225000,https://www.zillow.com/homedetails/6325-W-Whyman-Ave-Phoenix-AZ-85043/53206198_zpid/,33.4269,-112.197,6579,2018-01-05
422815,23883544,"8324 N 56th Ln, Glendale, AZ 85302 ",85302,0.6681692898273468,0.9031037390232086,0.6034261839435588,242900,https://www.zillow.com/homedetails/8324-N-56th-Ln-Glendale-AZ-85302/7732897_zpid/,33.5576,-112.181,6568,2017-12-25
9025717,23858269,"3333 W Grovers Ave, Phoenix, AZ 85053 ",85053,0.6841261386871338,0.8820322751998901,0.6034213346299282,162000,https://www.zillow.com/homedetails/3333-W-Grovers-Ave-Phoenix-AZ-85053/2091717911_zpid/,33.6474,-112.131,6564,2017-12-21
491289,23853212,"5551 W Wilshire Dr, Phoenix, AZ 85035 ",85035,0.6942221224308014,0.8675538599491119,0.6022750819769067,187900,https://www.zillow.com/homedetails/5551-W-Wilshire-Dr-Phoenix-AZ-85035/7491935_zpid/,33.4756,-112.18,6538,2017-11-25
484854,23817893,"2833 N 73RD Dr, Phoenix, AZ 85035 ",85035,0.6885905861854553,0.8741876780986786,0.6019574056980712,190000,https://www.zillow.com/homedetails/2833-N-73rd-Dr-Phoenix-AZ-85035/92692586_zpid/,33.4796,-112.21600000000001,6514,2017-11-01
463250,23884456,"2736 W Rose Ln, Phoenix, AZ 85017 ",85017,0.6781193614006042,0.8875892162322998,0.60189143249751,184900,https://www.zillow.com/homedetails/2736-W-Rose-Ln-Phoenix-AZ-85017/7759733_zpid/,33.5278,-112.118,6581,2018-01-07
152639,23860420,"1133 N Granite Reef Rd, Scottsdale, AZ 85257 ",85257,0.6998720467090607,0.8593684732913971,0.6014479722796908,139500,https://www.zillow.com/homedetails/1133-N-Granite-Reef-Rd-Scottsdale-AZ-85257/7577718_zpid/,33.4606,-111.9,6546,2017-12-03
9025829,23859165,"4109 E Winchcomb Dr, Phoenix, AZ 85032 ",85032,0.7167372405529022,0.8381557166576385,0.600737415510836,185000,https://www.zillow.com/homedetails/4109-E-Winchcomb-Dr-Phoenix-AZ-85032/8030117_zpid/,33.617,-111.993,6558,2017-12-15
1356244,23823740,"6825 N 60th Ave, Glendale, AZ 85301 ",85301,0.7090148627758026,0.8468875885009766,0.6004558873475503,182000,https://www.zillow.com/homedetails/6825-N-60th-Ave-Glendale-AZ-85301/7707716_zpid/,33.5378,-112.189,6521,2017-11-08
419794,23856376,"5539 W Hatcher Rd, Glendale, AZ 85302 ",85302,0.6686540246009827,0.897769570350647,0.6002972363792551,204999,https://www.zillow.com/homedetails/5539-W-Hatcher-Rd-Glendale-AZ-85302/7734771_zpid/,33.5705,-112.179,6559,2017-12-16
1667493,23859750,"18423 N 94TH Dr, Sun City, AZ 85373 ",85373,0.6849574744701385,0.8754312694072723,0.5996331913653927,249900,https://www.zillow.com/homedetails/18423-N-94th-Dr-Sun-City-AZ-85373/7897476_zpid/,33.6522,-112.26299999999999,6571,2017-12-28
1092802,23820224,"731 W Palomino Dr, Chandler, AZ 85225 ",85225,0.7083127498626709,0.8456661105155945,0.5989960882049701,245900,https://www.zillow.com/homedetails/731-W-Palomino-Dr-Chandler-AZ-85225/8177603_zpid/,33.3404,-111.855,6516,2017-11-03
1356715,23883331,"7327 N 47th Ave, Glendale, AZ 85301 ",85301,0.7044675052165985,0.8499676883220673,0.5987746169069661,189500,https://www.zillow.com/homedetails/7327-N-47th-Ave-Glendale-AZ-85301/7725576_zpid/,33.545,-112.16,6523,2017-11-10
431375,23855856,"6744 W Pierson St, Phoenix, AZ 85033 ",85033,0.6678724586963654,0.8962075710296631,0.5985523539658786,141900,https://www.zillow.com/homedetails/6744-W-Pierson-St-Phoenix-AZ-85033/7716621_zpid/,33.508,-112.205,6555,2017-12-12
9029936,23905379,"8408 W Bloomfield Rd, Peoria, AZ 85381 ",85381,0.6629129648208618,0.9018974602222443,0.5978795193203332,224900,https://www.zillow.com/homedetails/8408-W-Bloomfield-Rd-Peoria-AZ-85381/7914533_zpid/,33.5976,-112.24,6578,2018-01-04
2044933,22443059,"1446 W Bentley St, Mesa, AZ 85201 ",85201,0.7741090953350067,0.7720136940479279,0.5976228222856781,220000,https://www.zillow.com/homedetails/1446-W-Bentley-St-Mesa-AZ-85201/7610672_zpid/,33.4202,-111.86200000000001,6338,2017-05-09
1410517,23856547,"7108 N 73rd Dr, Glendale, AZ 85303 ",85303,0.6752227544784546,0.8837419748306274,0.5967226904933653,222000,https://www.zillow.com/homedetails/7108-N-73rd-Dr-Glendale-AZ-85303/82823489_zpid/,33.5387,-112.21700000000001,6532,2017-11-19
350131,22705127,"6405 W Preston Ln, Phoenix, AZ 85043 ",85043,0.6636491417884827,0.8988714218139648,0.596535247665031,187000,https://www.zillow.com/homedetails/6405-W-Preston-Ln-Phoenix-AZ-85043/55257428_zpid/,33.4235,-112.198,6474,2017-09-22
343494,23875666,"2518 S 66th Dr, Phoenix, AZ 85043 ",85043,0.636363685131073,0.9372298419475555,0.5964190360365595,194900,https://www.zillow.com/homedetails/2518-S-66th-Dr-Phoenix-AZ-85043/67773235_zpid/,33.425,-112.20200000000001,6581,2018-01-07
235380,23862487,"2831 W Grovers Ave, Phoenix, AZ 85053 ",85053,0.6766715943813324,0.8807588815689087,0.5959845166567526,200000,https://www.zillow.com/homedetails/2831-W-Grovers-Ave-Phoenix-AZ-85053/7942333_zpid/,33.6472,-112.12200000000001,6578,2018-01-04
417420,23882392,"4809 W Laurie Ln, Glendale, AZ 85302 ",85302,0.6719478666782379,0.8860799074172974,0.5953995034955035,243000,https://www.zillow.com/homedetails/4809-W-Laurie-Ln-Glendale-AZ-85302/7731926_zpid/,33.5587,-112.163,6556,2017-12-13
9026770,23893524,"1518 W Marlboro Dr, Chandler, AZ 85224 ",85224,0.6406458914279938,0.9283013045787811,0.5947124167856428,237500,https://www.zillow.com/homedetails/1518-W-Marlboro-Dr-Chandler-AZ-85224/8176555_zpid/,33.3476,-111.87,6591,2018-01-17
8962279,23869441,"3802 N 63rd Dr, Phoenix, AZ 85033 ",85033,0.6596203446388245,0.8993897438049316,0.593255772773233,160000,https://www.zillow.com/homedetails/3802-N-63rd-Dr-Phoenix-AZ-85033/2142041157_zpid/,33.491,-112.196,6584,2018-01-10
329110,23884405,"2334 W Rose Ln, Phoenix, AZ 85015 ",85015,0.7180519998073578,0.8255787789821625,0.5928084932466584,199900,https://www.zillow.com/homedetails/2334-W-Rose-Ln-Phoenix-AZ-85015/7772689_zpid/,33.5279,-112.11,6547,2017-12-04
9021439,23856224,"17630 N 33RD Ln, Phoenix, AZ 85053 ",85053,0.668980598449707,0.8860115110874176,0.5927245109205899,215000,https://www.zillow.com/homedetails/17630-N-33rd-Ln-Phoenix-AZ-85053/7942069_zpid/,33.6462,-112.131,6558,2017-12-15
261662,23863593,"4827 W Topeka Dr, Glendale, AZ 85308 ",85308,0.667119711637497,0.888315886259079,0.5926130378841643,230000,https://www.zillow.com/homedetails/4827-W-Topeka-Dr-Glendale-AZ-85308/7939843_zpid/,33.6597,-112.166,6569,2017-12-26
627067,23856639,"1610 W 7th Ave, Mesa, AZ 85202 ",85202,0.6820686459541321,0.8681018650531769,0.592105063647077,218900,https://www.zillow.com/homedetails/1610-W-7th-Ave-Mesa-AZ-85202/7604416_zpid/,33.4024,-111.866,6560,2017-12-17
408219,23882796,"6118 W Tierra Buena Ln, Glendale, AZ 85306 ",85306,0.6878350675106049,0.8607499003410339,0.5920539658108215,199000,https://www.zillow.com/homedetails/6118-W-Tierra-Buena-Ln-Glendale-AZ-85306/8096943_zpid/,33.6295,-112.18700000000001,6529,2017-11-16
350177,22541766,"6408 W Cordes Rd, Phoenix, AZ 85043 ",85043,0.6636491417884827,0.8918798565864563,0.5918953014020367,169900,https://www.zillow.com/homedetails/6408-W-Cordes-Rd-Phoenix-AZ-85043/49641248_zpid/,33.4216,-112.197,6442,2017-08-21
9011928,23753384,"7411 W Wolf St, Phoenix, AZ 85033 ",85033,0.6820495426654816,0.8674336373806,0.5916327156680934,229900,https://www.zillow.com/homedetails/7411-W-Wolf-St-Phoenix-AZ-85033/95184996_zpid/,33.5059,-112.219,6494,2017-10-12
9026756,23893480,"1033 W Orchid Ln, Chandler, AZ 85224 ",85224,0.6262067258358002,0.9446685016155243,0.5915577693968688,249900,https://www.zillow.com/homedetails/1033-W-Orchid-Ln-Chandler-AZ-85224/8203649_zpid/,33.3236,-111.86,6619,2018-02-14
393911,23884959,"7111 N 27th Ln, Phoenix, AZ 85051 ",85051,0.6721556782722473,0.879557728767395,0.5911997217592457,225000,https://www.zillow.com/homedetails/7111-N-27th-Ln-Phoenix-AZ-85051/81986825_zpid/,33.5411,-112.118,6561,2017-12-18
9007274,23854421,"8426 W Bluefield Ave, Peoria, AZ 85382 ",85382,0.672327995300293,0.8780829310417175,0.5903597367346833,229000,https://www.zillow.com/homedetails/8426-W-Bluefield-Ave-Peoria-AZ-85382/8129054_zpid/,33.6509,-112.241,6552,2017-12-09
8976262,22541368,"2918 E Nisbet Ct, Phoenix, AZ 85032 ",85032,0.7009858191013336,0.8418238162994385,0.5901065574076725,219500,https://www.zillow.com/homedetails/2918-E-Nisbet-Ct-Phoenix-AZ-85032/8011642_zpid/,33.6234,-112.01899999999999,6440,2017-08-19
9026621,23892869,"9601 W Oakstone Dr, Sun City, AZ 85351 ",85351,0.6598612368106842,0.8935717046260834,0.5896333301935988,184900,https://www.zillow.com/homedetails/9601-W-Oakstone-Dr-Sun-City-AZ-85351/7922239_zpid/,33.6156,-112.265,6577,2018-01-03
397286,23862957,"8437 N 36th Ave, Phoenix, AZ 85051 ",85051,0.6718273758888245,0.8774230182170868,0.5894768038732376,187000,https://www.zillow.com/homedetails/8437-N-36th-Ave-Phoenix-AZ-85051/7754435_zpid/,33.5599,-112.137,6550,2017-12-07
7381600,22218425,"4317 N 72nd Dr, Phoenix, AZ 85033 ",85033,0.7147890329360962,0.8242886364459991,0.5891924773054491,190000,https://www.zillow.com/homedetails/4317-N-72nd-Dr-Phoenix-AZ-85033/7711467_zpid/,33.4989,-112.214,6377,2017-06-17
9023482,23827286,"15606 N 99th Dr, Sun City, AZ 85351 ",85351,0.67897829413414,0.8670236766338348,0.5886902569347514,192500,https://www.zillow.com/homedetails/15606-N-99th-Dr-Sun-City-AZ-85351/2092083796_zpid/,33.6257,-112.271,6526,2017-11-13
1090754,23886112,"649 W Ivanhoe St, Chandler, AZ 85225 ",85225,0.6836553812026978,0.8606259226799011,0.5883715432426513,190000,https://www.zillow.com/homedetails/649-W-Ivanhoe-St-Chandler-AZ-85225/8189345_zpid/,33.3174,-111.851,6536,2017-11-23
403812,23864058,"16025 N 47TH Dr, Glendale, AZ 85306 ",85306,0.6585325002670288,0.8925818204879761,0.5877941379388432,240000,https://www.zillow.com/homedetails/16025-N-47TH-Dr-Glendale-AZ-85306/7951382_zpid/,33.6308,-112.161,6581,2018-01-07
8850973,23814108,"2525 E Michigan Ave, Phoenix, AZ 85032 ",85032,0.7489195764064789,0.7845630049705505,0.5875745933467389,225000,https://www.zillow.com/homedetails/2525-E-Michigan-Ave-Phoenix-AZ-85032/7999906_zpid/,33.6507,-112.027,6511,2017-10-29
9022111,23817234,"7629 N 44th Dr, Glendale, AZ 85301 ",85301,0.7228237688541412,0.8127243518829346,0.587456479067562,195000,https://www.zillow.com/homedetails/7629-N-44th-Dr-Glendale-AZ-85301/7725279_zpid/,33.5492,-112.155,6514,2017-11-01
9006564,23814082,"16612 N 28th Way, Phoenix, AZ 85032 ",85032,0.6947472989559174,0.8451570868492126,0.5871706032819421,194900,https://www.zillow.com/homedetails/16612-N-28th-Way-Phoenix-AZ-85032/8005824_zpid/,33.6376,-112.021,6511,2017-10-29
386006,23854095,"1749 W Surrey Ave, Phoenix, AZ 85029 ",85029,0.6768166720867157,0.8671771883964539,0.5869199787600028,220000,https://www.zillow.com/homedetails/1749-W-Surrey-Ave-Phoenix-AZ-85029/7784365_zpid/,33.6053,-112.098,6555,2017-12-12
625494,23866146,"1522 W Plana Ave, Mesa, AZ 85202 ",85202,0.6272547841072083,0.9332804977893829,0.5854046571523472,242500,https://www.zillow.com/homedetails/1522-W-Plana-Ave-Mesa-AZ-85202/8172015_zpid/,33.3588,-111.866,6585,2018-01-11
405758,23864265,"4841 W Paradise Ln, Glendale, AZ 85306 ",85306,0.6567155718803406,0.8912172615528107,0.5852762535902851,249999,https://www.zillow.com/homedetails/4841-W-Paradise-Ln-Glendale-AZ-85306/7951435_zpid/,33.6321,-112.163,6579,2018-01-05
9020725,23815067,"9537 W Sunnyslope Ln, Peoria, AZ 85345 ",85345,0.6930875182151794,0.8435080051422119,0.5846248698786525,224000,https://www.zillow.com/homedetails/9537-W-Sunnyslope-Ln-Peoria-AZ-85345/7697879_zpid/,33.5693,-112.265,6512,2017-10-30
9025615,23856149,"17636 N 35th St, Phoenix, AZ 85032 ",85032,0.681171178817749,0.8575097918510437,0.584110955762938,235000,https://www.zillow.com/homedetails/17636-N-35th-St-Phoenix-AZ-85032/7998341_zpid/,33.6469,-112.005,6557,2017-12-14
9023645,23828731,"7328 W Heatherbrae Dr, Phoenix, AZ 85033 ",85033,0.6888251602649689,0.8476771712303162,0.583901363325678,174900,https://www.zillow.com/homedetails/7328-W-Heatherbrae-Dr-Phoenix-AZ-85033/7711026_zpid/,33.4977,-112.21700000000001,6519,2017-11-06
8998472,23817219,"6708 W Highland Ave, Phoenix, AZ 85033 ",85033,0.7005561590194702,0.8333911895751953,0.583837330729466,168500,https://www.zillow.com/homedetails/6708-W-Highland-Ave-Phoenix-AZ-85033/7716706_zpid/,33.5065,-112.204,6514,2017-11-01
385542,23862282,"1634 W Andorra Dr, Phoenix, AZ 85029 ",85029,0.666820615530014,0.8752277791500092,0.5836199264217763,235000,https://www.zillow.com/homedetails/1634-W-Andorra-Dr-Phoenix-AZ-85029/7784245_zpid/,33.6066,-112.095,6577,2018-01-03
22933,22734467,"8739 W Fairmount Ave, Phoenix, AZ 85037 ",85037,0.6914311945438385,0.8437640070915222,0.583404755336387,170000,https://www.zillow.com/homedetails/8739-W-Fairmount-Ave-Phoenix-AZ-85037/7471067_zpid/,33.492,-112.24799999999999,6485,2017-10-03
388700,23829780,"2353 W Cortez St, Phoenix, AZ 85029 ",85029,0.7094340920448303,0.8222322165966034,0.5833195660312196,173500,https://www.zillow.com/homedetails/2353-W-Cortez-St-Phoenix-AZ-85029/7749270_zpid/,33.5905,-112.11,6523,2017-11-10
389970,22302502,"2910 W Altadena Ave, Phoenix, AZ 85029 ",85029,0.7300587594509125,0.7986124753952026,0.583034033069044,220000,https://www.zillow.com/homedetails/2910-W-Altadena-Ave-Phoenix-AZ-85029/7739875_zpid/,33.5927,-112.12200000000001,6401,2017-07-11
9024757,23848700,"3126 N 43RD Ave, Phoenix, AZ 85031 ",85031,0.65974360704422,0.8835950493812561,0.5829461850452056,175000,https://www.zillow.com/homedetails/3126-N-43rd-Ave-Phoenix-AZ-85031/7509773_zpid/,33.4851,-112.152,6547,2017-12-04
8996051,23841761,"3410 N 67TH Dr, Phoenix, AZ 85033 ",85033,0.6608782112598419,0.8816730976104736,0.5826785396647338,220000,https://www.zillow.com/homedetails/3410-N-67th-Dr-Phoenix-AZ-85033/7485764_zpid/,33.4878,-112.204,6537,2017-11-24
1126602,23890192,"2807 N Central Dr, Chandler, AZ 85224 ",85224,0.6346141397953033,0.9180127680301666,0.5825838831045695,180000,https://www.zillow.com/homedetails/2807-N-Central-Dr-Chandler-AZ-85224/8199127_zpid/,33.3475,-111.866,6625,2018-02-20
9024048,23836145,"9411 W Glen Oaks Cir, Sun City, AZ 85351 ",85351,0.686807245016098,0.8479132056236267,0.5823529327671313,140000,https://www.zillow.com/homedetails/9411-W-Glen-Oaks-Cir-Sun-City-AZ-85351/7922837_zpid/,33.6297,-112.26299999999999,6530,2017-11-17
8977160,23825434,"16231 N 91st Dr, Peoria, AZ 85382 ",85382,0.6659795045852661,0.872111976146698,0.5808087018170554,233000,https://www.zillow.com/homedetails/16231-N-91st-Dr-Peoria-AZ-85382/2123153916_zpid/,33.6316,-112.25200000000001,6526,2017-11-13
1121899,23885878,"2404 W Chilton St, Chandler, AZ 85224 ",85224,0.6313401758670807,0.9196840226650238,0.5806334726114804,209000,https://www.zillow.com/homedetails/2404-W-Chilton-St-Chandler-AZ-85224/8196978_zpid/,33.3522,-111.884,6608,2018-02-03
9023243,23866706,"9140 W Gelding Dr, Peoria, AZ 85381 ",85381,0.6438274085521698,0.9016532599925995,0.5805090817936511,247000,https://www.zillow.com/homedetails/9140-W-Gelding-Dr-Peoria-AZ-85381/7908642_zpid/,33.6153,-112.255,6579,2018-01-05
493050,23849853,"5901 W Cypress St, Phoenix, AZ 85035 ",85035,0.6541352868080139,0.8861126005649567,0.579637520114753,184500,https://www.zillow.com/homedetails/5901-W-Cypress-St-Phoenix-AZ-85035/7491471_zpid/,33.4723,-112.18700000000001,6550,2017-12-07
391845,23866465,"4128 W Frier Dr, Phoenix, AZ 85051 ",85051,0.6513094007968903,0.8883021771907806,0.5785595587527004,229900,https://www.zillow.com/homedetails/4128-W-Frier-Dr-Phoenix-AZ-85051/7755554_zpid/,33.5496,-112.148,6579,2018-01-05
1864574,23822334,"9873 W Escuda Dr, Peoria, AZ 85382 ",85382,0.6818078458309174,0.8481777012348175,0.5782942113607303,245000,https://www.zillow.com/homedetails/9873-W-Escuda-Dr-Peoria-AZ-85382/7896125_zpid/,33.6652,-112.271,6519,2017-11-06
8990554,23839230,"3845 N 59th Ave, Phoenix, AZ 85033 ",85033,0.6765307784080505,0.8546800017356873,0.5782173268640385,176000,https://www.zillow.com/homedetails/3845-N-59th-Ave-Phoenix-AZ-85033/7496809_zpid/,33.493,-112.186,6531,2017-11-18
434653,23866644,"7715 W Elm St, Phoenix, AZ 85033 ",85033,0.6394461691379547,0.9015190005302429,0.5764728712941416,175000,https://www.zillow.com/homedetails/7715-W-Elm-St-Phoenix-AZ-85033/7468202_zpid/,33.506,-112.226,6582,2018-01-08
484005,23821708,"2696 N 73RD Gln, Phoenix, AZ 85035 ",85035,0.662115067243576,0.8705850541591644,0.5764274816758475,210000,https://www.zillow.com/homedetails/2696-N-73rd-Gln-Phoenix-AZ-85035/95155175_zpid/,33.4779,-112.21799999999999,6513,2017-10-31
559333,23871337,"1223 W 6TH Ave, Mesa, AZ 85202 ",85202,0.6766299903392792,0.8518919944763184,0.5764156719926206,199900,https://www.zillow.com/homedetails/1223-W-6th-Ave-Mesa-AZ-85202/7604271_zpid/,33.4035,-111.85799999999999,6576,2018-01-02
472964,23884783,"5737 N 35th Ave, Phoenix, AZ 85017 ",85017,0.664606124162674,0.8663208782672882,0.5757621611864261,169500,https://www.zillow.com/homedetails/5737-N-35th-Ave-Phoenix-AZ-85017/7762448_zpid/,33.5218,-112.134,6555,2017-12-12
386285,23856269,"3631 W Caron St, Phoenix, AZ 85051 ",85051,0.6670677363872528,0.8630752563476562,0.575729657583679,239900,https://www.zillow.com/homedetails/3631-W-Caron-St-Phoenix-AZ-85051/7746596_zpid/,33.5684,-112.13799999999999,6558,2017-12-15
330587,22131299,"4508 N 17th Ave, Phoenix, AZ 85015 ",85015,0.7312300205230713,0.7861727774143219,0.5748731361633546,185000,https://www.zillow.com/homedetails/4508-N-17th-Ave-Phoenix-AZ-85015/7772361_zpid/,33.5027,-112.096,6321,2017-04-22
337615,23862924,"2310 W Echo Ln, Phoenix, AZ 85021 ",85021,0.6671867370605469,0.8595834970474243,0.5735027086261653,190000,https://www.zillow.com/homedetails/2310-W-Echo-Ln-Phoenix-AZ-85021/7782737_zpid/,33.5598,-112.109,6558,2017-12-15
242869,23862343,"18216 N 24TH Dr, Phoenix, AZ 85023 ",85023,0.6594940423965454,0.8693181872367859,0.5733101654296249,197899,https://www.zillow.com/homedetails/18216-N-24th-Dr-Phoenix-AZ-85023/7957934_zpid/,33.6523,-112.111,6576,2018-01-02
1357376,23883408,"7648 N 46th Ave, Glendale, AZ 85301 ",85301,0.656160980463028,0.8730477094650269,0.5728598410335728,240000,https://www.zillow.com/homedetails/7648-N-46th-Ave-Glendale-AZ-85301/7725091_zpid/,33.5494,-112.15799999999999,6571,2017-12-28
434601,23841755,"1838 N 83rd Ln, Phoenix, AZ 85037 ",85037,0.6362275779247284,0.8994792699813843,0.572273517333759,195000,https://www.zillow.com/homedetails/1838-N-83rd-Ln-Phoenix-AZ-85037/7487940_zpid/,33.4683,-112.24,6536,2017-11-23
9026795,23893587,"9807 W Royal Oak Rd, Sun City, AZ 85351 ",85351,0.672327995300293,0.8505166172981262,0.5718261322776357,164900,https://www.zillow.com/homedetails/9807-W-Royal-Oak-Rd-Sun-City-AZ-85351/8096145_zpid/,33.5995,-112.266,6565,2017-12-22
696959,23846396,"2938 W Almeria Rd, Phoenix, AZ 85009 ",85009,0.694487065076828,0.8232519626617432,0.5717378393676924,129900,https://www.zillow.com/homedetails/2938-W-Almeria-Rd-Phoenix-AZ-85009/7512219_zpid/,33.4672,-112.12299999999999,6543,2017-11-30
9029877,23905155,"9507 W Sunnyslope Ln, Peoria, AZ 85345 ",85345,0.6258517801761627,0.9132263958454132,0.5715443655437129,199980,https://www.zillow.com/homedetails/9507-W-Sunnyslope-Ln-Peoria-AZ-85345/7697884_zpid/,33.5693,-112.264,6584,2018-01-10
9026266,23865520,"11403 N Arbor Ct, Sun City, AZ 85351 ",85351,0.6518106460571289,0.8768404722213745,0.5715339546876521,190000,https://www.zillow.com/homedetails/11403-N-Arbor-Ct-Sun-City-AZ-85351/7685894_zpid/,33.5879,-112.26799999999999,6559,2017-12-16
350999,23875711,"6522 W Preston Ln, Phoenix, AZ 85043 ",85043,0.6101091206073761,0.9364030659198761,0.5713080510824264,230000,https://www.zillow.com/homedetails/6522-W-Preston-Ln-Phoenix-AZ-85043/62727413_zpid/,33.4236,-112.20100000000001,6561,2017-12-18
453411,23853062,"4450 N 50TH Ave, Phoenix, AZ 85031 ",85031,0.7076335251331329,0.8073126077651978,0.5712814665173092,149800,https://www.zillow.com/homedetails/4450-N-50th-Ave-Phoenix-AZ-85031/7720779_zpid/,33.501999999999995,-112.167,6533,2017-11-20
477931,23837214,"1802 N 66TH Ave, Phoenix, AZ 85035 ",85035,0.6810808777809143,0.837643563747406,0.5705030136646165,150000,https://www.zillow.com/homedetails/1802-N-66th-Ave-Phoenix-AZ-85035/7490498_zpid/,33.4678,-112.20200000000001,6531,2017-11-18
1342993,23882377,"4510 W State Ave, Glendale, AZ 85301 ",85301,0.6336601674556732,0.8999068737030029,0.5702351402851562,189900,https://www.zillow.com/homedetails/4510-W-State-Ave-Glendale-AZ-85301/7725659_zpid/,33.5444,-112.156,6585,2018-01-11
1108948,23885722,"1169 W Nopal Pl, Chandler, AZ 85224 ",85224,0.6108019649982452,0.9315482676029205,0.5689915123425751,244900,https://www.zillow.com/homedetails/1169-W-Nopal-Pl-Chandler-AZ-85224/8175911_zpid/,33.341,-111.86200000000001,6602,2018-01-28
8995212,23864024,"13428 N Hawthorn Dr, Sun City, AZ 85351 ",85351,0.6366837024688721,0.8926417529582977,0.5683304562517932,139800,https://www.zillow.com/homedetails/13428-N-Hawthorn-Dr-Sun-City-AZ-85351/7914831_zpid/,33.6063,-112.274,6580,2018-01-06
359220,23854837,"1816 S 84TH Dr, Tolleson, AZ 85353 ",85353,0.6101091206073761,0.9313894212245941,0.5682491807263501,225000,https://www.zillow.com/homedetails/1816-S-84th-Dr-Tolleson-AZ-85353/59249294_zpid/,33.4304,-112.241,6557,2017-12-14
232395,23858251,"19615 N 6th Pl, Phoenix, AZ 85024 ",85024,0.6516585052013397,0.870630294084549,0.56735363602614,179990,https://www.zillow.com/homedetails/19615-N-6th-Pl-Phoenix-AZ-85024/7967758_zpid/,33.6645,-112.066,6553,2017-12-10
436099,23864351,"8017 W Pinchot Ave, Phoenix, AZ 85033 ",85033,0.6242534220218658,0.9086698889732361,0.5672402876797715,149400,https://www.zillow.com/homedetails/8017-W-Pinchot-Ave-Phoenix-AZ-85033/7479545_zpid/,33.4824,-112.23200000000001,6581,2018-01-07
423007,23883750,"8427 N 47th Dr, Glendale, AZ 85302 ",85302,0.644458144903183,0.8799653351306915,0.5671008274574332,246999,https://www.zillow.com/homedetails/8427-N-47th-Dr-Glendale-AZ-85302/7731867_zpid/,33.5593,-112.161,6578,2018-01-04
389915,23884704,"3942 W Northview Ave, Phoenix, AZ 85051 ",85051,0.632934182882309,0.8956118822097778,0.5668633748461325,209500,https://www.zillow.com/homedetails/3942-W-Northview-Ave-Phoenix-AZ-85051/7757824_zpid/,33.5444,-112.145,6573,2017-12-30
1851930,23885755,"1315 W Manor St, Chandler, AZ 85224 ",85224,0.6036417484283447,0.9385718703269958,0.5665611648298494,247500,https://www.zillow.com/homedetails/1315-W-Manor-St-Chandler-AZ-85224/8194266_zpid/,33.328,-111.86399999999999,6605,2018-01-31
9026784,23893561,"9710 W Royal Oak Rd, Sun City, AZ 85351 ",85351,0.672327995300293,0.8424820601940155,0.5664242746067032,149500,https://www.zillow.com/homedetails/9710-W-Royal-Oak-Rd-Sun-City-AZ-85351/8095855_zpid/,33.5993,-112.265,6558,2017-12-15
410719,23854939,"4923 W Larkspur Dr, Glendale, AZ 85304 ",85304,0.6306113004684448,0.8978445529937744,0.5661909211819136,236000,https://www.zillow.com/homedetails/4923-W-Larkspur-Dr-Glendale-AZ-85304/7954371_zpid/,33.5993,-112.165,6557,2017-12-14
9024615,23850383,"4345 W Morrow Dr, Glendale, AZ 85308 ",85308,0.6365404427051544,0.8883085250854492,0.5654443018166546,245000,https://www.zillow.com/homedetails/4345-W-Morrow-Dr-Glendale-AZ-85308/7938791_zpid/,33.6569,-112.154,6552,2017-12-09
222670,23871974,"1018 W Anderson Dr, Phoenix, AZ 85023 ",85023,0.6186564564704895,0.9130512475967407,0.5648650494141592,198000,https://www.zillow.com/homedetails/1018-W-Anderson-Dr-Phoenix-AZ-85023/7963545_zpid/,33.6432,-112.087,6603,2018-01-29
561112,23847992,"1043 W Frito Ave, Mesa, AZ 85210 ",85210,0.6998720467090607,0.8068607747554779,0.5646993018373747,195000,https://www.zillow.com/homedetails/1043-W-Frito-Ave-Mesa-AZ-85210/7598695_zpid/,33.3951,-111.854,6543,2017-11-30
379528,23846192,"11438 N 30TH Ave, Phoenix, AZ 85029 ",85029,0.684944212436676,0.8240151107311249,0.5644043810556507,235000,https://www.zillow.com/homedetails/11438-N-30th-Ave-Phoenix-AZ-85029/7739912_zpid/,33.5907,-112.124,6544,2017-12-01
232170,23847359,"17834 N 33RD Dr, Phoenix, AZ 85053 ",85053,0.6568019390106201,0.8580407500267029,0.5635628283676652,249999,https://www.zillow.com/homedetails/17834-N-33RD-Dr-Phoenix-AZ-85053/7941287_zpid/,33.6484,-112.131,6543,2017-11-30
411064,23882421,"5118 W Columbine Dr, Glendale, AZ 85304 ",85304,0.6285627484321594,0.8962010145187378,0.5633185728335874,239000,https://www.zillow.com/homedetails/5118-W-Columbine-Dr-Glendale-AZ-85304/7911366_zpid/,33.5987,-112.17,6579,2018-01-05
483971,22688771,"2734 N 73rd Gln, Phoenix, AZ 85035 ",85035,0.662115067243576,0.8507010638713837,0.5632619921093829,209900,https://www.zillow.com/homedetails/2734-N-73rd-Gln-Phoenix-AZ-85035/95167972_zpid/,33.4783,-112.21799999999999,6470,2017-09-18
343418,23862370,"2029 W Wilshire Dr, Phoenix, AZ 85009 ",85009,0.6758599877357483,0.8332020342350006,0.563127916639468,207500,https://www.zillow.com/homedetails/2029-W-Wilshire-Dr-Phoenix-AZ-85009/7519525_zpid/,33.476,-112.104,6577,2018-01-03
257719,23869968,"919 W Anderson Dr, Phoenix, AZ 85023 ",85023,0.6244863867759705,0.900897741317749,0.562598375330154,155000,https://www.zillow.com/homedetails/919-W-Anderson-Dr-Phoenix-AZ-85023/7963528_zpid/,33.6429,-112.086,6591,2018-01-17
416064,23818791,"4416 W Turquoise Ave, Glendale, AZ 85302 ",85302,0.7013035118579865,0.8019525408744812,0.5624121332587091,249900,https://www.zillow.com/homedetails/4416-W-Turquoise-Ave-Glendale-AZ-85302/7729268_zpid/,33.5757,-112.154,6515,2017-11-02
9025999,23861141,"9232 W Meadow Hills Dr, Sun City, AZ 85351 ",85351,0.6455647051334381,0.8706119358539581,0.5620363376552122,241800,https://www.zillow.com/homedetails/9232-W-Meadow-Hills-Dr-Sun-City-AZ-85351/2091823839_zpid/,33.6111,-112.259,6553,2017-12-10
220490,23862951,"8815 N 6th St, Phoenix, AZ 85020 ",85020,0.7003369033336639,0.8018375635147095,0.5615564362085017,200000,https://www.zillow.com/homedetails/8815-N-6th-St-Phoenix-AZ-85020/7793860_zpid/,33.5647,-112.06700000000001,6551,2017-12-08
9021586,23838024,"8142 W Sweetwater Ave, Peoria, AZ 85381 ",85381,0.6474472880363464,0.8665753901004791,0.5610618861995942,240000,https://www.zillow.com/homedetails/8142-W-Sweetwater-Ave-Peoria-AZ-85381/7913307_zpid/,33.6028,-112.235,6529,2017-11-16
379541,23831369,"11439 N 33rd Ave, Phoenix, AZ 85029 ",85029,0.6764510869979858,0.8289957642555237,0.560775085847375,214900,https://www.zillow.com/homedetails/11439-N-33rd-Ave-Phoenix-AZ-85029/7749169_zpid/,33.5913,-112.13,6523,2017-11-10
413890,23882883,"6209 W Bloomfield Rd, Glendale, AZ 85304 ",85304,0.6181887090206146,0.9061290919780731,0.5601587735759468,225000,https://www.zillow.com/homedetails/6209-W-Bloomfield-Rd-Glendale-AZ-85304/7912238_zpid/,33.5984,-112.19200000000001,6561,2017-12-18
9030467,23907928,"1105 S 6th Ave, Phoenix, AZ 85003 ",85003,0.5603517144918442,0.9990407228469849,0.5598141818944793,50000,https://www.zillow.com/homedetails/1105-S-6th-Ave-Phoenix-AZ-85003/2091048360_zpid/,33.437,-112.08200000000001,6619,2018-02-14
9023486,23827318,"9908 W Crosby Cir N, Sun City, AZ 85351 ",85351,0.6525560021400452,0.8573101162910461,0.5594428620811023,140000,https://www.zillow.com/homedetails/9908-W-Crosby-Cir-N-Sun-City-AZ-85351/7694583_zpid/,33.5838,-112.273,6526,2017-11-13
1410681,23883266,"7115 N 77th Ave, Glendale, AZ 85303 ",85303,0.6186972558498383,0.902809739112854,0.5585659081436312,165000,https://www.zillow.com/homedetails/7115-N-77th-Ave-Glendale-AZ-85303/7684823_zpid/,33.54,-112.22399999999999,6586,2018-01-12
355855,23833551,"702 E Rose Marie Ln, Phoenix, AZ 85022 ",85022,0.6326664388179779,0.8828729391098022,0.55856407831536,247000,https://www.zillow.com/homedetails/702-E-Rose-Marie-Ln-Phoenix-AZ-85022/49942677_zpid/,33.6527,-112.065,6527,2017-11-14
496469,22536294,"6526 W Holly St, Phoenix, AZ 85035 ",85035,0.689054012298584,0.8102975189685822,0.5583387566008895,169499,https://www.zillow.com/homedetails/6526-W-Holly-St-Phoenix-AZ-85035/7490333_zpid/,33.471,-112.20100000000001,6408,2017-07-18
459700,22721620,"5715 W Roma Ave, Phoenix, AZ 85031 ",85031,0.675917387008667,0.8259615898132324,0.5582817995560845,139900,https://www.zillow.com/homedetails/5715-W-Roma-Ave-Phoenix-AZ-85031/7712868_zpid/,33.4993,-112.18299999999999,6478,2017-09-26
412003,23883799,"5331 W Voltaire Dr, Glendale, AZ 85304 ",85304,0.631359875202179,0.8841830193996429,0.5582376807840443,206000,https://www.zillow.com/homedetails/5331-W-Voltaire-Dr-Glendale-AZ-85304/7911791_zpid/,33.6084,-112.17399999999999,6572,2017-12-29
502071,22116293,"3625 N 48th Ave, Phoenix, AZ 85031 ",85031,0.708143413066864,0.7881321310997009,0.5581105772646033,158000,https://www.zillow.com/homedetails/3625-N-48th-Ave-Phoenix-AZ-85031/7508647_zpid/,33.4911,-112.163,6338,2017-05-09
411351,23831053,"5194 W Paradise Dr, Glendale, AZ 85304 ",85304,0.6240444779396057,0.8926971256732941,0.5570827117489774,214900,https://www.zillow.com/homedetails/5194-W-Paradise-Dr-Glendale-AZ-85304/60978690_zpid/,33.5953,-112.171,6526,2017-11-13
828507,23855608,"3542 W Rovey Ave, Phoenix, AZ 85019 ",85019,0.6529935300350189,0.8529528975486755,0.5569727235239075,235000,https://www.zillow.com/homedetails/3542-W-Rovey-Ave-Phoenix-AZ-85019/7759119_zpid/,33.5255,-112.13600000000001,6547,2017-12-04
225855,23847348,"1461 E Renee Dr, Phoenix, AZ 85024 ",85024,0.6242382526397705,0.8915030658245087,0.5565103160332896,249000,https://www.zillow.com/homedetails/1461-E-Renee-Dr-Phoenix-AZ-85024/7996071_zpid/,33.6554,-112.05,6545,2017-12-02
534315,23853548,"1914 W Granada Rd, Phoenix, AZ 85009 ",85009,0.6758599877357483,0.8233733475208282,0.556485100557369,189000,https://www.zillow.com/homedetails/1914-W-Granada-Rd-Phoenix-AZ-85009/7519853_zpid/,33.4686,-112.101,6549,2017-12-06
242590,22686911,"3202 W Angela Dr, Phoenix, AZ 85053 ",85053,0.6762905418872833,0.8223825991153717,0.5561695735944072,234900,https://www.zillow.com/homedetails/3202-W-Angela-Dr-Phoenix-AZ-85053/7942083_zpid/,33.6461,-112.12799999999999,6464,2017-09-12
450552,22126108,"8733 W Indianola Ave, Phoenix, AZ 85037 ",85037,0.6914311945438385,0.8041764795780182,0.5560327038986879,169900,https://www.zillow.com/homedetails/8733-W-Indianola-Ave-Phoenix-AZ-85037/7470962_zpid/,33.4911,-112.24799999999999,6325,2017-04-26
449872,23877880,"8625 W Mariposa Dr, Phoenix, AZ 85037 ",85037,0.6022122800350189,0.9231674671173096,0.5559427852268684,158000,https://www.zillow.com/homedetails/8625-W-Mariposa-Dr-Phoenix-AZ-85037/7483575_zpid/,33.5073,-112.245,6599,2018-01-25
261479,23789366,"4757 W Topeka Dr, Glendale, AZ 85308 ",85308,0.667119711637497,0.8327506184577942,0.5555443524515109,225000,https://www.zillow.com/homedetails/4757-W-Topeka-Dr-Glendale-AZ-85308/7939742_zpid/,33.6603,-112.164,6302,2017-04-03
9023475,23827261,"12202 N Balboa Dr, Sun City, AZ 85351 ",85351,0.667119711637497,0.8326679170131683,0.5554891806876201,159500,https://www.zillow.com/homedetails/12202-N-Balboa-Dr-Sun-City-AZ-85351/7916635_zpid/,33.5958,-112.274,6526,2017-11-13
354621,23808089,"2310 E Winchcomb Dr, Phoenix, AZ 85022 ",85022,0.6689275801181793,0.8302468955516815,0.5553750467420171,224900,https://www.zillow.com/homedetails/2310-E-Winchcomb-Dr-Phoenix-AZ-85022/8010116_zpid/,33.6168,-112.03399999999999,6507,2017-10-25
243942,23854107,"18463 N 5TH Ave, Phoenix, AZ 85023 ",85023,0.6243460178375244,0.8891924321651459,0.5551637541135719,249000,https://www.zillow.com/homedetails/18463-N-5th-Ave-Phoenix-AZ-85023/7956457_zpid/,33.6543,-112.08,6552,2017-12-09
9026158,23863640,"3832 W Villa Theresa Dr, Glendale, AZ 85308 ",85308,0.6210668385028839,0.8938460946083069,0.5551381680865308,218000,https://www.zillow.com/homedetails/3832-W-Villa-Theresa-Dr-Glendale-AZ-85308/7948394_zpid/,33.6543,-112.14200000000001,6580,2018-01-06
460480,23866544,"5823 W Pierson St, Phoenix, AZ 85031 ",85031,0.6316181421279907,0.878402590751648,0.5548150124109696,204900,https://www.zillow.com/homedetails/5823-W-Pierson-St-Phoenix-AZ-85031/7713410_zpid/,33.5086,-112.185,6585,2018-01-11
5187848,21947200,"16030 N Lakeforest Dr, Sun City, AZ 85351 ",85351,0.67897829413414,0.8171320855617523,0.5548149495369907,239900,https://www.zillow.com/homedetails/16030-N-Lakeforest-Dr-Sun-City-AZ-85351/7923097_zpid/,33.6324,-112.272,6375,2017-06-15
222384,23888203,"1010 W Anderson Dr, Phoenix, AZ 85023 ",85023,0.6159599423408508,0.9004477560520172,0.554639747898749,200000,https://www.zillow.com/homedetails/1010-W-Anderson-Dr-Phoenix-AZ-85023/7963547_zpid/,33.6432,-112.087,6621,2018-02-16
379293,23843863,"2626 W Northview Ave, Phoenix, AZ 85051 ",85051,0.6867953240871429,0.8072307705879211,0.5544023186990454,134900,https://www.zillow.com/homedetails/2626-W-Northview-Ave-Phoenix-AZ-85051/7779482_zpid/,33.5439,-112.116,6542,2017-11-29
8981328,22485420,"1411 E Whitton Ave, Phoenix, AZ 85014 ",85014,0.6981979012489319,0.7935512065887451,0.5540557869738194,160000,https://www.zillow.com/homedetails/1411-E-Whitton-Ave-Phoenix-AZ-85014/7534776_zpid/,33.4887,-112.051,6421,2017-07-31
415104,23776939,"10015 N 45th Ave, Glendale, AZ 85302 ",85302,0.7213338315486908,0.7668917775154114,0.5531849842583778,192900,https://www.zillow.com/homedetails/10015-N-45th-Ave-Glendale-AZ-85302/7729213_zpid/,33.577,-112.156,6290,2017-03-22
355785,23869967,"620 E Anderson Ave, Phoenix, AZ 85022 ",85022,0.6004176437854767,0.9212151765823364,0.5531138457429883,215000,https://www.zillow.com/homedetails/620-E-Anderson-Ave-Phoenix-AZ-85022/7959431_zpid/,33.6434,-112.066,6593,2018-01-19
1409866,23883240,"7017 N 77TH Dr, Glendale, AZ 85303 ",85303,0.5891998708248138,0.9366950690746307,0.5519006137010125,208750,https://www.zillow.com/homedetails/7017-N-77TH-Dr-Glendale-AZ-85303/55260208_zpid/,33.5385,-112.225,6606,2018-02-01
1409899,23883287,"7018 N 77th Dr, Glendale, AZ 85303 ",85303,0.5891998708248138,0.9366950690746307,0.5519006137010125,208750,https://www.zillow.com/homedetails/7018-N-77th-Dr-Glendale-AZ-85303/55260188_zpid/,33.5385,-112.226,6606,2018-02-01
9023655,23829023,"14631 N 36th St, Phoenix, AZ 85032 ",85032,0.6893495917320251,0.8005186319351196,0.551837192098354,214000,https://www.zillow.com/homedetails/14631-N-36th-St-Phoenix-AZ-85032/8013016_zpid/,33.6203,-112.00399999999999,6525,2017-11-12
1406510,23868833,"6760 N 77th Ave, Glendale, AZ 85303 ",85303,0.5891998708248138,0.9359133243560791,0.5514400098138239,195000,https://www.zillow.com/homedetails/6760-N-77th-Ave-Glendale-AZ-85303/7463200_zpid/,33.5359,-112.225,6593,2018-01-19
457639,23877822,"5138 W Avalon Dr, Phoenix, AZ 85031 ",85031,0.609195664525032,0.9050231575965881,0.5513361839025963,187500,https://www.zillow.com/homedetails/5138-W-Avalon-Dr-Phoenix-AZ-85031/7497418_zpid/,33.4836,-112.171,6619,2018-02-14
426687,23866512,"4834 N 81st Dr, Phoenix, AZ 85033 ",85033,0.6125676929950714,0.8998100757598877,0.5511945822419548,174900,https://www.zillow.com/homedetails/4834-N-81st-Dr-Phoenix-AZ-85033/7482505_zpid/,33.5079,-112.235,6586,2018-01-12
416186,23888950,"4431 W Mission Ln, Glendale, AZ 85302 ",85302,0.6076586842536926,0.9070472121238708,0.5511751154751714,182500,https://www.zillow.com/homedetails/4431-W-Mission-Ln-Glendale-AZ-85302/7729651_zpid/,33.5689,-112.156,6588,2018-01-14
9023033,23823351,"437 E Wescott Dr, Phoenix, AZ 85024 ",85024,0.6370239555835724,0.8650189340114594,0.551037782998665,225000,https://www.zillow.com/homedetails/437-E-Wescott-Dr-Phoenix-AZ-85024/2092120604_zpid/,33.6585,-112.068,6521,2017-11-08
17178,23846249,"14813 N 35TH St, Phoenix, AZ 85032 ",85032,0.6816645264625549,0.8083537817001343,0.5510260978168375,199900,https://www.zillow.com/homedetails/14813-N-35th-St-Phoenix-AZ-85032/8014278_zpid/,33.6214,-112.006,6543,2017-11-30
1350982,23882685,"5854 W Morten Ave, Glendale, AZ 85301 ",85301,0.6554007828235626,0.8401598334312439,0.5506414125277512,179000,https://www.zillow.com/homedetails/5854-W-Morten-Ave-Glendale-AZ-85301/7726731_zpid/,33.5479,-112.186,6544,2017-12-01
9017497,23847149,"3044 E Roosevelt St, Phoenix, AZ 85008 ",85008,0.6728100478649139,0.8183937668800354,0.5506235494669038,239900,https://www.zillow.com/homedetails/3044-E-Roosevelt-St-Phoenix-AZ-85008/2098123425_zpid/,33.4588,-112.015,6546,2017-12-03
415049,23846150,"10006 N 66TH Ave, Glendale, AZ 85302 ",85302,0.6204033493995667,0.8872183859348297,0.5504332582828457,199000,https://www.zillow.com/homedetails/10006-N-66th-Ave-Glendale-AZ-85302/7706542_zpid/,33.5765,-112.20100000000001,6544,2017-12-01
406363,23789864,"5213 W Evans Dr, Glendale, AZ 85306 ",85306,0.6760339140892029,0.8140687644481659,0.5503380931676549,209900,https://www.zillow.com/homedetails/5213-W-Evans-Dr-Glendale-AZ-85306/8097361_zpid/,33.6172,-112.17200000000001,6303,2017-04-04
468466,23862527,"3238 W Montecito Ave, Phoenix, AZ 85017 ",85017,0.6671867370605469,0.824771374464035,0.550276522149602,151000,https://www.zillow.com/homedetails/3238-W-Montecito-Ave-Phoenix-AZ-85017/7768109_zpid/,33.4995,-112.12899999999999,6577,2018-01-03
9015636,23887124,"7118 W Sells Dr, Phoenix, AZ 85033 ",85033,0.6022122800350189,0.9136866629123688,0.5502333285100454,175000,https://www.zillow.com/homedetails/7118-W-Sells-Dr-Phoenix-AZ-85033/88889219_zpid/,33.5022,-112.213,6620,2018-02-15
8989113,22740158,"19153 N 75TH Dr, Glendale, AZ 85308 ",85308,0.6704211235046387,0.8201228082180023,0.5498276544972924,235000,https://www.zillow.com/homedetails/19153-N-75th-Dr-Glendale-AZ-85308/7892099_zpid/,33.6583,-112.221,6487,2017-10-05
1421999,23820040,"8134 W Mclellan Rd, Glendale, AZ 85303 ",85303,0.6608782112598419,0.8316417038440704,0.5496138816455565,222500,https://www.zillow.com/homedetails/8134-W-Mclellan-Rd-Glendale-AZ-85303/7462575_zpid/,33.5326,-112.235,6516,2017-11-03
8989019,22747254,"2049 N 77th Gln, Phoenix, AZ 85035 ",85035,0.6362275779247284,0.8627647161483765,0.5489147056739974,168250,https://www.zillow.com/homedetails/2049-N-77th-Gln-Phoenix-AZ-85035/95149994_zpid/,33.4706,-112.226,6487,2017-10-05
2066173,23881213,"17427 N 16th Ln, Phoenix, AZ 85023 ",85023,0.6036677360534668,0.9092981219291687,0.5489139386626505,210000,https://www.zillow.com/homedetails/17427-N-16th-Ln-Phoenix-AZ-85023/7958487_zpid/,33.6447,-112.095,6618,2018-02-13
230832,23863481,"19209 N 6th St, Phoenix, AZ 85024 ",85024,0.6075441837310791,0.9034021198749542,0.5488567035003555,235000,https://www.zillow.com/homedetails/19209-N-6th-St-Phoenix-AZ-85024/7972480_zpid/,33.6606,-112.066,6581,2018-01-07
451525,21618159,"4229 N 51st Ave, Phoenix, AZ 85031 ",85031,0.7342897057533264,0.747346431016922,0.5487687909272143,165000,https://www.zillow.com/homedetails/4229-N-51st-Ave-Phoenix-AZ-85031/7721281_zpid/,33.4982,-112.169,6355,2017-05-26
424042,23883745,"9015 N 57th Ave, Glendale, AZ 85302 ",85302,0.6507880091667175,0.843128114938736,0.5486976673934674,205000,https://www.zillow.com/homedetails/9015-N-57th-Ave-Glendale-AZ-85302/7734719_zpid/,33.5681,-112.182,6529,2017-11-16
377735,23862131,"10720 N 36TH Ave, Phoenix, AZ 85029 ",85029,0.6333779096603394,0.8661531805992126,0.5486022909735837,225000,https://www.zillow.com/homedetails/10720-N-36th-Ave-Phoenix-AZ-85029/7743347_zpid/,33.5838,-112.137,6576,2018-01-02
1097216,23886156,"901 W Cheyenne Dr, Chandler, AZ 85225 ",85225,0.5881455838680267,0.9316098690032959,0.5479222303421594,240000,https://www.zillow.com/homedetails/901-W-Cheyenne-Dr-Chandler-AZ-85225/8176783_zpid/,33.3463,-111.85600000000001,6618,2018-02-13
329473,23888921,"2430 W Luke Ave, Phoenix, AZ 85015 ",85015,0.7085330188274384,0.7728785872459412,0.5476099986084524,140000,https://www.zillow.com/homedetails/2430-W-Luke-Ave-Phoenix-AZ-85015/7763699_zpid/,33.5189,-112.11200000000001,6563,2017-12-20
419756,23870015,"5532 W Loma Ln, Glendale, AZ 85302 ",85302,0.6116176247596741,0.8952373266220093,0.5475429273047538,185000,https://www.zillow.com/homedetails/5532-W-Loma-Ln-Glendale-AZ-85302/7737959_zpid/,33.5541,-112.179,6583,2018-01-09
499623,23853309,"7113 W Holly St, Phoenix, AZ 85035 ",85035,0.6329211294651031,0.8647341728210449,0.5473085293489675,135000,https://www.zillow.com/homedetails/7113-W-Holly-St-Phoenix-AZ-85035/7475387_zpid/,33.4699,-112.213,6548,2017-12-05
8970849,23830064,"3715 E Delcoa Dr, Phoenix, AZ 85032 ",85032,0.6806381642818451,0.8032993078231812,0.5467561662456468,220000,https://www.zillow.com/homedetails/3715-E-Delcoa-Dr-Phoenix-AZ-85032/7813615_zpid/,33.6109,-112.00200000000001,6507,2017-10-25
9022649,23862722,"7133 W Mountain View Rd, Peoria, AZ 85345 ",85345,0.605554461479187,0.9027901887893677,0.5466886266010391,205000,https://www.zillow.com/homedetails/7133-W-Mountain-View-Rd-Peoria-AZ-85345/7702397_zpid/,33.5743,-112.213,6576,2018-01-02
233458,23864530,"18230 N 33RD Ave, Phoenix, AZ 85053 ",85053,0.6096491515636444,0.8966167271137238,0.5466216269626534,179900,https://www.zillow.com/homedetails/18230-N-33rd-Ave-Phoenix-AZ-85053/7941211_zpid/,33.652,-112.13,6584,2018-01-10
425566,23374604,"3339 N 80th Dr, Phoenix, AZ 85033 ",85033,0.6546873450279236,0.8348058462142944,0.5465368230718255,179500,http://www.zillow.com/homedetails/3339-N-80th-Dr-Phoenix-AZ-85033/7479414_zpid,33.4867,-112.23200000000001,6369,2017-06-09
243287,22690475,"3218 W Angela Dr, Phoenix, AZ 85053 ",85053,0.6629720032215118,0.8243645429611206,0.5465306124317202,209000,https://www.zillow.com/homedetails/3218-W-Angela-Dr-Phoenix-AZ-85053/7942085_zpid/,33.6461,-112.12899999999999,6470,2017-09-18
454952,23752844,"4630 W Indianola Ave, Phoenix, AZ 85031 ",85031,0.6850253939628601,0.7974676191806793,0.546285570001869,159000,https://www.zillow.com/homedetails/4630-W-Indianola-Ave-Phoenix-AZ-85031/7508079_zpid/,33.4927,-112.15899999999999,6497,2017-10-15
1416563,23872427,"7608 W Peck Dr, Glendale, AZ 85303 ",85303,0.5823743641376495,0.9374811947345734,0.5459650146745512,249900,https://www.zillow.com/homedetails/7608-W-Peck-Dr-Glendale-AZ-85303/95094058_zpid/,33.5268,-112.22399999999999,6605,2018-01-31
1113596,23885766,"1567 W Kesler Ln, Chandler, AZ 85224 ",85224,0.5778171718120575,0.9446230530738831,0.5458194209556222,245000,https://www.zillow.com/homedetails/1567-W-Kesler-Ln-Chandler-AZ-85224/8226104_zpid/,33.2918,-111.869,6596,2018-01-22
440456,23867239,"8111 W College Dr, Phoenix, AZ 85033 ",85033,0.6125676929950714,0.8904311060905457,0.5454493284289352,145000,https://www.zillow.com/homedetails/8111-W-College-Dr-Phoenix-AZ-85033/7482592_zpid/,33.5078,-112.234,6586,2018-01-12
208870,23870132,"2955 N 29TH St, Phoenix, AZ 85016 ",85016,0.6025013029575348,0.9051911532878876,0.5453788492815859,162000,https://www.zillow.com/homedetails/2955-N-29th-St-Phoenix-AZ-85016/7538786_zpid/,33.4821,-112.01899999999999,6597,2018-01-23
459441,22441396,"5651 W Sells Dr, Phoenix, AZ 85031 ",85031,0.6984335780143738,0.7803971767425537,0.5450555924246174,191000,https://www.zillow.com/homedetails/5651-W-Sells-Dr-Phoenix-AZ-85031/7712751_zpid/,33.4999,-112.182,6333,2017-05-04
450270,23853373,"8713 W Wilshire Dr, Phoenix, AZ 85037 ",85037,0.6284363269805908,0.8665810525417328,0.5445910136903009,200000,https://www.zillow.com/homedetails/8713-W-Wilshire-Dr-Phoenix-AZ-85037/7473941_zpid/,33.4756,-112.24700000000001,6526,2017-11-13
9018704,22731861,"13229 N 99th Dr, Sun City, AZ 85351 ",85351,0.6603469550609589,0.8244419991970062,0.5444177637941126,152500,https://www.zillow.com/homedetails/13229-N-99th-Dr-Sun-City-AZ-85351/7914996_zpid/,33.6055,-112.27,6481,2017-09-29
326637,23878774,"1821 W Heatherbrae Dr, Phoenix, AZ 85015 ",85015,0.6193258166313171,0.8786930441856384,0.5441972871585286,235000,https://www.zillow.com/homedetails/1821-W-Heatherbrae-Dr-Phoenix-AZ-85015/7772229_zpid/,33.498000000000005,-112.09899999999999,6614,2018-02-09
9001872,23877725,"3034 N 71st Dr, Phoenix, AZ 85033 ",85033,0.5942692905664444,0.915543258190155,0.5440792425275545,219900,https://www.zillow.com/homedetails/3034-N-71st-Dr-Phoenix-AZ-85033/7468971_zpid/,33.4834,-112.213,6599,2018-01-25
7449241,23819586,"11935 N 68th Ave, Peoria, AZ 85345 ",85345,0.6231673955917358,0.8714643120765686,0.543068145707899,245000,https://www.zillow.com/homedetails/11935-N-68th-Ave-Peoria-AZ-85345/7700139_zpid/,33.594,-112.204,6516,2017-11-03
9023846,23854245,"3711 W Catalina Dr, Phoenix, AZ 85019 ",85019,0.6334856748580933,0.8566280603408813,0.5426616049074227,168900,https://www.zillow.com/homedetails/3711-W-Catalina-Dr-Phoenix-AZ-85019/7507461_zpid/,33.4821,-112.139,6556,2017-12-13
9008440,23873693,"2627 E Wallace Ave, Phoenix, AZ 85032 ",85032,0.5914956629276276,0.9174303412437439,0.5426560678838879,220000,https://www.zillow.com/homedetails/2627-E-Wallace-Ave-Phoenix-AZ-85032/95164807_zpid/,33.6398,-112.02600000000001,6606,2018-02-01
9012224,23885680,"9301 W Glen Oaks Cir N, Sun City, AZ 85351 ",85351,0.6087925136089325,0.8910816311836243,0.5424838260790263,244900,https://www.zillow.com/homedetails/9301-W-Glen-Oaks-Cir-N-Sun-City-AZ-85351/7923234_zpid/,33.6338,-112.26,6583,2018-01-09
9030447,23907817,"7253 W Wolf St, Phoenix, AZ 85033 ",85033,0.5945870131254196,0.912248969078064,0.5424113897508693,186500,https://www.zillow.com/homedetails/7253-W-Wolf-St-Phoenix-AZ-85033/7710784_zpid/,33.5061,-112.215,6611,2018-02-06
9025461,23852787,"2114 W Monroe St, Phoenix, AZ 85009 ",85009,0.6586260497570038,0.8232259154319763,0.5421980327385558,229900,https://www.zillow.com/homedetails/2114-W-Monroe-St-Phoenix-AZ-85009/7514471_zpid/,33.4505,-112.105,6550,2017-12-07
9206,23840092,"1220 W Ironwood Dr, Phoenix, AZ 85021 ",85021,0.656879186630249,0.8242450058460236,0.5414293890241808,169000,https://www.zillow.com/homedetails/1220-W-Ironwood-Dr-Phoenix-AZ-85021/7781692_zpid/,33.576,-112.089,6534,2017-11-21
9026644,23892930,"1956 N Illinois St, Chandler, AZ 85225 ",85225,0.5842268764972687,0.9264096915721893,0.5412334404640182,237500,https://www.zillow.com/homedetails/1956-N-Illinois-St-Chandler-AZ-85225/8182717_zpid/,33.3332,-111.84899999999999,6619,2018-02-14
1094985,23886129,"825 W Temple St, Chandler, AZ 85225 ",85225,0.5852010995149612,0.924653172492981,0.5411080532128896,230000,https://www.zillow.com/homedetails/825-W-Temple-St-Chandler-AZ-85225/8183622_zpid/,33.3326,-111.85700000000001,6591,2018-01-17
409785,23870370,"4531 W Wethersfield Rd, Glendale, AZ 85304 ",85304,0.6142248213291168,0.8808635771274567,0.5410482732764388,235000,https://www.zillow.com/homedetails/4531-W-Wethersfield-Rd-Glendale-AZ-85304/7955091_zpid/,33.5969,-112.15700000000001,6577,2018-01-03
7450958,21944041,"12172 N 86th Ln, Peoria, AZ 85345 ",85345,0.7157010436058044,0.75578573346138,0.540916638180688,215000,https://www.zillow.com/homedetails/12172-N-86th-Ln-Peoria-AZ-85345/7685390_zpid/,33.5947,-112.24600000000001,6289,2017-03-21
387374,23860581,"3735 W Cochise Dr, Phoenix, AZ 85051 ",85051,0.6138820946216583,0.8807601034641266,0.5406828571737465,244900,https://www.zillow.com/homedetails/3735-W-Cochise-Dr-Phoenix-AZ-85051/7745459_zpid/,33.5803,-112.14,6572,2017-12-29
703769,23889330,"736 S Sycamore, Mesa, AZ 85202 ",85202,0.5935904830694199,0.9105472266674042,0.540492168135025,239900,https://www.zillow.com/homedetails/736-S-Sycamore-Mesa-AZ-85202/7604484_zpid/,33.4012,-111.87,6624,2018-02-19
234034,23855362,"18447 N 31ST Ave, Phoenix, AZ 85053 ",85053,0.6221445202827454,0.8681370913982391,0.5401067342676154,209000,https://www.zillow.com/homedetails/18447-N-31st-Ave-Phoenix-AZ-85053/7940519_zpid/,33.6544,-112.126,6551,2017-12-08
334027,23820917,"6217 N 25th Ave, Phoenix, AZ 85015 ",85015,0.7319540679454803,0.7371860444545746,0.5395863240711636,186500,https://www.zillow.com/homedetails/6217-N-25th-Ave-Phoenix-AZ-85015/7772678_zpid/,33.5283,-112.11200000000001,6516,2017-11-03
503053,23856891,"2823 W Marshall Ave, Phoenix, AZ 85017 ",85017,0.6411108374595642,0.8413821458816528,0.5394192121697117,175000,https://www.zillow.com/homedetails/2823-W-Marshall-Ave-Phoenix-AZ-85017/7763994_zpid/,33.5174,-112.12,6561,2017-12-18
7389079,23836128,"12207 N Sun Valley Dr, Sun City, AZ 85351 ",85351,0.667119711637497,0.8081281185150146,0.5391181973898895,209900,https://www.zillow.com/homedetails/12207-N-Sun-Valley-Dr-Sun-City-AZ-85351/7686174_zpid/,33.5952,-112.271,6530,2017-11-17
392666,23759961,"4208 W El Camino Dr, Phoenix, AZ 85051 ",85051,0.6682527959346771,0.8067133128643036,0.5390884268392968,215000,https://www.zillow.com/homedetails/4208-W-El-Camino-Dr-Phoenix-AZ-85051/7752812_zpid/,33.5573,-112.15,6503,2017-10-21
8959309,23803780,"4201 W Mission Ln, Phoenix, AZ 85051 ",85051,0.6924483180046082,0.7784076035022736,0.5390070357671473,219000,https://www.zillow.com/homedetails/4201-W-Mission-Ln-Phoenix-AZ-85051/7746195_zpid/,33.5703,-112.149,6501,2017-10-19
8992552,23882752,"6029 W Mary Jane Ln, Glendale, AZ 85306 ",85306,0.6730634272098541,0.8002493977546692,0.5386186022753794,239000,https://www.zillow.com/homedetails/6029-W-Mary-Jane-Ln-Glendale-AZ-85306/8097193_zpid/,33.6273,-112.189,6493,2017-10-11
410898,23823665,"5031 W Windrose Dr, Glendale, AZ 85304 ",85304,0.6240444779396057,0.8629639148712158,0.5385278657365262,229000,https://www.zillow.com/homedetails/5031-W-Windrose-Dr-Glendale-AZ-85304/7954728_zpid/,33.6006,-112.167,6521,2017-11-08
422985,23883576,"8419 N 58th Dr, Glendale, AZ 85302 ",85302,0.5989574491977692,0.8988562822341919,0.5383766660023817,225000,https://www.zillow.com/homedetails/8419-N-58th-Dr-Glendale-AZ-85302/7733078_zpid/,33.559,-112.185,6583,2018-01-09
7652,23868185,"18611 N 22ND St LOT 44, Phoenix, AZ 85024 ",85024,0.5807666778564453,0.9266059994697571,0.538141887993902,219000,https://www.zillow.com/homedetails/18611-N-22nd-St-LOT-44-Phoenix-AZ-85024/11884597_zpid/,33.6568,-112.03299999999999,6589,2018-01-15
9026899,23893911,"1318 W Boxelder Ct, Chandler, AZ 85224 ",85224,0.5731717497110367,0.9385412335395813,0.5379453210038365,239900,https://www.zillow.com/homedetails/1318-W-Boxelder-Ct-Chandler-AZ-85224/8172413_zpid/,33.3542,-111.865,6604,2018-01-30
203922,23870255,"1233 N Oakleaf Dr, Phoenix, AZ 85008 ",85008,0.6176229119300842,0.8705138862133026,0.537649321278634,225000,https://www.zillow.com/homedetails/1233-N-Oakleaf-Dr-Phoenix-AZ-85008/7544011_zpid/,33.4632,-112.01100000000001,6584,2018-01-10
9021086,23815044,"8137 W Aster Dr, Peoria, AZ 85381 ",85381,0.6347280144691467,0.8461971282958984,0.5371050230927494,239000,https://www.zillow.com/homedetails/8137-W-Aster-Dr-Peoria-AZ-85381/8100990_zpid/,33.6013,-112.235,6512,2017-10-30
827683,22544155,"3017 N 40th Dr, Phoenix, AZ 85019 ",85019,0.6370071768760681,0.8430140614509583,0.5370060073517031,140000,https://www.zillow.com/homedetails/3017-N-40th-Dr-Phoenix-AZ-85019/7509168_zpid/,33.483000000000004,-112.146,6437,2017-08-16
394581,23831766,"3626 W Rue De Lamour Ave, Phoenix, AZ 85029 ",85029,0.6501024961471558,0.8258097171783447,0.5368609584802186,199900,https://www.zillow.com/homedetails/3626-W-Rue-De-Lamour-Ave-Phoenix-AZ-85029/7741437_zpid/,33.6102,-112.137,6522,2017-11-09
469895,23526992,"3401 W Tuckey Ln, Phoenix, AZ 85017 ",85017,0.664606124162674,0.8077075183391571,0.5368073632204391,169000,https://www.zillow.com/homedetails/3401-W-Tuckey-Ln-Phoenix-AZ-85017/7760733_zpid/,33.5332,-112.132,6493,2017-10-11
149903,23800141,"8309 E Indian School Rd, Scottsdale, AZ 85251 ",85251,0.6848526000976562,0.7828319370746613,0.5361244875450666,239850,https://www.zillow.com/homedetails/8309-E-Indian-School-Rd-Scottsdale-AZ-85251/7577019_zpid/,33.4948,-111.902,6497,2017-10-15
9019399,23864514,"15032 N 26th St, Phoenix, AZ 85032 ",85032,0.6049602925777435,0.8856630623340607,0.5357909853149136,238000,https://www.zillow.com/homedetails/15032-N-26th-St-Phoenix-AZ-85032/8013907_zpid/,33.6237,-112.027,6584,2018-01-10
2042666,23866719,"9694 N 82nd Gln, Peoria, AZ 85345 ",85345,0.5882353186607361,0.9103679656982422,0.5355105904010315,219000,https://www.zillow.com/homedetails/9694-N-82nd-Gln-Peoria-AZ-85345/60978309_zpid/,33.5735,-112.23700000000001,6578,2018-01-04
1094634,23886104,"814 W Palomino Dr, Chandler, AZ 85225 ",85225,0.5793745964765549,0.92423877120018,0.5354804651120912,195000,https://www.zillow.com/homedetails/814-W-Palomino-Dr-Chandler-AZ-85225/8177734_zpid/,33.3408,-111.85700000000001,6616,2018-02-11
637717,23877260,"1942 W Portobello Ave, Mesa, AZ 85202 ",85202,0.5776639431715012,0.9250611662864685,0.5343744809918691,232500,https://www.zillow.com/homedetails/1942-W-Portobello-Ave-Mesa-AZ-85202/8191364_zpid/,33.3598,-111.876,6617,2018-02-12
445830,23877779,"4710 N 84th Ln, Phoenix, AZ 85037 ",85037,0.5749657452106476,0.9288073182106018,0.5340323918720618,175000,https://www.zillow.com/homedetails/4710-N-84th-Ln-Phoenix-AZ-85037/7481167_zpid/,33.5057,-112.242,6594,2018-01-20
440994,23821180,"8228 W Fairmount Ave, Phoenix, AZ 85033 ",85033,0.6515106856822968,0.8196669816970825,0.5340217972766048,167000,https://www.zillow.com/homedetails/8228-W-Fairmount-Ave-Phoenix-AZ-85033/7478785_zpid/,33.4907,-112.23700000000001,6517,2017-11-04
407925,23791005,"6023 W Redfield Rd, Glendale, AZ 85306 ",85306,0.652961015701294,0.8175170421600342,0.5338067582019335,179900,https://www.zillow.com/homedetails/6023-W-Redfield-Rd-Glendale-AZ-85306/7910719_zpid/,33.6135,-112.18799999999999,6309,2017-04-10
9020422,23864586,"4227 N 11th Pl, Phoenix, AZ 85014 ",85014,0.6307674646377563,0.8456326127052307,0.5333975391310801,232900,https://www.zillow.com/homedetails/4227-N-11th-Pl-Phoenix-AZ-85014/7769603_zpid/,33.4974,-112.057,6584,2018-01-10
212907,23880151,"5306 E Windsor Ave, Phoenix, AZ 85008 ",85008,0.590247318148613,0.903663843870163,0.5333851603522306,219900,https://www.zillow.com/homedetails/5306-E-Windsor-Ave-Phoenix-AZ-85008/7562724_zpid/,33.4785,-111.96700000000001,6620,2018-02-15
231305,23881182,"1507 W Danbury Rd, Phoenix, AZ 85023 ",85023,0.5978201031684875,0.8919920921325684,0.5332508045441671,150000,https://www.zillow.com/homedetails/1507-W-Danbury-Rd-Phoenix-AZ-85023/7965178_zpid/,33.6414,-112.09200000000001,6615,2018-02-10
246567,22745687,"3407 W Port Au Prince Ln, Phoenix, AZ 85053 ",85053,0.6601755321025848,0.8075500428676605,0.533124779249623,175000,https://www.zillow.com/homedetails/3407-W-Port-Au-Prince-Ln-Phoenix-AZ-85053/7943671_zpid/,33.6229,-112.132,6491,2017-10-09
1078091,23885832,"2052 N Holguin Way, Chandler, AZ 85225 ",85225,0.5686578452587128,0.9372640550136566,0.5329825579625096,219000,https://www.zillow.com/homedetails/2052-N-Holguin-Way-Chandler-AZ-85225/60985138_zpid/,33.3362,-111.84899999999999,6593,2018-01-19
1111311,23885718,"1319 W Straford Dr, Chandler, AZ 85224 ",85224,0.5731717497110367,0.9290639162063599,0.5325131904453873,209000,https://www.zillow.com/homedetails/1319-W-Straford-Dr-Chandler-AZ-85224/8172355_zpid/,33.353,-111.865,6618,2018-02-13
394310,23786762,"3560 W Wood Dr, Phoenix, AZ 85029 ",85029,0.6639601290225983,0.8020115494728088,0.5325036918655801,230000,https://www.zillow.com/homedetails/3560-W-Wood-Dr-Phoenix-AZ-85029/7741612_zpid/,33.6044,-112.137,6308,2017-04-09
415297,23835189,"10114 N 66TH Ln, Glendale, AZ 85302 ",85302,0.6093841195106506,0.8736013174057007,0.5323587696106173,197500,https://www.zillow.com/homedetails/10114-N-66th-Ln-Glendale-AZ-85302/67083300_zpid/,33.5779,-112.20299999999999,6528,2017-11-15
390477,23864565,"3018 W Lupine Ave, Phoenix, AZ 85029 ",85029,0.5985839664936066,0.8892738223075867,0.5323050518558059,230000,https://www.zillow.com/homedetails/3018-W-Lupine-Ave-Phoenix-AZ-85029/7739937_zpid/,33.5913,-112.124,6584,2018-01-10
9025869,23860030,"11848 N 79th Dr, Peoria, AZ 85345 ",85345,0.5865612030029297,0.9074396193027496,0.5322688747507414,215000,https://www.zillow.com/homedetails/11848-N-79th-Dr-Peoria-AZ-85345/2091778016_zpid/,33.5928,-112.23,6557,2017-12-14
1937199,23887132,"7142 W Westview Dr, Phoenix, AZ 85033 ",85033,0.58990278840065,0.9004252254962921,0.5311633512665468,174000,https://www.zillow.com/homedetails/7142-W-Westview-Dr-Phoenix-AZ-85033/7711546_zpid/,33.4979,-112.213,6621,2018-02-16
436097,23866308,"2311 N 91st Gln, Phoenix, AZ 85037 ",85037,0.576143741607666,0.9209209382534027,0.5305828350901578,239900,https://www.zillow.com/homedetails/2311-N-91st-Gln-Phoenix-AZ-85037/60974969_zpid/,33.4747,-112.257,6579,2018-01-05
458973,22036993,"5608 W Heatherbrae Dr, Phoenix, AZ 85031 ",85031,0.687911719083786,0.7706526815891266,0.5301410110085056,165000,https://www.zillow.com/homedetails/5608-W-Heatherbrae-Dr-Phoenix-AZ-85031/7713127_zpid/,33.4974,-112.181,6348,2017-05-19
8946285,22054871,"1612 W Andorra Dr, Phoenix, AZ 85029 ",85029,0.6584532558917999,0.805015504360199,0.5300650798893525,219900,https://www.zillow.com/homedetails/1612-W-Andorra-Dr-Phoenix-AZ-85029/7784242_zpid/,33.6066,-112.094,6380,2017-06-20
9024480,23868335,"17622 N 18th Dr, Phoenix, AZ 85023 ",85023,0.5834607481956482,0.9079853296279907,0.5297737997754197,217000,https://www.zillow.com/homedetails/17622-N-18th-Dr-Phoenix-AZ-85023/7958450_zpid/,33.6465,-112.098,6592,2018-01-18
9029090,23901746,"2331 W Comstock Dr, Chandler, AZ 85224 ",85224,0.5720557868480682,0.9259486198425293,0.5296942663049009,245000,https://www.zillow.com/homedetails/2331-W-Comstock-Dr-Chandler-AZ-85224/8201985_zpid/,33.3471,-111.882,6625,2018-02-20
336868,23820918,"2122 W Glendale Ave, Phoenix, AZ 85021 ",85021,0.6917802393436432,0.7650250792503357,0.5292292324276868,208400,https://www.zillow.com/homedetails/2122-W-Glendale-Ave-Phoenix-AZ-85021/7778952_zpid/,33.5389,-112.105,6516,2017-11-03
9021585,23824122,"12612 N 79TH Ave, Peoria, AZ 85381 ",85381,0.6059881150722504,0.8733116090297699,0.5292164558266643,225000,https://www.zillow.com/homedetails/12612-N-79th-Ave-Peoria-AZ-85381/8101178_zpid/,33.5997,-112.229,6522,2017-11-09
329291,23884491,"2402 W Stella Ln, Phoenix, AZ 85015 ",85015,0.612142950296402,0.8638169467449188,0.5287794542964646,174900,https://www.zillow.com/homedetails/2402-W-Stella-Ln-Phoenix-AZ-85015/7772787_zpid/,33.5308,-112.11,6589,2018-01-15
353909,23881508,"2219 E Aire Libre Ave, Phoenix, AZ 85022 ",85022,0.5726722776889801,0.9227825105190277,0.5284519621104868,239900,https://www.zillow.com/homedetails/2219-E-Aire-Libre-Ave-Phoenix-AZ-85022/8005158_zpid/,33.637,-112.03399999999999,6620,2018-02-15
9026868,23897793,"1302 W Cortez Ct, Chandler, AZ 85224 ",85224,0.5624950081110001,0.9394059777259827,0.5284111730604986,249500,https://www.zillow.com/homedetails/1302-W-Cortez-Ct-Chandler-AZ-85224/8172446_zpid/,33.3554,-111.86399999999999,6624,2018-02-19
331783,22651353,"10428 N 13TH Ave, Phoenix, AZ 85021 ",85021,0.7087661921977997,0.744462788105011,0.527650055558146,195000,https://www.zillow.com/homedetails/10428-N-13th-Ave-Phoenix-AZ-85021/7781474_zpid/,33.5811,-112.089,6463,2017-09-11
400713,23840251,"10843 N 45TH Ln, Glendale, AZ 85304 ",85304,0.6278935372829437,0.8403394818305969,0.5276437297651295,220000,https://www.zillow.com/homedetails/10843-N-45th-Ln-Glendale-AZ-85304/7727914_zpid/,33.5861,-112.156,6534,2017-11-21
7546896,22096492,"6102 W Mulberry Dr, Phoenix, AZ 85033 ",85033,0.679534524679184,0.7757930755615234,0.5271781788511021,165000,https://www.zillow.com/homedetails/6102-W-Mulberry-Dr-Phoenix-AZ-85033/7498385_zpid/,33.4872,-112.19200000000001,6321,2017-04-22
409622,23825573,"4447 W Mercer Ln, Glendale, AZ 85304 ",85304,0.6278935372829437,0.8386783003807068,0.5266006846684892,227000,https://www.zillow.com/homedetails/4447-W-Mercer-Ln-Glendale-AZ-85304/7727953_zpid/,33.5852,-112.156,6526,2017-11-13
8968950,23871892,"6906 W Monterey Way, Phoenix, AZ 85033 ",85033,0.5777380168437958,0.9108594357967377,0.526238124060666,169000,https://www.zillow.com/homedetails/6906-W-Monterey-Way-Phoenix-AZ-85033/7485364_zpid/,33.4845,-112.208,6597,2018-01-23
1960784,23873070,"7424 W Minnezona Ave, Phoenix, AZ 85033 ",85033,0.5749657452106476,0.9147290289402008,0.5259378577904146,170000,https://www.zillow.com/homedetails/7424-W-Minnezona-Ave-Phoenix-AZ-85033/7710976_zpid/,33.5028,-112.219,6607,2018-02-02
392265,23884716,"4144 W Northview Ave, Phoenix, AZ 85051 ",85051,0.5791715383529663,0.907142698764801,0.5253912323492713,200000,https://www.zillow.com/homedetails/4144-W-Northview-Ave-Phoenix-AZ-85051/7756481_zpid/,33.5444,-112.149,6586,2018-01-12
402127,23814880,"14638 N 62nd Ave, Glendale, AZ 85306 ",85306,0.6380915641784668,0.8229363262653351,0.5251087276459288,230000,https://www.zillow.com/homedetails/14638-N-62nd-Ave-Glendale-AZ-85306/8098778_zpid/,33.6177,-112.191,6512,2017-10-30
329444,22745740,"2423 W San Miguel Ave, Phoenix, AZ 85015 ",85015,0.7085330188274384,0.740962415933609,0.524996337399112,178800,https://www.zillow.com/homedetails/2423-W-San-Miguel-Ave-Phoenix-AZ-85015/7763696_zpid/,33.5193,-112.11200000000001,6488,2017-10-06
556266,23783983,"2325 N 28th Pl, Phoenix, AZ 85008 ",85008,0.6687626838684082,0.784485399723053,0.5246345613743699,144000,https://www.zillow.com/homedetails/2325-N-28th-Pl-Phoenix-AZ-85008/7542977_zpid/,33.4742,-112.02,6305,2017-04-06
321311,23878819,"2846 N Greenfield Rd, Phoenix, AZ 85006 ",85006,0.6064713001251221,0.8639955818653107,0.5239885238362163,239500,https://www.zillow.com/homedetails/2846-N-Greenfield-Rd-Phoenix-AZ-85006/7530734_zpid/,33.4789,-112.03399999999999,6604,2018-01-30
9015572,23864377,"9416 W Madison St, Tolleson, AZ 85353 ",85353,0.5855575501918793,0.8940277695655823,0.5235047105503323,149000,https://www.zillow.com/homedetails/9416-W-Madison-St-Tolleson-AZ-85353/7460136_zpid/,33.4454,-112.264,6582,2018-01-08
523591,23877939,"9030 W Glenrosa Ave, Phoenix, AZ 85037 ",85037,0.5766732394695282,0.9076007902622223,0.5233890878656196,175000,https://www.zillow.com/homedetails/9030-W-Glenrosa-Ave-Phoenix-AZ-85037/7467266_zpid/,33.4982,-112.25399999999999,6593,2018-01-19
9025718,23861001,"2944 W Villa Theresa Dr, Phoenix, AZ 85053 ",85053,0.6015881299972534,0.8698993027210236,0.5233210948098552,210000,https://www.zillow.com/homedetails/2944-W-Villa-Theresa-Dr-Phoenix-AZ-85053/7940561_zpid/,33.6541,-112.12299999999999,6573,2017-12-30
384614,23864029,"13636 N 18TH Dr, Phoenix, AZ 85029 ",85029,0.5846135020256042,0.8950181901454926,0.5232397185175746,189500,https://www.zillow.com/homedetails/13636-N-18th-Dr-Phoenix-AZ-85029/7784603_zpid/,33.6108,-112.09899999999999,6583,2018-01-09
316565,23865348,"1845 E Almeria Rd, Phoenix, AZ 85006 ",85006,0.6252504587173462,0.8367619812488556,0.5231858126130824,224900,https://www.zillow.com/homedetails/1845-E-Almeria-Rd-Phoenix-AZ-85006/7531838_zpid/,33.4664,-112.041,6586,2018-01-12
9022602,23877813,"6826 W Windsor Ave, Phoenix, AZ 85035 ",85035,0.5718402564525604,0.9146544337272644,0.5230362259480703,180000,https://www.zillow.com/homedetails/6826-W-Windsor-Ave-Phoenix-AZ-85035/7476059_zpid/,33.4783,-112.20700000000001,6599,2018-01-25
341987,23888290,"16633 N 19th Pl, Phoenix, AZ 85022 ",85022,0.5697680115699768,0.9172793328762054,0.5226364215471104,244900,https://www.zillow.com/homedetails/16633-N-19th-Pl-Phoenix-AZ-85022/55267888_zpid/,33.6381,-112.04,6621,2018-02-16
327561,23884356,"2038 W Orange Dr, Phoenix, AZ 85015 ",85015,0.6033421009778976,0.8661692142486572,0.5225963535271596,199900,https://www.zillow.com/homedetails/2038-W-Orange-Dr-Phoenix-AZ-85015/7765251_zpid/,33.5126,-112.104,6593,2018-01-19
259461,23881240,"19660 N 48TH Ln, Glendale, AZ 85308 ",85308,0.5804463624954224,0.9002490937709808,0.5225463118191662,215000,https://www.zillow.com/homedetails/19660-N-48TH-Ln-Glendale-AZ-85308/7937777_zpid/,33.6639,-112.165,6584,2018-01-10
973060,23891307,"600 N Aspen Dr, Chandler, AZ 85226 ",85226,0.5580421984195709,0.9361767768859863,0.522426146682804,223900,https://www.zillow.com/homedetails/600-N-Aspen-Dr-Chandler-AZ-85226/8262023_zpid/,33.3128,-111.945,6624,2018-02-19
339837,23873153,"15615 N 23RD Pl, Phoenix, AZ 85022 ",85022,0.5790128111839294,0.90170618891716,0.5220994353068722,179700,https://www.zillow.com/homedetails/15615-N-23rd-Pl-Phoenix-AZ-85022/55267932_zpid/,33.6285,-112.03200000000001,6608,2018-02-03
501018,22711998,"7420 W Alvarado Rd, Phoenix, AZ 85035 ",85035,0.6381374597549438,0.8178370893001556,0.5218924826593785,119900,https://www.zillow.com/homedetails/7420-W-Alvarado-Rd-Phoenix-AZ-85035/7474905_zpid/,33.4717,-112.22,6475,2017-09-23
314137,23854820,"1718 W Cocopah St, Phoenix, AZ 85007 ",85007,0.6495486795902252,0.8029936850070953,0.521583487815648,154900,https://www.zillow.com/homedetails/1718-W-Cocopah-St-Phoenix-AZ-85007/7501240_zpid/,33.4318,-112.096,6557,2017-12-14
497391,23877834,"6741 W Virginia Ave, Phoenix, AZ 85035 ",85035,0.5718402564525604,0.911907821893692,0.5214656027327846,172800,https://www.zillow.com/homedetails/6741-W-Virginia-Ave-Phoenix-AZ-85035/7475866_zpid/,33.4765,-112.205,6599,2018-01-25
295206,23875568,"2327 E Mitchell Dr, Phoenix, AZ 85016 ",85016,0.6064713001251221,0.8595992624759674,0.521322282300396,200000,https://www.zillow.com/homedetails/2327-E-Mitchell-Dr-Phoenix-AZ-85016/7539639_zpid/,33.4882,-112.031,6612,2018-02-07
2044790,23879407,"15613 N 33RD Pl, Phoenix, AZ 85032 ",85032,0.5709950029850006,0.9128769636154175,0.5212481845645236,225000,https://www.zillow.com/homedetails/15613-N-33RD-Pl-Phoenix-AZ-85032/55267922_zpid/,33.6291,-112.01,6607,2018-02-02
9030406,23907604,"3814 N 48th Ave, Phoenix, AZ 85031 ",85031,0.5825380831956863,0.8937527239322662,0.5206449986504258,164900,https://www.zillow.com/homedetails/3814-N-48th-Ave-Phoenix-AZ-85031/7508797_zpid/,33.492,-112.163,6606,2018-02-01
1091759,23886133,"701 W Dublin St, Chandler, AZ 85225 ",85225,0.5707111954689026,0.9121474921703339,0.5205727857004927,225000,https://www.zillow.com/homedetails/701-W-Dublin-St-Chandler-AZ-85225/8189377_zpid/,33.3186,-111.853,6588,2018-01-14
470656,22708029,"3446 W Montebello Ave, Phoenix, AZ 85017 ",85017,0.664606124162674,0.7829824984073639,0.5203749635537251,169800,https://www.zillow.com/homedetails/3446-W-Montebello-Ave-Phoenix-AZ-85017/7762454_zpid/,33.5205,-112.134,6472,2017-09-20
348846,23888294,"1821 E Sandra Ter, Phoenix, AZ 85022 ",85022,0.5915091931819916,0.8796433508396149,0.5203171287430441,164750,https://www.zillow.com/homedetails/1821-E-Sandra-Ter-Phoenix-AZ-85022/8004659_zpid/,33.6343,-112.04299999999999,6620,2018-02-15
1350469,23869506,"5815 N 62nd Dr, Glendale, AZ 85301 ",85301,0.5767444968223572,0.9021122455596924,0.5202882731426115,155000,https://www.zillow.com/homedetails/5815-N-62nd-Dr-Glendale-AZ-85301/7714249_zpid/,33.5226,-112.194,6593,2018-01-19
417446,23882391,"4813 W Mountain View Rd, Glendale, AZ 85302 ",85302,0.5695556998252869,0.9134898483753204,0.5202833498747008,195000,https://www.zillow.com/homedetails/4813-W-Mountain-View-Rd-Glendale-AZ-85302/7730123_zpid/,33.5745,-112.162,6618,2018-02-13
227027,23869822,"1401 W Grovers Ave, Phoenix, AZ 85023 ",85023,0.5741622447967529,0.9061294496059418,0.5202653188621937,184900,https://www.zillow.com/homedetails/1401-W-Grovers-Ave-Phoenix-AZ-85023/7963298_zpid/,33.6472,-112.09100000000001,6596,2018-01-22
441326,23862512,"3042 N 87TH Ave, Phoenix, AZ 85037 ",85037,0.5777489542961121,0.899785578250885,0.5198501769251713,199999,https://www.zillow.com/homedetails/3042-N-87th-Ave-Phoenix-AZ-85037/7479842_zpid/,33.483000000000004,-112.24700000000001,6578,2018-01-04
9029821,23904953,"8011 N 87th Dr, Peoria, AZ 85345 ",85345,0.5582205653190613,0.9305189251899719,0.5194348004596314,214900,https://www.zillow.com/homedetails/8011-N-87th-Dr-Peoria-AZ-85345/50187488_zpid/,33.5525,-112.24700000000001,6614,2018-02-09
381842,23829311,"12409 N 36th Dr, Phoenix, AZ 85029 ",85029,0.6383280158042908,0.8133825957775116,0.5192048984524025,174900,https://www.zillow.com/homedetails/12409-N-36th-Dr-Phoenix-AZ-85029/7743051_zpid/,33.5986,-112.13600000000001,6424,2017-08-03
338577,23879437,"15030 N 23RD Pl, Phoenix, AZ 85022 ",85022,0.5751472413539886,0.9024746119976044,0.5190557834824334,249900,https://www.zillow.com/homedetails/15030-N-23RD-Pl-Phoenix-AZ-85022/8010606_zpid/,33.6235,-112.03200000000001,6598,2018-01-24
702539,23868455,"545 S Stewart, Mesa, AZ 85202 ",85202,0.5866722762584686,0.8837164640426636,0.5184519495269946,184000,https://www.zillow.com/homedetails/545-S-Stewart-Mesa-AZ-85202/7604679_zpid/,33.4045,-111.859,6592,2018-01-18
9030023,23905783,"8112 W Laurel Ln, Peoria, AZ 85345 ",85345,0.562061071395874,0.9223350882530212,0.5184086478895011,243000,https://www.zillow.com/homedetails/8112-W-Laurel-Ln-Peoria-AZ-85345/7680881_zpid/,33.5932,-112.234,6580,2018-01-06
625056,23886884,"1508 W Capri Ave, Mesa, AZ 85202 ",85202,0.5683727562427521,0.9118219017982483,0.5182547275275784,239900,https://www.zillow.com/homedetails/1508-W-Capri-Ave-Mesa-AZ-85202/7604820_zpid/,33.4058,-111.86399999999999,6621,2018-02-16
22930,21627869,"5725 W Highland Ave, Phoenix, AZ 85031 ",85031,0.6765307784080505,0.7658270597457886,0.518105576855767,175000,https://www.zillow.com/homedetails/5725-W-Highland-Ave-Phoenix-AZ-85031/7713313_zpid/,33.5057,-112.18299999999999,6328,2017-04-29
9016642,23868471,"6402 W Weldon Ave, Phoenix, AZ 85033 ",85033,0.5713617205619812,0.9067239761352539,0.5180673710794395,164000,https://www.zillow.com/homedetails/6402-W-Weldon-Ave-Phoenix-AZ-85033/7489112_zpid/,33.4907,-112.198,6592,2018-01-18
227559,23843808,"15221 N 28TH Dr, Phoenix, AZ 85053 ",85053,0.619605302810669,0.8360223174095154,0.518003861135,209900,https://www.zillow.com/homedetails/15221-N-28th-Dr-Phoenix-AZ-85053/7942595_zpid/,33.6243,-112.119,6542,2017-11-29
455519,23877850,"4726 W Indian School Rd, Phoenix, AZ 85031 ",85031,0.5777310729026794,0.8964338302612305,0.5178976785430791,170000,https://www.zillow.com/homedetails/4726-W-Indian-School-Rd-Phoenix-AZ-85031/7721070_zpid/,33.4952,-112.162,6604,2018-01-30
8964694,23800320,"9084 N 80th Ln, Peoria, AZ 85345 ",85345,0.594298392534256,0.8713168501853943,0.517822203453191,170000,https://www.zillow.com/homedetails/9084-N-80th-Ln-Peoria-AZ-85345/50187199_zpid/,33.5677,-112.23299999999999,6422,2017-08-01
212762,23873366,"5130 E Windsor Ave, Phoenix, AZ 85008 ",85008,0.5758204013109207,0.8991836309432983,0.5177682792219809,240000,https://www.zillow.com/homedetails/5130-E-Windsor-Ave-Phoenix-AZ-85008/7561690_zpid/,33.4786,-111.97,6609,2018-02-04
411581,22708161,"5226 W Eugie Ave, Glendale, AZ 85304 ",85304,0.631359875202179,0.8200772106647491,0.517763845381447,220000,https://www.zillow.com/homedetails/5226-W-Eugie-Ave-Glendale-AZ-85304/7911821_zpid/,33.608000000000004,-112.17200000000001,6473,2017-09-21
433137,23872612,"7225 W Catalina Dr, Phoenix, AZ 85033 ",85033,0.5649254769086838,0.9161678552627563,0.5175665625627186,180000,https://www.zillow.com/homedetails/7225-W-Catalina-Dr-Phoenix-AZ-85033/7468501_zpid/,33.4819,-112.215,6603,2018-01-29
429014,23872854,"6313 W Osborn Rd, Phoenix, AZ 85033 ",85033,0.5713617205619812,0.9048364758491516,0.5169889256684108,157000,https://www.zillow.com/homedetails/6313-W-Osborn-Rd-Phoenix-AZ-85033/7498492_zpid/,33.4875,-112.196,6605,2018-01-31
422357,23883112,"6612 W Brown St, Glendale, AZ 85302 ",85302,0.6192207336425781,0.8348148465156555,0.5169346617151405,199000,https://www.zillow.com/homedetails/6612-W-Brown-St-Glendale-AZ-85302/7706362_zpid/,33.5783,-112.20100000000001,6496,2017-10-14
354199,23879414,"2237 E Blanche Dr, Phoenix, AZ 85022 ",85022,0.5751472413539886,0.8986546695232391,0.5168587541061713,214000,https://www.zillow.com/homedetails/2237-E-Blanche-Dr-Phoenix-AZ-85022/8010622_zpid/,33.6237,-112.03299999999999,6593,2018-01-19
644742,23869677,"2222 W Peralta Ave, Mesa, AZ 85202 ",85202,0.5592032819986343,0.9233210980892181,0.5163241883900738,191000,https://www.zillow.com/homedetails/2222-W-Peralta-Ave-Mesa-AZ-85202/8171027_zpid/,33.3578,-111.882,6594,2018-01-20
390757,23874166,"4033 W Townley Ave, Phoenix, AZ 85051 ",85051,0.5677980780601501,0.909277081489563,0.5162857792939164,209950,https://www.zillow.com/homedetails/4033-W-Townley-Ave-Phoenix-AZ-85051/7754496_zpid/,33.5658,-112.146,6613,2018-02-08
1408259,23883188,"6919 N 73rd Dr, Glendale, AZ 85303 ",85303,0.552868202328682,0.9335527420043945,0.5161316262509814,214000,https://www.zillow.com/homedetails/6919-N-73rd-Dr-Glendale-AZ-85303/7706959_zpid/,33.5365,-112.21600000000001,6608,2018-02-03
635106,23871182,"1835 S Yucca, Mesa, AZ 85202 ",85202,0.5619504898786545,0.9182978570461273,0.5160379306215899,225000,https://www.zillow.com/homedetails/1835-S-Yucca-Mesa-AZ-85202/8250862_zpid/,33.3818,-111.874,6599,2018-01-25
1122798,23892196,"256 S Dobson Rd, Chandler, AZ 85224 ",85224,0.5916720777750015,0.8719821870326996,0.5159275123844274,199000,https://www.zillow.com/homedetails/256-S-Dobson-Rd-Chandler-AZ-85224/8207976_zpid/,33.2994,-111.87700000000001,6627,2018-02-22
9023845,23833062,"1333 N 32nd Ave, Phoenix, AZ 85009 ",85009,0.6918270587921143,0.7457213401794434,0.515910201454858,125000,https://www.zillow.com/homedetails/1333-N-32nd-Ave-Phoenix-AZ-85009/7513099_zpid/,33.464,-112.12700000000001,6528,2017-11-15
459129,23877807,"5622 W Monterosa St, Phoenix, AZ 85031 ",85031,0.5676008611917496,0.9083271920681,0.5155672964617373,154500,https://www.zillow.com/homedetails/5622-W-Monterosa-St-Phoenix-AZ-85031/7713165_zpid/,33.4969,-112.181,6607,2018-02-02
9020886,23871822,"4811 N 71st Ave, Phoenix, AZ 85033 ",85033,0.5675707161426544,0.9082309305667877,0.5154852796847011,169900,https://www.zillow.com/homedetails/4811-N-71st-Ave-Phoenix-AZ-85033/7716527_zpid/,33.5078,-112.211,6601,2018-01-27
9029409,23907919,"4020 N 64TH Dr, Phoenix, AZ 85033 ",85033,0.5713617205619812,0.9017712771892548,0.5152375884882279,119900,https://www.zillow.com/homedetails/4020-N-64TH-Dr-Phoenix-AZ-85033/7490022_zpid/,33.4928,-112.199,6600,2018-01-26
9030778,23911308,"4941 W Townley Ave, Glendale, AZ 85302 ",85302,0.5615894198417664,0.917382001876831,0.5151920262072878,200000,https://www.zillow.com/homedetails/4941-W-Townley-Ave-Glendale-AZ-85302/7730613_zpid/,33.5647,-112.167,6613,2018-02-08
623384,23877222,"1441 S Revere, Mesa, AZ 85210 ",85210,0.5741100460290909,0.8964367210865021,0.514653327205139,175000,https://www.zillow.com/homedetails/1441-S-Revere-Mesa-AZ-85210/7599342_zpid/,33.3886,-111.84700000000001,6618,2018-02-13
9026512,23869184,"1339 W 1ST St, Mesa, AZ 85201 ",85201,0.5881149768829346,0.8750555515289307,0.5146332754587206,186000,https://www.zillow.com/homedetails/1339-W-1st-St-Mesa-AZ-85201/7611036_zpid/,33.4172,-111.86,6592,2018-01-18
9027880,23897174,"15031 N 24th Pl, Phoenix, AZ 85032 ",85032,0.5731838345527649,0.8978021144866943,0.5146056586510639,190000,https://www.zillow.com/homedetails/15031-N-24th-Pl-Phoenix-AZ-85032/8013856_zpid/,33.6244,-112.029,6619,2018-02-14
9017627,23874046,"1221 W 1st Pl, Mesa, AZ 85201 ",85201,0.5971100628376007,0.861810714006424,0.5145958495944933,215000,https://www.zillow.com/homedetails/1221-W-1st-Pl-Mesa-AZ-85201/7611051_zpid/,33.4178,-111.85700000000001,6613,2018-02-08
395130,23830853,"3719 W Joan De Arc Ave, Phoenix, AZ 85029 ",85029,0.605640172958374,0.8495396971702576,0.5145153691291995,205900,https://www.zillow.com/homedetails/3719-W-Joan-De-Arc-Ave-Phoenix-AZ-85029/7741718_zpid/,33.607,-112.139,6526,2017-11-13
9030421,23907682,"7432 W Roma Ave, Phoenix, AZ 85033 ",85033,0.5647562146186829,0.9105350375175476,0.5142303210660906,225000,https://www.zillow.com/homedetails/7432-W-Roma-Ave-Phoenix-AZ-85033/7711299_zpid/,33.5014,-112.22,6611,2018-02-06
419375,23882453,"5413 W Townley Ave, Glendale, AZ 85302 ",85302,0.5615894198417664,0.9154843091964722,0.514126302075887,195000,https://www.zillow.com/homedetails/5413-W-Townley-Ave-Glendale-AZ-85302/7733621_zpid/,33.5663,-112.176,6608,2018-02-03
9030468,23907932,"7432 W Montecito Ave, Phoenix, AZ 85033 ",85033,0.5647562146186829,0.9098961055278778,0.5138694802542059,184900,https://www.zillow.com/homedetails/7432-W-Montecito-Ave-Phoenix-AZ-85033/7711234_zpid/,33.5001,-112.22,6616,2018-02-11
392498,23882193,"4201 W Eva St, Phoenix, AZ 85051 ",85051,0.5646010339260101,0.9100482165813446,0.5138141640043488,224000,https://www.zillow.com/homedetails/4201-W-Eva-St-Phoenix-AZ-85051/7746097_zpid/,33.5694,-112.149,6612,2018-02-07
9018879,23808777,"4021 W Roosevelt St, Phoenix, AZ 85009 ",85009,0.6144830882549286,0.8356358706951141,0.5134841104813299,179990,https://www.zillow.com/homedetails/4021-W-Roosevelt-St-Phoenix-AZ-85009/2092569655_zpid/,33.4585,-112.147,6508,2017-10-26
423069,23883604,"8502 N 54th Dr, Glendale, AZ 85302 ",85302,0.5615894198417664,0.9142502546310425,0.5134332700884343,199900,https://www.zillow.com/homedetails/8502-N-54th-Dr-Glendale-AZ-85302/7733696_zpid/,33.5606,-112.177,6601,2018-01-27
8975236,23887133,"3643 N 73rd Ave, Phoenix, AZ 85033 ",85033,0.5635428428649902,0.9110111892223358,0.5133938354561707,184000,https://www.zillow.com/homedetails/3643-N-73rd-Ave-Phoenix-AZ-85033/7468824_zpid/,33.4911,-112.21600000000001,6621,2018-02-16
419676,23882531,"5520 W Golden Ln, Glendale, AZ 85302 ",85302,0.5615894198417664,0.9136494994163513,0.513095892315949,192500,https://www.zillow.com/homedetails/5520-W-Golden-Ln-Glendale-AZ-85302/7733492_zpid/,33.5652,-112.179,6599,2018-01-25
9029692,23904310,"3614 N 64TH Dr, Phoenix, AZ 85033 ",85033,0.5686195343732834,0.9022514224052429,0.5130377836957019,159000,https://www.zillow.com/homedetails/3614-N-64TH-Dr-Phoenix-AZ-85033/7489243_zpid/,33.4902,-112.199,6622,2018-02-17
9026278,23865568,"8630 W El Caminito Dr, Peoria, AZ 85345 ",85345,0.5533951222896576,0.9264788329601288,0.5127088670647497,199999,https://www.zillow.com/homedetails/8630-W-El-Caminito-Dr-Peoria-AZ-85345/50187525_zpid/,33.5576,-112.24600000000001,6585,2018-01-11
834399,23856892,"3514 W Mariposa St, Phoenix, AZ 85019 ",85019,0.5841698944568634,0.8774823844432831,0.5125987919079895,195000,https://www.zillow.com/homedetails/3514-W-Mariposa-St-Phoenix-AZ-85019/7506769_zpid/,33.5079,-112.135,6560,2017-12-17
460884,23891543,"2908 N 53RD Pkwy, Phoenix, AZ 85031 ",85031,0.5691722482442856,0.900592029094696,0.5125919899507112,171900,https://www.zillow.com/homedetails/2908-N-53rd-Pkwy-Phoenix-AZ-85031/7497221_zpid/,33.4825,-112.177,6621,2018-02-16
1343658,23882378,"4601 W Palmaire Ave, Glendale, AZ 85301 ",85301,0.5848188251256943,0.8764933347702026,0.5125898022708117,139900,https://www.zillow.com/homedetails/4601-W-Palmaire-Ave-Glendale-AZ-85301/7725526_zpid/,33.5405,-112.15799999999999,6614,2018-02-09
8999379,22680357,"9308 W Glen Oaks Cir, Sun City, AZ 85351 ",85351,0.6719952523708344,0.762760192155838,0.5125712278261885,249800,https://www.zillow.com/homedetails/9308-W-Glen-Oaks-Cir-Sun-City-AZ-85351/7922796_zpid/,33.6312,-112.26,6465,2017-09-13
1414901,23883364,"7410 W Krall St, Glendale, AZ 85303 ",85303,0.5608111917972565,0.9138745665550232,0.5125110848229237,195990,https://www.zillow.com/homedetails/7410-W-Krall-St-Glendale-AZ-85303/7706717_zpid/,33.5339,-112.219,6620,2018-02-15
501068,23853288,"7426 W Monte Vista Rd, Phoenix, AZ 85035 ",85035,0.5956290066242218,0.8604353666305542,0.5125002626905051,155000,https://www.zillow.com/homedetails/7426-W-Monte-Vista-Rd-Phoenix-AZ-85035/7474922_zpid/,33.471,-112.22,6528,2017-11-15
429226,23877812,"6336 W Osborn Rd, Phoenix, AZ 85033 ",85033,0.5713617205619812,0.8969126343727112,0.5124615459689714,115000,https://www.zillow.com/homedetails/6336-W-Osborn-Rd-Phoenix-AZ-85033/55257200_zpid/,33.4879,-112.197,6600,2018-01-26
470861,22224283,"4135 N 29th Dr, Phoenix, AZ 85017 ",85017,0.7157987356185913,0.7158351838588715,0.512393919517482,125000,https://www.zillow.com/homedetails/4135-N-29th-Dr-Phoenix-AZ-85017/64623257_zpid/,33.4965,-112.12200000000001,6321,2017-04-22
423608,23883662,"8813 N 55th Dr, Glendale, AZ 85302 ",85302,0.5615894198417664,0.9121151268482208,0.5122342049155915,194900,https://www.zillow.com/homedetails/8813-N-55th-Dr-Glendale-AZ-85302/7733371_zpid/,33.5657,-112.178,6603,2018-01-29
8996766,23877743,"4641 N 71st Ave, Phoenix, AZ 85033 ",85033,0.5675707161426544,0.9022347629070282,0.51208203051194,161899,https://www.zillow.com/homedetails/4641-N-71st-Ave-Phoenix-AZ-85033/7716870_zpid/,33.5051,-112.211,6612,2018-02-07
9011933,22678376,"7934 W Mitchell Dr, Phoenix, AZ 85033 ",85033,0.6144767999649048,0.8333331346511841,0.5120638778851827,155000,https://www.zillow.com/homedetails/7934-W-Mitchell-Dr-Phoenix-AZ-85033/7478637_zpid/,33.4893,-112.23,6464,2017-09-12
9019232,23843081,"3428 E Sheridan St, Phoenix, AZ 85008 ",85008,0.6427682340145111,0.7965491116046906,0.5119964657719747,240000,https://www.zillow.com/homedetails/3428-E-Sheridan-St-Phoenix-AZ-85008/7541233_zpid/,33.4752,-112.007,6540,2017-11-27
402356,23882339,"11811 N 51st Dr, Glendale, AZ 85304 ",85304,0.5579095929861069,0.9172276258468628,0.5117300914118363,189500,https://www.zillow.com/homedetails/11811-N-51st-Dr-Glendale-AZ-85304/60978616_zpid/,33.5933,-112.169,6583,2018-01-09
395883,23835126,"3830 W Sharon Ave, Phoenix, AZ 85029 ",85029,0.6059258878231049,0.8444187641143799,0.5116551893404946,179900,https://www.zillow.com/homedetails/3830-W-Sharon-Ave-Phoenix-AZ-85029/7741516_zpid/,33.6095,-112.14200000000001,6530,2017-11-17
381684,22380395,"3111 W Laurie Ln, Phoenix, AZ 85051 ",85051,0.6544812023639679,0.7817588746547699,0.5116464882427563,229900,https://www.zillow.com/homedetails/3111-W-Laurie-Ln-Phoenix-AZ-85051/7754882_zpid/,33.5587,-112.126,6403,2017-07-13
9013905,22694429,"2418 E Dahlia Dr, Phoenix, AZ 85032 ",85032,0.646516352891922,0.7913891673088074,0.5116460381666652,225000,https://www.zillow.com/homedetails/2418-E-Dahlia-Dr-Phoenix-AZ-85032/7820474_zpid/,33.6034,-112.03,6470,2017-09-18
7564801,23760240,"9711 W Alabama Ave, Sun City, AZ 85351 ",85351,0.6518106460571289,0.7849396467208862,0.5116320182449954,199900,https://www.zillow.com/homedetails/9711-W-Alabama-Ave-Sun-City-AZ-85351/7685981_zpid/,33.5933,-112.266,6502,2017-10-20
320086,23872996,"2323 E Harvard St, Phoenix, AZ 85006 ",85006,0.5944792032241821,0.8605888783931732,0.5116021907307662,145000,https://www.zillow.com/homedetails/2323-E-Harvard-St-Phoenix-AZ-85006/7531217_zpid/,33.4737,-112.031,6606,2018-02-01
342822,22678663,"1925 W Holly St, Phoenix, AZ 85009 ",85009,0.6758599877357483,0.7566899657249451,0.5114164709546252,160000,https://www.zillow.com/homedetails/1925-W-Holly-St-Phoenix-AZ-85009/7519786_zpid/,33.4699,-112.102,6467,2017-09-15
9023943,23874154,"3643 E Winchcomb Dr, Phoenix, AZ 85032 ",85032,0.5787366628646851,0.8833662271499634,0.5112364223881372,242500,https://www.zillow.com/homedetails/3643-E-Winchcomb-Dr-Phoenix-AZ-85032/8012851_zpid/,33.6168,-112.00299999999999,6613,2018-02-08
9023068,23823620,"15224 N 30TH St, Phoenix, AZ 85032 ",85032,0.6701483428478241,0.7628622055053711,0.5112308428406607,229000,https://www.zillow.com/homedetails/15224-N-30th-St-Phoenix-AZ-85032/8011594_zpid/,33.6253,-112.01799999999999,6520,2017-11-07
433351,23887142,"7256 W College Dr, Phoenix, AZ 85033 ",85033,0.5640458315610886,0.9062414765357971,0.5111617272277824,185000,https://www.zillow.com/homedetails/7256-W-College-Dr-Phoenix-AZ-85033/7710678_zpid/,33.5085,-112.21600000000001,6621,2018-02-16
337572,23850351,"2307 W Alice Ave, Phoenix, AZ 85021 ",85021,0.6043932437896729,0.8457302153110504,0.5111536282027842,211900,https://www.zillow.com/homedetails/2307-W-Alice-Ave-Phoenix-AZ-85021/7782260_zpid/,33.5637,-112.109,6551,2017-12-08
227870,23879803,"1420 W Michelle Dr, Phoenix, AZ 85023 ",85023,0.5602017343044281,0.9119976758956909,0.5109026797183738,242000,https://www.zillow.com/homedetails/1420-W-Michelle-Dr-Phoenix-AZ-85023/7956946_zpid/,33.6498,-112.09100000000001,6618,2018-02-13
389338,23787313,"3912 W Townley Ave, Phoenix, AZ 85051 ",85051,0.6716900765895844,0.7606074810028076,0.5108924971693867,184900,https://www.zillow.com/homedetails/3912-W-Townley-Ave-Phoenix-AZ-85051/7754475_zpid/,33.5662,-112.14399999999999,6291,2017-03-23
237433,23843870,"2957 W Michelle Dr, Phoenix, AZ 85053 ",85053,0.604848712682724,0.8445247411727905,0.510809702527073,225000,https://www.zillow.com/homedetails/2957-W-Michelle-Dr-Phoenix-AZ-85053/7940747_zpid/,33.6492,-112.124,6542,2017-11-29
1347162,23882429,"5008 W Ocotillo Rd, Glendale, AZ 85301 ",85301,0.5785543769598007,0.8823182582855225,0.510469090202637,149000,https://www.zillow.com/homedetails/5008-W-Ocotillo-Rd-Glendale-AZ-85301/7722436_zpid/,33.5354,-112.167,6609,2018-02-04
9026458,23868219,"3016 E Dahlia Dr, Phoenix, AZ 85032 ",85032,0.571259081363678,0.8926501274108887,0.5099344917639144,239900,https://www.zillow.com/homedetails/3016-E-Dahlia-Dr-Phoenix-AZ-85032/7815219_zpid/,33.6034,-112.01700000000001,6591,2018-01-17
650458,23872026,"2419 W Naranja Ave, Mesa, AZ 85202 ",85202,0.5477218627929688,0.9307225346565247,0.5097770804254651,218000,https://www.zillow.com/homedetails/2419-W-Naranja-Ave-Mesa-AZ-85202/8251330_zpid/,33.3643,-111.88600000000001,6603,2018-01-29
428369,23828377,"6211 W Clarendon Ave, Phoenix, AZ 85033 ",85033,0.6678791344165802,0.7632676362991333,0.5097705282596543,219000,https://www.zillow.com/homedetails/6211-W-Clarendon-Ave-Phoenix-AZ-85033/7496532_zpid/,33.4914,-112.193,6513,2017-10-31
522482,23866699,"9013 W Virginia Ave, Phoenix, AZ 85037 ",85037,0.557951807975769,0.9127859175205231,0.509290552975397,174900,https://www.zillow.com/homedetails/9013-W-Virginia-Ave-Phoenix-AZ-85037/7473884_zpid/,33.4743,-112.25399999999999,6583,2018-01-09
641977,23886870,"2135 W Plata Ave, Mesa, AZ 85202 ",85202,0.5563981980085373,0.9147309064865112,0.5089546280318107,209987,https://www.zillow.com/homedetails/2135-W-Plata-Ave-Mesa-AZ-85202/8171520_zpid/,33.3608,-111.88,6621,2018-02-16
9027960,23897448,"2739 E Schiliro Cir, Phoenix, AZ 85032 ",85032,0.5524485111236572,0.9202475249767303,0.5083893750386252,230000,https://www.zillow.com/homedetails/2739-E-Schiliro-Cir-Phoenix-AZ-85032/88787626_zpid/,33.641999999999996,-112.024,6612,2018-02-07
832662,23884685,"4236 W Palo Verde Dr, Phoenix, AZ 85019 ",85019,0.5721065700054169,0.8885428011417389,0.5083411742642054,219900,https://www.zillow.com/homedetails/4236-W-Palo-Verde-Dr-Phoenix-AZ-85019/7718989_zpid/,33.5232,-112.15100000000001,6576,2018-01-02
384323,23864506,"1344 W Joan De Arc Ave, Phoenix, AZ 85029 ",85029,0.5757465660572052,0.8827455639839172,0.5082377271659713,210000,https://www.zillow.com/homedetails/1344-W-Joan-De-Arc-Ave-Phoenix-AZ-85029/7784468_zpid/,33.6078,-112.089,6584,2018-01-10
211966,23872452,"1143 E Cheryl Dr, Phoenix, AZ 85020 ",85020,0.5638344585895538,0.9010526835918427,0.5080445520136712,220000,https://www.zillow.com/homedetails/1143-E-Cheryl-Dr-Phoenix-AZ-85020/7787536_zpid/,33.5784,-112.057,6605,2018-01-31
