property_id,transaction_id,address,zipcode,any_sell,good_sell,bayesian,list,url,lat,long,date_listed,transaction_date
9030467,23907928,"1105 S 6th Ave, Phoenix, AZ 85003 ",85003,0.34712202847003937,0.9976401031017303,0.34630285627173185,50000,https://www.zillow.com/homedetails/1105-S-6th-Ave-Phoenix-AZ-85003/2091048360_zpid/,33.437,-112.08200000000001,6619,2018-02-14
9034546,23940259,"10960 N 67th Ave LOT 77, Glendale, AZ 85304 ",85304,0.34712202847003937,0.9976401031017303,0.34630285627173185,51500,https://www.zillow.com/homedetails/10960-N-67th-Ave-LOT-77-Glendale-AZ-85304/2123701142_zpid/,33.5847,-112.205,6674,2018-04-10
9033237,23929791,"2405 S 90TH Gln, Tolleson, AZ 85353 ",85353,0.34712202847003937,0.9403159022331238,0.32640436338579715,210000,https://www.zillow.com/homedetails/2405-S-90TH-Gln-Tolleson-AZ-85353/67772731_zpid/,33.4252,-112.255,6633,2018-02-28
9033248,23941288,"8937 W Hess St, Tolleson, AZ 85353 ",85353,0.34712202847003937,0.9389660954475403,0.3259358157163428,199000,https://www.zillow.com/homedetails/8937-W-Hess-St-Tolleson-AZ-85353/62726927_zpid/,33.428000000000004,-112.25399999999999,6653,2018-03-20
362997,23929962,"9017 W Hilton Ave, Tolleson, AZ 85353 ",85353,0.34712202847003937,0.9382031559944153,0.3256709826257742,210000,https://www.zillow.com/homedetails/9017-W-Hilton-Ave-Tolleson-AZ-85353/62726889_zpid/,33.4271,-112.25399999999999,6638,2018-03-05
1113596,23885766,"1567 W Kesler Ln, Chandler, AZ 85224 ",85224,0.34712202847003937,0.9379844963550568,0.32559508104821555,245000,https://www.zillow.com/homedetails/1567-W-Kesler-Ln-Chandler-AZ-85224/8226104_zpid/,33.2918,-111.869,6596,2018-01-22
365838,23892504,"9923 W Whyman Ave, Tolleson, AZ 85353 ",85353,0.34712202847003937,0.9378055036067963,0.32553294872235794,224000,https://www.zillow.com/homedetails/9923-W-Whyman-Ave-Tolleson-AZ-85353/95149673_zpid/,33.4254,-112.274,6634,2018-03-01
354297,23929964,"8118 W Whyman Ave, Phoenix, AZ 85043 ",85043,0.34712202847003937,0.9377259612083435,0.32550533780365765,205000,https://www.zillow.com/homedetails/8118-W-Whyman-Ave-Phoenix-AZ-85043/52423847_zpid/,33.4273,-112.235,6640,2018-03-07
1112872,23885785,"1482 W Orchid Ln, Chandler, AZ 85224 ",85224,0.34712202847003937,0.9355435073375702,0.3247477599889925,249900,https://www.zillow.com/homedetails/1482-W-Orchid-Ln-Chandler-AZ-85224/8203452_zpid/,33.3237,-111.867,6614,2018-02-09
343269,23941092,"2230 S 63RD Dr, Phoenix, AZ 85043 ",85043,0.34712202847003937,0.9355187714099884,0.32473917360363425,197000,https://www.zillow.com/homedetails/2230-S-63RD-Dr-Phoenix-AZ-85043/55257493_zpid/,33.4273,-112.196,6654,2018-03-21
9024040,23873322,"2215 S 99TH Ln, Tolleson, AZ 85353 ",85353,0.34712202847003937,0.9353542923927307,0.324682079313523,213999,https://www.zillow.com/homedetails/2215-S-99TH-Ln-Tolleson-AZ-85353/95076703_zpid/,33.4261,-112.273,6610,2018-02-05
363090,23874641,"9025 W Hilton Ave, Tolleson, AZ 85353 ",85353,0.34712202847003937,0.9353323578834534,0.32467446536216915,189900,https://www.zillow.com/homedetails/9025-W-Hilton-Ave-Tolleson-AZ-85353/67772691_zpid/,33.4271,-112.25399999999999,6608,2018-02-03
352885,23929847,"7223 W Zak Rd, Phoenix, AZ 85043 ",85043,0.34712202847003937,0.9352678060531616,0.3246520579998968,179900,https://www.zillow.com/homedetails/7223-W-Zak-Rd-Phoenix-AZ-85043/52424200_zpid/,33.4269,-112.21600000000001,6646,2018-03-13
352694,23941236,"7205 W Hess Ave, Phoenix, AZ 85043 ",85043,0.34712202847003937,0.9352116286754608,0.3246325575945952,199900,https://www.zillow.com/homedetails/7205-W-Hess-Ave-Phoenix-AZ-85043/52424247_zpid/,33.4296,-112.215,6661,2018-03-28
41532,23941213,"6314 W Hilton Ave, Phoenix, AZ 85043 ",85043,0.34712202847003937,0.9351817965507507,0.32462220220695226,200000,https://www.zillow.com/homedetails/6314-W-Hilton-Ave-Phoenix-AZ-85043/53206229_zpid/,33.428000000000004,-112.196,6661,2018-03-28
40027,23874516,"2248 S 82ND Ln, Phoenix, AZ 85043 ",85043,0.34712202847003937,0.9351388216018677,0.3246072846555226,210000,https://www.zillow.com/homedetails/2248-S-82ND-Ln-Phoenix-AZ-85043/52423821_zpid/,33.4267,-112.238,6612,2018-02-07
353901,23941246,"8007 W Whyman Ave, Phoenix, AZ 85043 ",85043,0.34712202847003937,0.9349630773067474,0.3245462799393084,215000,https://www.zillow.com/homedetails/8007-W-Whyman-Ave-Phoenix-AZ-85043/38433056_zpid/,33.427,-112.23200000000001,6662,2018-03-29
1128437,23920629,"3298 N Ash Dr, Chandler, AZ 85224 ",85224,0.34712202847003937,0.9348148703575134,0.32449483404245694,240000,https://www.zillow.com/homedetails/3298-N-Ash-Dr-Chandler-AZ-85224/8191971_zpid/,33.3549,-111.87100000000001,6636,2018-03-03
43860,23874625,"8140 W Gibson Ln, Phoenix, AZ 85043 ",85043,0.34712202847003937,0.934441089630127,0.32436508651816354,214900,https://www.zillow.com/homedetails/8140-W-Gibson-Ln-Phoenix-AZ-85043/52423784_zpid/,33.4279,-112.236,6615,2018-02-10
354449,23889724,"8137 W Hess Ave, Phoenix, AZ 85043 ",85043,0.34712202847003937,0.9344348311424255,0.32436291405921747,205000,https://www.zillow.com/homedetails/8137-W-Hess-Ave-Phoenix-AZ-85043/40371664_zpid/,33.4291,-112.236,6624,2018-02-19
359281,23890314,"2013 S 86TH Ave, Tolleson, AZ 85353 ",85353,0.34712202847003937,0.9343656897544861,0.3243389135603847,211000,https://www.zillow.com/homedetails/2013-S-86TH-Ave-Tolleson-AZ-85353/59271375_zpid/,33.4287,-112.244,6624,2018-02-19
359527,23941084,"2430 S 83RD Dr, Tolleson, AZ 85353 ",85353,0.34712202847003937,0.9343323409557343,0.3243273374577149,195000,https://www.zillow.com/homedetails/2430-S-83RD-Dr-Tolleson-AZ-85353/59271226_zpid/,33.4258,-112.23899999999999,6663,2018-03-30
9027233,23895214,"8406 W Hamster Ln, Tolleson, AZ 85353 ",85353,0.34712202847003937,0.9339634776115417,0.32419929686545057,189000,https://www.zillow.com/homedetails/8406-W-Hamster-Ln-Tolleson-AZ-85353/58883271_zpid/,33.4288,-112.241,6614,2018-02-09
359511,23875667,"2422 S 84th Ln, Tolleson, AZ 85353 ",85353,0.34712202847003937,0.9336905181407928,0.3241045466202741,197500,https://www.zillow.com/homedetails/2422-S-84th-Ln-Tolleson-AZ-85353/59271244_zpid/,33.4258,-112.242,6605,2018-01-31
9033245,23929967,"8536 W Magnolia St, Tolleson, AZ 85353 ",85353,0.34712202847003937,0.9327041208744049,0.3237621464002882,230000,https://www.zillow.com/homedetails/8536-W-Magnolia-St-Tolleson-AZ-85353/59271181_zpid/,33.4238,-112.245,6643,2018-03-10
9026868,23897793,"1302 W Cortez Ct, Chandler, AZ 85224 ",85224,0.34712202847003937,0.932642012834549,0.3237405873315091,249500,https://www.zillow.com/homedetails/1302-W-Cortez-Ct-Chandler-AZ-85224/8172446_zpid/,33.3554,-111.86399999999999,6624,2018-02-19
361198,23929894,"8529 W Hughes Dr, Tolleson, AZ 85353 ",85353,0.34712202847003937,0.9325146377086639,0.3236963726194353,239900,https://www.zillow.com/homedetails/8529-W-Hughes-Dr-Tolleson-AZ-85353/59271124_zpid/,33.4249,-112.244,6635,2018-03-02
9026756,23893480,"1033 W Orchid Ln, Chandler, AZ 85224 ",85224,0.34712202847003937,0.9323464035987854,0.3236379748539564,249900,https://www.zillow.com/homedetails/1033-W-Orchid-Ln-Chandler-AZ-85224/8203649_zpid/,33.3236,-111.86,6619,2018-02-14
965657,23939562,"4724 W Del Rio St, Chandler, AZ 85226 ",85226,0.34712202847003937,0.9318774044513702,0.32347517491855493,230000,https://www.zillow.com/homedetails/4724-W-Del-Rio-St-Chandler-AZ-85226/8156655_zpid/,33.3162,-111.925,6668,2018-04-04
349674,23890334,"6325 W Magnolia St, Phoenix, AZ 85043 ",85043,0.34712202847003937,0.9318595826625824,0.32346898858307993,193000,https://www.zillow.com/homedetails/6325-W-Magnolia-St-Phoenix-AZ-85043/54948469_zpid/,33.4246,-112.197,6625,2018-02-20
361380,23886784,"8601 W Flavia Hvn, Tolleson, AZ 85353 ",85353,0.34712202847003937,0.9317108988761902,0.32341737716554686,245000,https://www.zillow.com/homedetails/8601-W-Flavia-Hvn-Tolleson-AZ-85353/59271170_zpid/,33.4241,-112.245,6621,2018-02-16
21550,23880121,"8329 W Gross Ave, Tolleson, AZ 85353 ",85353,0.34712202847003937,0.9315155148506165,0.32334955506625906,198000,https://www.zillow.com/homedetails/8329-W-Gross-Ave-Tolleson-AZ-85353/59271315_zpid/,33.4293,-112.24,6620,2018-02-15
9022216,23869757,"8333 W Watkins St, Tolleson, AZ 85353 ",85353,0.34712202847003937,0.9313892126083374,0.32330571277571885,190000,https://www.zillow.com/homedetails/8333-W-Watkins-St-Tolleson-AZ-85353/54886336_zpid/,33.4265,-112.24,6594,2018-01-20
962858,23920761,"4276 W Park Ave, Chandler, AZ 85226 ",85226,0.34712202847003937,0.9312695860862732,0.3232641877747211,215000,https://www.zillow.com/homedetails/4276-W-Park-Ave-Chandler-AZ-85226/8153857_zpid/,33.3215,-111.91799999999999,6635,2018-03-02
352675,23874598,"7143 W Zak Rd, Phoenix, AZ 85043 ",85043,0.34712202847003937,0.9312649965286255,0.32326259463816065,190000,https://www.zillow.com/homedetails/7143-W-Zak-Rd-Phoenix-AZ-85043/52424124_zpid/,33.4268,-112.214,6606,2018-02-01
354192,23874622,"8108 W Magnolia St, Phoenix, AZ 85043 ",85043,0.34712202847003937,0.9309919774532318,0.323167823702899,217000,https://www.zillow.com/homedetails/8108-W-Magnolia-St-Phoenix-AZ-85043/50884736_zpid/,33.425,-112.234,6613,2018-02-08
359526,23874541,"2429 S 83RD Dr, Tolleson, AZ 85353 ",85353,0.34712202847003937,0.9309733510017395,0.3231613580512738,209999,https://www.zillow.com/homedetails/2429-S-83RD-Dr-Tolleson-AZ-85353/59271229_zpid/,33.4258,-112.23899999999999,6600,2018-01-26
351354,23929786,"6558 W Nez Perce St, Phoenix, AZ 85043 ",85043,0.34712202847003937,0.9307169318199158,0.3230723493047405,185000,https://www.zillow.com/homedetails/6558-W-Nez-Perce-St-Phoenix-AZ-85043/54938704_zpid/,33.431999999999995,-112.20100000000001,6643,2018-03-10
9029090,23901746,"2331 W Comstock Dr, Chandler, AZ 85224 ",85224,0.34712202847003937,0.9306775331497192,0.32305867315842285,245000,https://www.zillow.com/homedetails/2331-W-Comstock-Dr-Chandler-AZ-85224/8201985_zpid/,33.3471,-111.882,6625,2018-02-20
972984,23921177,"5975 W Del Rio St, Chandler, AZ 85226 ",85226,0.34712202847003937,0.9305420219898224,0.3230116342497191,220000,https://www.zillow.com/homedetails/5975-W-Del-Rio-St-Chandler-AZ-85226/8262022_zpid/,33.3128,-111.945,6648,2018-03-15
350370,23890327,"6417 W Preston Ln, Phoenix, AZ 85043 ",85043,0.34712202847003937,0.9305073320865631,0.32299959262013234,203800,https://www.zillow.com/homedetails/6417-W-Preston-Ln-Phoenix-AZ-85043/55257431_zpid/,33.4233,-112.199,6626,2018-02-21
959786,23890197,"3817 W Folley St, Chandler, AZ 85226 ",85226,0.34712202847003937,0.9305049777030945,0.3229987753617669,235000,https://www.zillow.com/homedetails/3817-W-Folley-St-Chandler-AZ-85226/8156123_zpid/,33.2977,-111.90799999999999,6625,2018-02-20
1126522,23920569,"2802 N Pennington Dr, Chandler, AZ 85224 ",85224,0.34712202847003937,0.9300896227359772,0.32285459650304604,249000,https://www.zillow.com/homedetails/2802-N-Pennington-Dr-Chandler-AZ-85224/8176474_zpid/,33.3465,-111.87100000000001,6634,2018-03-01
973060,23891307,"600 N Aspen Dr, Chandler, AZ 85226 ",85226,0.34712202847003937,0.9300845265388489,0.3228528275007614,223900,https://www.zillow.com/homedetails/600-N-Aspen-Dr-Chandler-AZ-85226/8262023_zpid/,33.3128,-111.945,6624,2018-02-19
43394,23929854,"7910 W Winslow Ave, Phoenix, AZ 85043 ",85043,0.34712202847003937,0.9298352897167206,0.3227663119094948,239950,https://www.zillow.com/homedetails/7910-W-Winslow-Ave-Phoenix-AZ-85043/67764464_zpid/,33.4221,-112.23,6644,2018-03-11
39857,23889258,"1810 S 82nd Dr, Phoenix, AZ 85043 ",85043,0.34712202847003937,0.9294824600219727,0.3226438369501494,179900,https://www.zillow.com/homedetails/1810-S-82nd-Dr-Phoenix-AZ-85043/60047254_zpid/,33.4316,-112.238,6624,2018-02-19
1118177,23920469,"2027 N Villas Ln, Chandler, AZ 85224 ",85224,0.34712202847003937,0.9294341802597046,0.3226270779811369,220000,https://www.zillow.com/homedetails/2027-N-Villas-Ln-Chandler-AZ-85224/8199734_zpid/,33.3361,-111.87200000000001,6632,2018-02-27
1851930,23885755,"1315 W Manor St, Chandler, AZ 85224 ",85224,0.34712202847003937,0.929135262966156,0.3225233172038555,247500,https://www.zillow.com/homedetails/1315-W-Manor-St-Chandler-AZ-85224/8194266_zpid/,33.328,-111.86399999999999,6605,2018-01-31
1116516,23920475,"1806 N Arrowhead Dr, Chandler, AZ 85224 ",85224,0.34712202847003937,0.9287491738796234,0.3223892971769682,225000,https://www.zillow.com/homedetails/1806-N-Arrowhead-Dr-Chandler-AZ-85224/8193583_zpid/,33.3327,-111.866,6639,2018-03-06
9018003,23920413,"1842 W Alamo Dr, Chandler, AZ 85224 ",85224,0.34712202847003937,0.9282419681549072,0.3222132348969531,244000,https://www.zillow.com/homedetails/1842-W-Alamo-Dr-Chandler-AZ-85224/8199834_zpid/,33.3482,-111.875,6639,2018-03-06
9027265,23895296,"8555 W Sonora St, Tolleson, AZ 85353 ",85353,0.34712202847003937,0.9282396733760834,0.32221243832867286,190500,https://www.zillow.com/homedetails/8555-W-Sonora-St-Tolleson-AZ-85353/58494114_zpid/,33.4325,-112.244,6608,2018-02-03
350150,23874570,"6406 W Preston Ln, Phoenix, AZ 85043 ",85043,0.34712202847003937,0.928047388792038,0.3221456921138155,169900,https://www.zillow.com/homedetails/6406-W-Preston-Ln-Phoenix-AZ-85043/55257443_zpid/,33.4237,-112.198,6606,2018-02-01
6833,23886010,"3873 W Commonwealth Ave, Chandler, AZ 85226 ",85226,0.34712202847003937,0.9273581504821777,0.32190644231359755,230000,https://www.zillow.com/homedetails/3873-W-Commonwealth-Ave-Chandler-AZ-85226/55273361_zpid/,33.3027,-111.90899999999999,6618,2018-02-13
445581,23914884,"4654 N 84TH Ln, Phoenix, AZ 85037 ",85037,0.34712202847003937,0.9272110760211945,0.3218553895283649,199000,https://www.zillow.com/homedetails/4654-N-84TH-Ln-Phoenix-AZ-85037/7481170_zpid/,33.5052,-112.242,6647,2018-03-14
1092216,23939633,"716 W Palomino Dr, Chandler, AZ 85225 ",85225,0.34712202847003937,0.9269604980945587,0.3217684084101813,249999,https://www.zillow.com/homedetails/716-W-Palomino-Dr-Chandler-AZ-85225/8177692_zpid/,33.3408,-111.854,6657,2018-03-24
1078091,23885832,"2052 N Holguin Way, Chandler, AZ 85225 ",85225,0.34712202847003937,0.9269321858882904,0.32175858061971097,219000,https://www.zillow.com/homedetails/2052-N-Holguin-Way-Chandler-AZ-85225/60985138_zpid/,33.3362,-111.84899999999999,6593,2018-01-19
1115843,23930034,"1725 W Loughlin Dr, Chandler, AZ 85224 ",85224,0.34712202847003937,0.9267376959323883,0.3216910688717012,225000,https://www.zillow.com/homedetails/1725-W-Loughlin-Dr-Chandler-AZ-85224/8176421_zpid/,33.3451,-111.874,6655,2018-03-22
39873,23876462,"1904 S 82nd Dr, Phoenix, AZ 85043 ",85043,0.34712202847003937,0.9263969659805298,0.32157279399965155,207000,https://www.zillow.com/homedetails/1904-S-82nd-Dr-Phoenix-AZ-85043/58770129_zpid/,33.4313,-112.238,6619,2018-02-14
9026899,23893911,"1318 W Boxelder Ct, Chandler, AZ 85224 ",85224,0.34712202847003937,0.9253282248973846,0.32120181042696094,239900,https://www.zillow.com/homedetails/1318-W-Boxelder-Ct-Chandler-AZ-85224/8172413_zpid/,33.3542,-111.865,6604,2018-01-30
9005657,23871977,"10439 W Papago St, Tolleson, AZ 85353 ",85353,0.34712202847003937,0.9253234565258026,0.3212001552201449,220000,https://www.zillow.com/homedetails/10439-W-Papago-St-Tolleson-AZ-85353/125986296_zpid/,33.4338,-112.24600000000001,6603,2018-01-29
411584,23919818,"5226 W Shaw Butte Dr, Glendale, AZ 85304 ",85304,0.34712202847003937,0.9251532852649689,0.321141085026897,205000,https://www.zillow.com/homedetails/5226-W-Shaw-Butte-Dr-Glendale-AZ-85304/60978707_zpid/,33.596,-112.17200000000001,6655,2018-03-22
9031420,23913768,"15881 N 74TH Ave, Peoria, AZ 85382 ",85382,0.34712202847003937,0.9251471161842346,0.3211389436030787,235000,https://www.zillow.com/homedetails/15881-N-74TH-Ave-Peoria-AZ-85382/71605894_zpid/,33.6293,-112.21799999999999,6653,2018-03-20
402846,23919717,"12115 N 66TH Ave, Glendale, AZ 85304 ",85304,0.34712202847003937,0.924903929233551,0.32105452805546,229990,https://www.zillow.com/homedetails/12115-N-66TH-Ave-Glendale-AZ-85304/67401338_zpid/,33.5959,-112.20100000000001,6646,2018-03-13
40196,23874530,"2907 S 71st Dr, Phoenix, AZ 85043 ",85043,0.34712202847003937,0.9246345162391663,0.32096100887035295,240000,https://www.zillow.com/homedetails/2907-S-71st-Dr-Phoenix-AZ-85043/71604365_zpid/,33.4222,-112.213,6613,2018-02-08
1108960,23920279,"1170 W Butler Dr, Chandler, AZ 85224 ",85224,0.34712202847003937,0.9244892001152039,0.3209105664426337,249900,https://www.zillow.com/homedetails/1170-W-Butler-Dr-Chandler-AZ-85224/8207445_zpid/,33.3013,-111.86200000000001,6642,2018-03-09
1123841,23911895,"2713 W Estrella Dr, Chandler, AZ 85224 ",85224,0.34712202847003937,0.9238638281822205,0.3206934860687083,218700,https://www.zillow.com/homedetails/2713-W-Estrella-Dr-Chandler-AZ-85224/8193175_zpid/,33.3327,-111.889,6646,2018-03-13
44030,23941268,"8228 W Mohave St, Phoenix, AZ 85043 ",85043,0.34712202847003937,0.9237941801548004,0.3206693097041513,191500,https://www.zillow.com/homedetails/8228-W-Mohave-St-Phoenix-AZ-85043/60047250_zpid/,33.4324,-112.238,6665,2018-04-01
525211,23915067,"9201 W Cambridge Ave, Phoenix, AZ 85037 ",85037,0.34712202847003937,0.9237236082553864,0.3206448126432737,239000,https://www.zillow.com/homedetails/9201-W-Cambridge-Ave-Phoenix-AZ-85037/60974862_zpid/,33.4763,-112.257,6640,2018-03-07
349981,23889261,"6342 W Whyman Ave, Phoenix, AZ 85043 ",85043,0.34712202847003937,0.9232467114925385,0.32047927127158315,179900,https://www.zillow.com/homedetails/6342-W-Whyman-Ave-Phoenix-AZ-85043/53206189_zpid/,33.4274,-112.198,6624,2018-02-19
1111311,23885718,"1319 W Straford Dr, Chandler, AZ 85224 ",85224,0.34712202847003937,0.9231512546539307,0.3204461361001343,209000,https://www.zillow.com/homedetails/1319-W-Straford-Dr-Chandler-AZ-85224/8172355_zpid/,33.353,-111.865,6618,2018-02-13
9029861,23905103,"8642 W Echo Ln, Peoria, AZ 85345 ",85345,0.34712202847003937,0.922843724489212,0.3203393856055414,185000,https://www.zillow.com/homedetails/8642-W-Echo-Ln-Peoria-AZ-85345/50187500_zpid/,33.5583,-112.24600000000001,6617,2018-02-12
634391,23941763,"1814 W Onza Ave, Mesa, AZ 85202 ",85202,0.34712202847003937,0.9225680828094482,0.32024370430653093,239900,https://www.zillow.com/homedetails/1814-W-Onza-Ave-Mesa-AZ-85202/8191340_zpid/,33.3622,-111.87299999999999,6668,2018-04-04
501561,23888074,"7826 W Palm Ln, Phoenix, AZ 85035 ",85035,0.34712202847003937,0.9224913716316223,0.32021707616687767,172000,https://www.zillow.com/homedetails/7826-W-Palm-Ln-Phoenix-AZ-85035/95097689_zpid/,33.469,-112.228,6622,2018-02-17
1113152,23930028,"1516 W Cheyenne Dr, Chandler, AZ 85224 ",85224,0.34712202847003937,0.9223503172397614,0.3201681130802503,205000,https://www.zillow.com/homedetails/1516-W-Cheyenne-Dr-Chandler-AZ-85224/8176581_zpid/,33.3469,-111.869,6656,2018-03-23
351880,23929813,"6625 W Polk St, Phoenix, AZ 85043 ",85043,0.34712202847003937,0.9222643375396729,0.3201382676323483,178000,https://www.zillow.com/homedetails/6625-W-Polk-St-Phoenix-AZ-85043/67788414_zpid/,33.453,-112.20200000000001,6651,2018-03-18
1126602,23890192,"2807 N Central Dr, Chandler, AZ 85224 ",85224,0.34712202847003937,0.9221253395080566,0.32009001835366035,180000,https://www.zillow.com/homedetails/2807-N-Central-Dr-Chandler-AZ-85224/8199127_zpid/,33.3475,-111.866,6625,2018-02-20
1094758,23892220,"818 W Nopal Pl, Chandler, AZ 85225 ",85225,0.34712202847003937,0.9221072494983673,0.32008373891280195,249990,https://www.zillow.com/homedetails/818-W-Nopal-Pl-Chandler-AZ-85225/8177792_zpid/,33.3423,-111.85799999999999,6627,2018-02-22
1374748,23938379,"8975 W Nicolet Ave, Glendale, AZ 85305 ",85305,0.34712202847003937,0.9220024645328522,0.3200473657430192,225000,https://www.zillow.com/homedetails/8975-W-Nicolet-Ave-Glendale-AZ-85305/95133442_zpid/,33.541,-112.25200000000001,6662,2018-03-29
1120647,23919574,"2302 W Ironwood Dr, Chandler, AZ 85224 ",85224,0.34712202847003937,0.9218828082084656,0.32000583039697883,240000,https://www.zillow.com/homedetails/2302-W-Ironwood-Dr-Chandler-AZ-85224/8193050_zpid/,33.3247,-111.882,6656,2018-03-23
9031745,23915938,"754 E Rosemonte Dr, Phoenix, AZ 85024 ",85024,0.34712202847003937,0.9217845797538757,0.3199717331365681,249999,https://www.zillow.com/homedetails/754-E-Rosemonte-Dr-Phoenix-AZ-85024/7997468_zpid/,33.6572,-112.064,6656,2018-03-23
446025,23914909,"4721 N 91ST Ln, Phoenix, AZ 85037 ",85037,0.34712202847003937,0.9213021397590637,0.3198042675869539,179900,https://www.zillow.com/homedetails/4721-N-91ST-Ln-Phoenix-AZ-85037/7466510_zpid/,33.5063,-112.256,6643,2018-03-10
478050,23914790,"1807 N 77TH Dr, Phoenix, AZ 85035 ",85035,0.34712202847003937,0.9212523102760315,0.31978697067572615,189900,https://www.zillow.com/homedetails/1807-N-77TH-Dr-Phoenix-AZ-85035/95087672_zpid/,33.4676,-112.225,6646,2018-03-13
445506,23891936,"4646 N 84TH Ln, Phoenix, AZ 85037 ",85037,0.34712202847003937,0.9212350845336914,0.31978099124110315,198000,https://www.zillow.com/homedetails/4646-N-84TH-Ln-Phoenix-AZ-85037/7481172_zpid/,33.505,-112.242,6627,2018-02-22
830487,23937786,"3817 W Oregon Ave, Phoenix, AZ 85019 ",85019,0.34712202847003937,0.9209252595901489,0.31967344417823007,174500,https://www.zillow.com/homedetails/3817-W-Oregon-Ave-Phoenix-AZ-85019/50188137_zpid/,33.5143,-112.141,6662,2018-03-29
9032281,23920178,"7006 W Kings Ave, Peoria, AZ 85382 ",85382,0.34712202847003937,0.9208856225013733,0.3196596852715716,225000,https://www.zillow.com/homedetails/7006-W-Kings-Ave-Peoria-AZ-85382/7903074_zpid/,33.6345,-112.21,6639,2018-03-06
40028,23875647,"2304 S 66TH Ln, Phoenix, AZ 85043 ",85043,0.34712202847003937,0.9208646714687347,0.3196524127066236,219900,https://www.zillow.com/homedetails/2304-S-66TH-Ln-Phoenix-AZ-85043/67773205_zpid/,33.427,-112.204,6617,2018-02-12
436257,23914816,"2352 N 84TH Dr, Phoenix, AZ 85037 ",85037,0.34712202847003937,0.9207424521446228,0.3196099876869196,190000,https://www.zillow.com/homedetails/2352-N-84TH-Dr-Phoenix-AZ-85037/82818698_zpid/,33.4735,-112.241,6640,2018-03-07
22091,23889710,"8335 W Lewis Ave, Phoenix, AZ 85037 ",85037,0.34712202847003937,0.9206930696964264,0.31959284595133086,184900,https://www.zillow.com/homedetails/8335-W-Lewis-Ave-Phoenix-AZ-85037/81996643_zpid/,33.4736,-112.23899999999999,6625,2018-02-20
8969922,23914756,"9626 W Sunnyslope Ln, Peoria, AZ 85345 ",85345,0.34712202847003937,0.9206836223602295,0.31958956657282656,235000,https://www.zillow.com/homedetails/9626-W-Sunnyslope-Ln-Peoria-AZ-85345/7697901_zpid/,33.5693,-112.26700000000001,6649,2018-03-16
9031561,23914546,"8741 W Port Au Prince Ln, Peoria, AZ 85381 ",85381,0.34712202847003937,0.9206422865390778,0.3195752179987399,239900,https://www.zillow.com/homedetails/8741-W-Port-Au-Prince-Ln-Peoria-AZ-85381/7909203_zpid/,33.6228,-112.24700000000001,6655,2018-03-22
1375062,23920152,"9054 W Nicolet Ave, Glendale, AZ 85305 ",85305,0.34712202847003937,0.9205693900585175,0.31954991402453947,245000,https://www.zillow.com/homedetails/9054-W-Nicolet-Ave-Glendale-AZ-85305/95083641_zpid/,33.5409,-112.25399999999999,6642,2018-03-09
9029597,23903877,"9147 W Minnezona Ave, Phoenix, AZ 85037 ",85037,0.34712202847003937,0.9205218553543091,0.31953341368159194,249990,https://www.zillow.com/homedetails/9147-W-Minnezona-Ave-Phoenix-AZ-85037/2091007381_zpid/,33.5024,-112.251,6622,2018-02-17
1409638,23920035,"7005 W Cactus Wren Dr, Glendale, AZ 85303 ",85303,0.34712202847003937,0.9203227162361145,0.3194642881069365,230000,https://www.zillow.com/homedetails/7005-W-Cactus-Wren-Dr-Glendale-AZ-85303/55260444_zpid/,33.5388,-112.21,6648,2018-03-15
9032286,23938295,"7114 N 72nd Ave, Glendale, AZ 85303 ",85303,0.34712202847003937,0.9202822744846344,0.31945024988412785,215000,https://www.zillow.com/homedetails/7114-N-72nd-Ave-Glendale-AZ-85303/2090897811_zpid/,33.5392,-112.214,6660,2018-03-27
9029967,23940804,"8765 W Port Au Prince Ln, Peoria, AZ 85381 ",85381,0.34712202847003937,0.9202752411365509,0.31944780845407417,249500,https://www.zillow.com/homedetails/8765-W-Port-Au-Prince-Ln-Peoria-AZ-85381/7909199_zpid/,33.623000000000005,-112.24799999999999,6627,2018-02-22
423474,23920179,"8651 N 57TH Dr, Glendale, AZ 85302 ",85302,0.34712202847003937,0.9202620387077332,0.3194432256002022,245000,https://www.zillow.com/homedetails/8651-N-57TH-Dr-Glendale-AZ-85302/55260816_zpid/,33.5631,-112.182,6639,2018-03-06
448361,23888250,"8402 W Coolidge St, Phoenix, AZ 85037 ",85037,0.34712202847003937,0.9202314615249634,0.3194326115864943,183500,https://www.zillow.com/homedetails/8402-W-Coolidge-St-Phoenix-AZ-85037/7481009_zpid/,33.5049,-112.24,6622,2018-02-17
1414034,23890084,"7334 W Lamar Rd, Glendale, AZ 85303 ",85303,0.34712202847003937,0.9202090799808502,0.3194248424595014,226000,https://www.zillow.com/homedetails/7334-W-Lamar-Rd-Glendale-AZ-85303/50188064_zpid/,33.5354,-112.21799999999999,6625,2018-02-20
351665,23889721,"6616 W Johnson St, Phoenix, AZ 85043 ",85043,0.34712202847003937,0.9201764464378357,0.31941351463785406,180000,https://www.zillow.com/homedetails/6616-W-Johnson-St-Phoenix-AZ-85043/67788378_zpid/,33.4544,-112.20200000000001,6625,2018-02-20
522131,23915056,"9008 W Pinchot Ave, Phoenix, AZ 85037 ",85037,0.34712202847003937,0.920038104057312,0.3193654929501033,199000,https://www.zillow.com/homedetails/9008-W-Pinchot-Ave-Phoenix-AZ-85037/55257098_zpid/,33.4824,-112.25299999999999,6654,2018-03-21
9031395,23913606,"11812 N 76TH Ln, Peoria, AZ 85345 ",85345,0.34712202847003937,0.9200252592563629,0.31936103423674256,195000,https://www.zillow.com/homedetails/11812-N-76TH-Ln-Peoria-AZ-85345/7680546_zpid/,33.5924,-112.22399999999999,6647,2018-03-14
1409899,23920128,"7018 N 77TH Dr, Glendale, AZ 85303 ",85303,0.34712202847003937,0.9198466241359711,0.31929902605139615,204900,https://www.zillow.com/homedetails/7018-N-77TH-Dr-Glendale-AZ-85303/55260188_zpid/,33.5385,-112.226,6652,2018-03-19
1408259,23883188,"6919 N 73rd Dr, Glendale, AZ 85303 ",85303,0.34712202847003937,0.9198238849639893,0.3192911327838921,214000,https://www.zillow.com/homedetails/6919-N-73rd-Dr-Glendale-AZ-85303/7706959_zpid/,33.5365,-112.21600000000001,6608,2018-02-03
972334,23939582,"58 S Tercera Pl, Chandler, AZ 85226 ",85226,0.34712202847003937,0.919753760099411,0.3192667908986535,239900,https://www.zillow.com/homedetails/58-S-Tercera-Pl-Chandler-AZ-85226/55273356_zpid/,33.3023,-111.90799999999999,6663,2018-03-30
413457,23938220,"6021 W Shangri La Rd, Glendale, AZ 85304 ",85304,0.34712202847003937,0.9197497367858887,0.31926539431790246,225000,https://www.zillow.com/homedetails/6021-W-Shangri-La-Rd-Glendale-AZ-85304/7698519_zpid/,33.586999999999996,-112.189,6662,2018-03-29
650458,23872026,"2419 W Naranja Ave, Mesa, AZ 85202 ",85202,0.34712202847003937,0.9196702241897583,0.31923779374424477,218000,https://www.zillow.com/homedetails/2419-W-Naranja-Ave-Mesa-AZ-85202/8251330_zpid/,33.3643,-111.88600000000001,6603,2018-01-29
359312,23869360,"2024 S 85TH Ln, Tolleson, AZ 85353 ",85353,0.34712202847003937,0.919646829366684,0.3192296728858035,185000,https://www.zillow.com/homedetails/2024-S-85th-Ln-Tolleson-AZ-85353/59271383_zpid/,33.4284,-112.244,6595,2018-01-21
1406713,23920009,"6787 N 79TH Dr, Glendale, AZ 85303 ",85303,0.34712202847003937,0.91952845454216,0.319188582376595,229900,https://www.zillow.com/homedetails/6787-N-79TH-Dr-Glendale-AZ-85303/60974481_zpid/,33.5353,-112.229,6655,2018-03-22
9029845,23913752,"17748 N 89TH Dr, Peoria, AZ 85382 ",85382,0.34712202847003937,0.9194901585578918,0.31917528899685355,241900,https://www.zillow.com/homedetails/17748-N-89TH-Dr-Peoria-AZ-85382/81952280_zpid/,33.6443,-112.251,6638,2018-03-05
10609,23938177,"5166 W Laurel Ave, Glendale, AZ 85304 ",85304,0.34712202847003937,0.9194690883159637,0.3191679750517351,215000,https://www.zillow.com/homedetails/5166-W-Laurel-Ave-Glendale-AZ-85304/60978642_zpid/,33.5946,-112.17,6664,2018-03-31
483296,23891539,"2625 N 73RD Dr, Phoenix, AZ 85035 ",85035,0.34712202847003937,0.9194018244743347,0.31914462629058615,205000,https://www.zillow.com/homedetails/2625-N-73rd-Dr-Phoenix-AZ-85035/95093273_zpid/,33.4771,-112.21600000000001,6623,2018-02-18
9031526,23914320,"7927 W Shaw Butte Dr, Peoria, AZ 85345 ",85345,0.34712202847003937,0.919318675994873,0.3191157636217312,210000,https://www.zillow.com/homedetails/7927-W-Shaw-Butte-Dr-Peoria-AZ-85345/7680685_zpid/,33.5949,-112.23,6655,2018-03-22
401213,23919676,"11039 N 59TH Dr, Glendale, AZ 85304 ",85304,0.34712202847003937,0.9192611277103424,0.31909578734446997,231900,https://www.zillow.com/homedetails/11039-N-59TH-Dr-Glendale-AZ-85304/7698624_zpid/,33.586999999999996,-112.18700000000001,6655,2018-03-22
523764,23888833,"9034 W Avalon Dr, Phoenix, AZ 85037 ",85037,0.34712202847003937,0.9189963638782501,0.3190038819860086,180000,https://www.zillow.com/homedetails/9034-W-Avalon-Dr-Phoenix-AZ-85037/54948475_zpid/,33.4832,-112.25399999999999,6623,2018-02-18
9032259,23919953,"19410 N 75TH Dr, Glendale, AZ 85308 ",85308,0.34712202847003937,0.9189378619194031,0.31898357466738414,240000,https://www.zillow.com/homedetails/19410-N-75TH-Dr-Glendale-AZ-85308/8101537_zpid/,33.6602,-112.221,6656,2018-03-23
9029849,23914454,"8531 W Mission Ln, Peoria, AZ 85345 ",85345,0.34712202847003937,0.9188275635242462,0.3189452876647203,214000,https://www.zillow.com/homedetails/8531-W-Mission-Ln-Peoria-AZ-85345/7697188_zpid/,33.5689,-112.243,6655,2018-03-22
9029821,23904953,"8011 N 87th Dr, Peoria, AZ 85345 ",85345,0.34712202847003937,0.91878941655159,0.31893204601019187,214900,https://www.zillow.com/homedetails/8011-N-87th-Dr-Peoria-AZ-85345/50187488_zpid/,33.5525,-112.24700000000001,6614,2018-02-09
7529744,23939322,"2316 W Mcnair St, Chandler, AZ 85224 ",85224,0.34712202847003937,0.9182352423667908,0.31873967994303865,249900,https://www.zillow.com/homedetails/2316-W-Mcnair-St-Chandler-AZ-85224/8197005_zpid/,33.3514,-111.885,6658,2018-03-25
9034698,23941312,"8402 W Veliana Way, Tolleson, AZ 85353 ",85353,0.34712202847003937,0.9181386530399323,0.31870615165997096,211200,https://www.zillow.com/homedetails/8402-W-Veliana-Way-Tolleson-AZ-85353/58375295_zpid/,33.4239,-112.241,6669,2018-04-05
9029763,23905774,"7055 W Lincoln St, Peoria, AZ 85345 ",85345,0.34712202847003937,0.9180642366409302,0.3186803200885979,198000,https://www.zillow.com/homedetails/7055-W-Lincoln-St-Peoria-AZ-85345/63200896_zpid/,33.5844,-112.211,6620,2018-02-15
524624,23887143,"9123 W Cambridge Ave, Phoenix, AZ 85037 ",85037,0.34712202847003937,0.917683869600296,0.31854828630988985,232000,https://www.zillow.com/homedetails/9123-W-Cambridge-Ave-Phoenix-AZ-85037/60974866_zpid/,33.4764,-112.257,6620,2018-02-15
1472398,23914717,"9845 W Oraibi Dr, Peoria, AZ 85382 ",85382,0.34712202847003937,0.9175306260585785,0.31849509210083893,249000,https://www.zillow.com/homedetails/9845-W-Oraibi-Dr-Peoria-AZ-85382/7893585_zpid/,33.6613,-112.272,6655,2018-03-22
958181,23885961,"3473 W Barcelona Dr, Chandler, AZ 85226 ",85226,0.34712202847003937,0.9173882007598877,0.3184456531422519,209000,https://www.zillow.com/homedetails/3473-W-Barcelona-Dr-Chandler-AZ-85226/8263797_zpid/,33.3222,-111.902,6604,2018-01-30
350839,23886786,"6514 W Sonora St, Phoenix, AZ 85043 ",85043,0.34712202847003937,0.9172510504722595,0.3183980452562052,175000,https://www.zillow.com/homedetails/6514-W-Sonora-St-Phoenix-AZ-85043/7500079_zpid/,33.4338,-112.2,6621,2018-02-16
1466624,23913753,"17462 N 92ND Gln, Peoria, AZ 85382 ",85382,0.34712202847003937,0.9171548783779144,0.3183646618037339,224000,https://www.zillow.com/homedetails/17462-N-92ND-Gln-Peoria-AZ-85382/95142094_zpid/,33.6425,-112.259,6638,2018-03-05
1414408,23870613,"7359 N 70th Ave, Glendale, AZ 85303 ",85303,0.34712202847003937,0.9171387553215027,0.3183590651356871,174900,https://www.zillow.com/homedetails/7359-N-70th-Ave-Glendale-AZ-85303/7704942_zpid/,33.5441,-112.21,6598,2018-01-24
1409866,23920062,"7017 N 77TH Dr, Glendale, AZ 85303 ",85303,0.34712202847003937,0.917109489440918,0.3183489063038536,203900,https://www.zillow.com/homedetails/7017-N-77TH-Dr-Glendale-AZ-85303/55260208_zpid/,33.5385,-112.225,6652,2018-03-19
9029830,23904987,"9503 N 82nd Ln, Peoria, AZ 85345 ",85345,0.34712202847003937,0.9170268476009369,0.31832021950072287,189900,https://www.zillow.com/homedetails/9503-N-82nd-Ln-Peoria-AZ-85345/67765087_zpid/,33.571,-112.236,6621,2018-02-16
9026770,23893524,"1518 W Marlboro Dr, Chandler, AZ 85224 ",85224,0.34712202847003937,0.9169276654720306,0.31828579119894895,237500,https://www.zillow.com/homedetails/1518-W-Marlboro-Dr-Chandler-AZ-85224/8176555_zpid/,33.3476,-111.87,6591,2018-01-17
1357833,23920153,"7783 N 58TH Ave, Glendale, AZ 85301 ",85301,0.34712202847003937,0.9167497158050537,0.31822402094958235,219800,https://www.zillow.com/homedetails/7783-N-58TH-Ave-Glendale-AZ-85301/62728699_zpid/,33.5502,-112.18299999999999,6645,2018-03-12
1370616,23920014,"6750 N 89TH Ave, Glendale, AZ 85305 ",85305,0.34712202847003937,0.9165690243244171,0.3181612989562965,217700,https://www.zillow.com/homedetails/6750-N-89TH-Ave-Glendale-AZ-85305/7461686_zpid/,33.5333,-112.251,6630,2018-02-25
9026758,23893954,"8538 W Las Palmaritas Dr, Peoria, AZ 85345 ",85345,0.34712202847003937,0.9165006279945374,0.31813755708352875,198000,https://www.zillow.com/homedetails/8538-W-Las-Palmaritas-Dr-Peoria-AZ-85345/7683390_zpid/,33.5569,-112.243,6613,2018-02-08
398139,23888411,"4133 W Bloomfield Rd, Phoenix, AZ 85029 ",85029,0.34712202847003937,0.9163627028465271,0.3180896802263744,230000,https://www.zillow.com/homedetails/4133-W-Bloomfield-Rd-Phoenix-AZ-85029/7742616_zpid/,33.5986,-112.148,6622,2018-02-17
1413599,23870195,"7315 W Midway Ave, Glendale, AZ 85303 ",85303,0.34712202847003937,0.9163502156734467,0.31808534565352486,203000,https://www.zillow.com/homedetails/7315-W-Midway-Ave-Glendale-AZ-85303/95160837_zpid/,33.541,-112.21600000000001,6597,2018-01-23
41535,23889260,"6314 W Mohave St, Phoenix, AZ 85043 ",85043,0.34712202847003937,0.915979653596878,0.3179567153938323,190000,https://www.zillow.com/homedetails/6314-W-Mohave-St-Phoenix-AZ-85043/55257271_zpid/,33.431999999999995,-112.196,6623,2018-02-18
1414405,23883372,"7358 W Peppertree Ln, Glendale, AZ 85303 ",85303,0.34712202847003937,0.9159283936023712,0.3179389219205597,242000,https://www.zillow.com/homedetails/7358-W-Peppertree-Ln-Glendale-AZ-85303/50188040_zpid/,33.5376,-112.21700000000001,6600,2018-01-26
9031575,23914636,"9138 W John Cabot Rd, Peoria, AZ 85382 ",85382,0.34712202847003937,0.9155969023704529,0.3178238540117162,225000,https://www.zillow.com/homedetails/9138-W-John-Cabot-Rd-Peoria-AZ-85382/8104798_zpid/,33.6484,-112.256,6654,2018-03-21
7474886,23914732,"9316 W Palmer Dr, Peoria, AZ 85345 ",85345,0.34712202847003937,0.9155644178390503,0.31781257791528184,249000,https://www.zillow.com/homedetails/9316-W-Palmer-Dr-Peoria-AZ-85345/7697300_zpid/,33.5703,-112.26,6627,2018-02-22
1097216,23886156,"901 W Cheyenne Dr, Chandler, AZ 85225 ",85225,0.34712202847003937,0.9152246117591858,0.3176946237395528,240000,https://www.zillow.com/homedetails/901-W-Cheyenne-Dr-Chandler-AZ-85225/8176783_zpid/,33.3463,-111.85600000000001,6618,2018-02-13
526674,23915055,"9413 W Berkeley Rd, Phoenix, AZ 85037 ",85037,0.34712202847003937,0.9152094721794128,0.31768936845791185,249900,https://www.zillow.com/homedetails/9413-W-Berkeley-Rd-Phoenix-AZ-85037/60047080_zpid/,33.4677,-112.262,6650,2018-03-17
450725,23873992,"8746 W Granada Rd, Phoenix, AZ 85037 ",85037,0.34712202847003937,0.9151816368103027,0.31767970618812313,199900,https://www.zillow.com/homedetails/8746-W-Granada-Rd-Phoenix-AZ-85037/7487519_zpid/,33.4683,-112.249,6611,2018-02-06
9030022,23905699,"9131 N 95th Dr, Peoria, AZ 85345 ",85345,0.34712202847003937,0.9151167273521423,0.3176571746853396,230000,https://www.zillow.com/homedetails/9131-N-95th-Dr-Peoria-AZ-85345/7697835_zpid/,33.568000000000005,-112.264,6600,2018-01-26
9031657,23915259,"1122 E Villa Theresa Dr, Phoenix, AZ 85022 ",85022,0.34712202847003937,0.9149732887744904,0.3176073839953042,247500,https://www.zillow.com/homedetails/1122-E-Villa-Theresa-Dr-Phoenix-AZ-85022/8002659_zpid/,33.6538,-112.057,6648,2018-03-15
421947,23938263,"6440 W Delmonico Ln, Glendale, AZ 85302 ",85302,0.34712202847003937,0.9149190187454224,0.317588545672729,199900,https://www.zillow.com/homedetails/6440-W-Delmonico-Ln-Glendale-AZ-85302/7704490_zpid/,33.5648,-112.198,6663,2018-03-30
1884777,23888714,"8606 W Vogel Ave, Peoria, AZ 85345 ",85345,0.34712202847003937,0.9147284924983978,0.31752240981538504,225000,https://www.zillow.com/homedetails/8606-W-Vogel-Ave-Peoria-AZ-85345/7697101_zpid/,33.5717,-112.245,6614,2018-02-09
400927,23919688,"11014 N 59TH Ln, Glendale, AZ 85304 ",85304,0.34712202847003937,0.9146554172039032,0.317497043770929,235000,https://www.zillow.com/homedetails/11014-N-59TH-Ln-Glendale-AZ-85304/7698599_zpid/,33.5861,-112.18799999999999,6634,2018-03-01
1416563,23872427,"7608 W Peck Dr, Glendale, AZ 85303 ",85303,0.34712202847003937,0.9143409729003906,0.3173878932264529,249900,https://www.zillow.com/homedetails/7608-W-Peck-Dr-Glendale-AZ-85303/95094058_zpid/,33.5268,-112.22399999999999,6605,2018-01-31
9031713,23915791,"4130 W Muriel Dr, Glendale, AZ 85308 ",85308,0.34712202847003937,0.9143010675907135,0.31737404121441104,240000,https://www.zillow.com/homedetails/4130-W-Muriel-Dr-Glendale-AZ-85308/7947225_zpid/,33.6458,-112.149,6636,2018-03-03
956435,23939340,"243 S Rush Cir W, Chandler, AZ 85226 ",85226,0.34712202847003937,0.9142010807991028,0.3173393335964869,244750,https://www.zillow.com/homedetails/243-S-Rush-Cir-W-Chandler-AZ-85226/8166129_zpid/,33.2993,-111.932,6660,2018-03-27
423213,23920166,"8553 N 63RD Dr, Glendale, AZ 85302 ",85302,0.34712202847003937,0.9141824841499329,0.3173328782899043,222000,https://www.zillow.com/homedetails/8553-N-63RD-Dr-Glendale-AZ-85302/81980207_zpid/,33.5622,-112.195,6646,2018-03-13
1373435,23873994,"8759 W Peppertree Ln, Glendale, AZ 85305 ",85305,0.34712202847003937,0.9141765236854553,0.31733080928138424,240000,https://www.zillow.com/homedetails/8759-W-Peppertree-Ln-Glendale-AZ-85305/95158696_zpid/,33.5368,-112.24700000000001,6612,2018-02-07
9029867,23905119,"9707 W Caron Dr, Peoria, AZ 85345 ",85345,0.34712202847003937,0.9140138030052185,0.3172743253487864,206900,https://www.zillow.com/homedetails/9707-W-Caron-Dr-Peoria-AZ-85345/95113869_zpid/,33.5663,-112.26899999999999,6601,2018-01-27
407945,23938223,"6026 W Redfield Rd, Glendale, AZ 85306 ",85306,0.34712202847003937,0.9140089452266693,0.31727263910684256,175000,https://www.zillow.com/homedetails/6026-W-Redfield-Rd-Glendale-AZ-85306/7910698_zpid/,33.6138,-112.18799999999999,6663,2018-03-30
1410407,23890694,"7080 W Glenn Dr, Glendale, AZ 85303 ",85303,0.34712202847003937,0.9139099419116974,0.31723827287532425,234650,https://www.zillow.com/homedetails/7080-W-Glenn-Dr-Glendale-AZ-85303/55173602_zpid/,33.5399,-112.211,6626,2018-02-21
414666,23919968,"6513 W Mescal St, Glendale, AZ 85304 ",85304,0.34712202847003937,0.9139091968536377,0.31723801424925924,204900,https://www.zillow.com/homedetails/6513-W-Mescal-St-Glendale-AZ-85304/7699113_zpid/,33.586,-112.199,6648,2018-03-15
9031587,23914701,"9318 W Brown St, Peoria, AZ 85345 ",85345,0.34712202847003937,0.9138826429843903,0.31722879681630234,219900,https://www.zillow.com/homedetails/9318-W-Brown-St-Peoria-AZ-85345/7697571_zpid/,33.5757,-112.26100000000001,6635,2018-03-02
1859,23868513,"9128 W Alvarado St, Phoenix, AZ 85037 ",85037,0.34712202847003937,0.9138775765895844,0.3172270381590603,210000,https://www.zillow.com/homedetails/9128-W-Alvarado-St-Phoenix-AZ-85037/60047210_zpid/,33.4712,-112.257,6592,2018-01-18
1406510,23868833,"6760 N 77th Ave, Glendale, AZ 85303 ",85303,0.34712202847003937,0.91379114985466,0.3171970375355193,195000,https://www.zillow.com/homedetails/6760-N-77th-Ave-Glendale-AZ-85303/7463200_zpid/,33.5359,-112.225,6593,2018-01-19
9031552,23914473,"8540 W Shaw Butte Dr, Peoria, AZ 85345 ",85345,0.34712202847003937,0.9136107563972473,0.3171344189926595,235000,https://www.zillow.com/homedetails/8540-W-Shaw-Butte-Dr-Peoria-AZ-85345/7685370_zpid/,33.5951,-112.243,6641,2018-03-08
9034562,23940344,"15230 N 85TH Dr, Peoria, AZ 85381 ",85381,0.34712202847003937,0.9134196937084198,0.31706809692454874,220000,https://www.zillow.com/homedetails/15230-N-85TH-Dr-Peoria-AZ-85381/7908952_zpid/,33.6223,-112.245,6660,2018-03-27
9032285,23920247,"7579 W Wikieup Ln, Glendale, AZ 85308 ",85308,0.34712202847003937,0.9133717715740204,0.3170514620960474,249900,https://www.zillow.com/homedetails/7579-W-Wikieup-Ln-Glendale-AZ-85308/7892240_zpid/,33.6639,-112.221,6640,2018-03-07
423622,23892126,"8816 N 44TH Ln, Glendale, AZ 85302 ",85302,0.34712202847003937,0.9133698046207428,0.3170507793232358,209000,https://www.zillow.com/homedetails/8816-N-44TH-Ln-Glendale-AZ-85302/7731485_zpid/,33.565,-112.155,6627,2018-02-22
398063,23937418,"4126 W Wethersfield Rd, Phoenix, AZ 85029 ",85029,0.34712202847003937,0.9130879342556,0.3169529359103218,220000,https://www.zillow.com/homedetails/4126-W-Wethersfield-Rd-Phoenix-AZ-85029/7742649_zpid/,33.5976,-112.148,6666,2018-04-02
9031425,23913807,"19424 N 84TH Ave, Peoria, AZ 85382 ",85382,0.34712202847003937,0.9130311012268066,0.31693320791408297,235900,https://www.zillow.com/homedetails/19424-N-84TH-Ave-Peoria-AZ-85382/8102096_zpid/,33.6609,-112.24,6650,2018-03-17
421278,23938240,"6282 W Cochise Dr, Glendale, AZ 85302 ",85302,0.34712202847003937,0.9130115509033203,0.31692642156613715,239900,https://www.zillow.com/homedetails/6282-W-Cochise-Dr-Glendale-AZ-85302/7703782_zpid/,33.5807,-112.194,6662,2018-03-29
833199,23888418,"5269 N 42ND Ln, Phoenix, AZ 85019 ",85019,0.34712202847003937,0.9129400253295898,0.31690159346389635,209900,https://www.zillow.com/homedetails/5269-N-42ND-Ln-Phoenix-AZ-85019/55260747_zpid/,33.5158,-112.15,6622,2018-02-17
9034648,23940861,"8829 W Royal Palm Rd, Peoria, AZ 85345 ",85345,0.34712202847003937,0.9129176735877991,0.3168938346819461,247000,https://www.zillow.com/homedetails/8829-W-Royal-Palm-Rd-Peoria-AZ-85345/50187417_zpid/,33.5542,-112.249,6664,2018-03-31
9031493,23914127,"6868 W Cheryl Dr, Peoria, AZ 85345 ",85345,0.34712202847003937,0.9127955138683319,0.3168514303523273,225000,https://www.zillow.com/homedetails/6868-W-Cheryl-Dr-Peoria-AZ-85345/7702035_zpid/,33.5782,-112.20700000000001,6641,2018-03-08
9021871,23872703,"12120 N 89th Dr, Peoria, AZ 85345 ",85345,0.34712202847003937,0.9127147495746613,0.3168233952868804,239900,https://www.zillow.com/homedetails/12120-N-89th-Dr-Peoria-AZ-85345/7685583_zpid/,33.5947,-112.25200000000001,6606,2018-02-01
9031505,23914209,"7312 W Emile Zola Ave, Peoria, AZ 85381 ",85381,0.34712202847003937,0.9126780927181244,0.316810670884482,242000,https://www.zillow.com/homedetails/7312-W-Emile-Zola-Ave-Peoria-AZ-85381/7925066_zpid/,33.6077,-112.21700000000001,6656,2018-03-23
450133,23873086,"8659 W Palm Ln, Phoenix, AZ 85037 ",85037,0.34712202847003937,0.9126452207565308,0.31679926030249383,179900,https://www.zillow.com/homedetails/8659-W-Palm-Ln-Phoenix-AZ-85037/7487502_zpid/,33.47,-112.244,6607,2018-02-02
387630,23949833,"3746 W Puget Ave, Phoenix, AZ 85051 ",85051,0.34712202847003937,0.9126451313495636,0.31679922926736603,194500,https://www.zillow.com/homedetails/3746-W-Puget-Ave-Phoenix-AZ-85051/7754271_zpid/,33.567,-112.141,6649,2018-03-16
351243,23874592,"6540 W Gross Ave, Phoenix, AZ 85043 ",85043,0.34712202847003937,0.9124815464019775,0.3167424453285328,229900,https://www.zillow.com/homedetails/6540-W-Gross-Ave-Phoenix-AZ-85043/62727279_zpid/,33.4297,-112.20200000000001,6613,2018-02-08
9034600,23940572,"6833 W Cherry Hills Dr, Peoria, AZ 85345 ",85345,0.34712202847003937,0.9124523997306824,0.31673232787686967,241000,https://www.zillow.com/homedetails/6833-W-Cherry-Hills-Dr-Peoria-AZ-85345/7700203_zpid/,33.5936,-112.205,6659,2018-03-26
1120336,23889251,"2231 W Ironwood Dr, Chandler, AZ 85224 ",85224,0.34712202847003937,0.9122185111045837,0.31665113998254224,219900,https://www.zillow.com/homedetails/2231-W-Ironwood-Dr-Chandler-AZ-85224/8192970_zpid/,33.3246,-111.881,6624,2018-02-19
7452531,23914721,"9318 W Vogel Ave, Peoria, AZ 85345 ",85345,0.34712202847003937,0.9120895862579346,0.3166063873282532,225000,https://www.zillow.com/homedetails/9318-W-Vogel-Ave-Peoria-AZ-85345/7697363_zpid/,33.5718,-112.26,6640,2018-03-07
440916,23933559,"2631 N 85TH Ave, Phoenix, AZ 85037 ",85037,0.34712202847003937,0.9120591282844543,0.31659581469471565,190000,https://www.zillow.com/homedetails/2631-N-85TH-Ave-Phoenix-AZ-85037/7487233_zpid/,33.4772,-112.242,6663,2018-03-30
445075,23888238,"4620 N 92ND Dr, Phoenix, AZ 85037 ",85037,0.34712202847003937,0.9120332598686218,0.31658683519773856,241000,https://www.zillow.com/homedetails/4620-N-92ND-Dr-Phoenix-AZ-85037/7466545_zpid/,33.5049,-112.259,6622,2018-02-17
9034549,23940268,"11801 N 75TH Dr, Peoria, AZ 85345 ",85345,0.34712202847003937,0.9118916094303131,0.31653766521025917,195000,https://www.zillow.com/homedetails/11801-N-75TH-Dr-Peoria-AZ-85345/7680497_zpid/,33.5924,-112.221,6660,2018-03-27
9029622,23904013,"5207 W Campo Bello Dr, Glendale, AZ 85308 ",85308,0.34712202847003937,0.9117280840873718,0.31648090196151113,230000,https://www.zillow.com/homedetails/5207-W-Campo-Bello-Dr-Glendale-AZ-85308/8100316_zpid/,33.6426,-112.17200000000001,6625,2018-02-20
9031419,23913764,"15724 N 90TH Ave, Peoria, AZ 85382 ",85382,0.34712202847003937,0.9117211699485779,0.31647850191162785,216000,https://www.zillow.com/homedetails/15724-N-90TH-Ave-Peoria-AZ-85382/7903529_zpid/,33.6268,-112.25200000000001,6656,2018-03-23
1370662,23883178,"6798 N 87TH Ln, Glendale, AZ 85305 ",85305,0.34712202847003937,0.9116136431694031,0.31644117699792584,247900,https://www.zillow.com/homedetails/6798-N-87TH-Ln-Glendale-AZ-85305/95111567_zpid/,33.5346,-112.24799999999999,6598,2018-01-24
396523,23937380,"3932 W Aster Dr, Phoenix, AZ 85029 ",85029,0.34712202847003937,0.9113785326480865,0.3163595649568518,229400,https://www.zillow.com/homedetails/3932-W-Aster-Dr-Phoenix-AZ-85029/7742396_zpid/,33.6019,-112.14399999999999,6648,2018-03-15
958473,23930110,"3534 W Carla Vista Dr, Chandler, AZ 85226 ",85226,0.34712202847003937,0.9113434553146362,0.3163473888417112,234000,https://www.zillow.com/homedetails/3534-W-Carla-Vista-Dr-Chandler-AZ-85226/8154923_zpid/,33.3095,-111.905,6656,2018-03-23
422149,23920227,"6523 W Brown St, Glendale, AZ 85302 ",85302,0.34712202847003937,0.9112867712974548,0.31632771257068537,208600,https://www.zillow.com/homedetails/6523-W-Brown-St-Glendale-AZ-85302/7706599_zpid/,33.5779,-112.2,6647,2018-03-14
969298,23939580,"5237 W Boston Way S, Chandler, AZ 85226 ",85226,0.34712202847003937,0.9112847447395325,0.31632700910778855,220000,https://www.zillow.com/homedetails/5237-W-Boston-Way-S-Chandler-AZ-85226/8166306_zpid/,33.3017,-111.932,6662,2018-03-29
9029809,23904890,"17460 N 92ND Ave, Peoria, AZ 85382 ",85382,0.34712202847003937,0.9110852777957916,0.3162577697376645,226000,https://www.zillow.com/homedetails/17460-N-92ND-Ave-Peoria-AZ-85382/95103614_zpid/,33.6425,-112.258,6621,2018-02-16
1467644,23949589,"19608 N 98th Ave, Peoria, AZ 85382 ",85382,0.34712202847003937,0.911084920167923,0.3162576455971533,209900,https://www.zillow.com/homedetails/19608-N-98th-Ave-Peoria-AZ-85382/7893541_zpid/,33.6617,-112.27,6662,2018-03-29
9029938,23905383,"8872 W Cameron Dr, Peoria, AZ 85345 ",85345,0.34712202847003937,0.9110772907733917,0.3162549972662476,249999,https://www.zillow.com/homedetails/8872-W-Cameron-Dr-Peoria-AZ-85345/95166649_zpid/,33.5898,-112.249,6613,2018-02-08
41792,23874571,"6411 W Winslow Ave, Phoenix, AZ 85043 ",85043,0.34712202847003937,0.9110694825649261,0.31625228686508633,210000,https://www.zillow.com/homedetails/6411-W-Winslow-Ave-Phoenix-AZ-85043/49641685_zpid/,33.4219,-112.198,6610,2018-02-05
243943,23929305,"18466 N 5TH Ave, Phoenix, AZ 85023 ",85023,0.34712202847003937,0.9109633266925812,0.31621543782334394,244000,https://www.zillow.com/homedetails/18466-N-5TH-Ave-Phoenix-AZ-85023/7956365_zpid/,33.6543,-112.08,6628,2018-02-23
407053,23919851,"5501 W Boca Raton Rd, Glendale, AZ 85306 ",85306,0.34712202847003937,0.9108997583389282,0.3161933718474774,249900,https://www.zillow.com/homedetails/5501-W-Boca-Raton-Rd-Glendale-AZ-85306/7911123_zpid/,33.6112,-112.177,6655,2018-03-22
9031389,23913600,"10929 N 72ND Dr, Peoria, AZ 85345 ",85345,0.34712202847003937,0.9108993411064148,0.316193227016881,234900,https://www.zillow.com/homedetails/10929-N-72ND-Dr-Peoria-AZ-85345/7701012_zpid/,33.5845,-112.215,6640,2018-03-07
445268,23933640,"4631 N 91ST Dr, Phoenix, AZ 85037 ",85037,0.34712202847003937,0.910844475030899,0.3161741817934538,186500,https://www.zillow.com/homedetails/4631-N-91ST-Dr-Phoenix-AZ-85037/7466476_zpid/,33.5053,-112.256,6662,2018-03-29
390575,23937395,"4026 W Harmont Dr, Phoenix, AZ 85051 ",85051,0.34712202847003937,0.9108225703239441,0.31616657818714256,219900,https://www.zillow.com/homedetails/4026-W-Harmont-Dr-Phoenix-AZ-85051/7753017_zpid/,33.5545,-112.147,6652,2018-03-19
446541,23933646,"4816 N 86TH Dr, Phoenix, AZ 85037 ",85037,0.34712202847003937,0.9108147621154785,0.31616386778598127,175000,https://www.zillow.com/homedetails/4816-N-86TH-Dr-Phoenix-AZ-85037/7483470_zpid/,33.5078,-112.24600000000001,6661,2018-03-28
519544,23891946,"8906 W Cypress St, Phoenix, AZ 85037 ",85037,0.34712202847003937,0.9105362892150879,0.31606720370792374,219000,https://www.zillow.com/homedetails/8906-W-Cypress-St-Phoenix-AZ-85037/7487715_zpid/,33.4719,-112.251,6627,2018-02-22
9026100,23873397,"8885 W Hollywood Ave, Peoria, AZ 85345 ",85345,0.34712202847003937,0.9104936420917511,0.31605239995196266,239000,https://www.zillow.com/homedetails/8885-W-Hollywood-Ave-Peoria-AZ-85345/95133596_zpid/,33.5895,-112.25,6610,2018-02-05
440506,23914803,"2405 N 83RD Dr, Phoenix, AZ 85037 ",85037,0.34712202847003937,0.9104532897472382,0.3160383927642818,169900,https://www.zillow.com/homedetails/2405-N-83RD-Dr-Phoenix-AZ-85037/81976574_zpid/,33.4739,-112.238,6643,2018-03-10
519063,23933819,"8841 W Virginia Ave, Phoenix, AZ 85037 ",85037,0.34712202847003937,0.9104515314102173,0.3160377824067684,199900,https://www.zillow.com/homedetails/8841-W-Virginia-Ave-Phoenix-AZ-85037/7473916_zpid/,33.475,-112.25,6657,2018-03-24
9033206,23929346,"18649 N 42ND Ave, Glendale, AZ 85308 ",85308,0.34712202847003937,0.9103718101978302,0.3160101094178125,234900,https://www.zillow.com/homedetails/18649-N-42ND-Ave-Glendale-AZ-85308/7935950_zpid/,33.656,-112.149,6646,2018-03-13
423926,23883680,"8921 N 65th Dr, Glendale, AZ 85302 ",85302,0.34712202847003937,0.9103251099586487,0.31599389873605777,228800,https://www.zillow.com/homedetails/8921-N-65th-Dr-Glendale-AZ-85302/50187782_zpid/,33.5665,-112.2,6614,2018-02-09
449490,23915041,"8536 W Elm St, Phoenix, AZ 85037 ",85037,0.34712202847003937,0.9102731645107269,0.3159758673268054,189900,https://www.zillow.com/homedetails/8536-W-Elm-St-Phoenix-AZ-85037/7483626_zpid/,33.5063,-112.244,6653,2018-03-20
1348426,23873785,"5406 W Sands Rd, Glendale, AZ 85301 ",85301,0.34712202847003937,0.9101554155349731,0.31593499406349146,205000,https://www.zillow.com/homedetails/5406-W-Sands-Rd-Glendale-AZ-85301/7726252_zpid/,33.5525,-112.17399999999999,6607,2018-02-02
445988,23949941,"4719 N 92nd Ave, Phoenix, AZ 85037 ",85037,0.34712202847003937,0.9100228548049927,0.31588897931400517,130000,https://www.zillow.com/homedetails/4719-N-92nd-Ave-Phoenix-AZ-85037/7466534_zpid/,33.5063,-112.258,6664,2018-03-31
625494,23866146,"1522 W Plana Ave, Mesa, AZ 85202 ",85202,0.34712202847003937,0.9098967611789703,0.31584520943876315,242500,https://www.zillow.com/homedetails/1522-W-Plana-Ave-Mesa-AZ-85202/8172015_zpid/,33.3588,-111.866,6585,2018-01-11
9031418,23913746,"15708 N 90TH Ave, Peoria, AZ 85382 ",85382,0.34712202847003937,0.9098730087280273,0.3158369644398107,219900,https://www.zillow.com/homedetails/15708-N-90TH-Ave-Peoria-AZ-85382/7903531_zpid/,33.6268,-112.25200000000001,6655,2018-03-22
483971,23933551,"2734 N 73RD Gln, Phoenix, AZ 85035 ",85035,0.34712202847003937,0.9098313748836517,0.315822512415298,205000,https://www.zillow.com/homedetails/2734-N-73RD-Gln-Phoenix-AZ-85035/95167972_zpid/,33.4783,-112.21799999999999,6663,2018-03-30
1115749,23864072,"1721 W Nopal Dr, Chandler, AZ 85224 ",85224,0.34712202847003937,0.909736692905426,0.31578964621495675,249900,https://www.zillow.com/homedetails/1721-W-Nopal-Dr-Chandler-AZ-85224/8198402_zpid/,33.3418,-111.874,6581,2018-01-07
421871,23919975,"6425 W Puget Ave, Glendale, AZ 85302 ",85302,0.34712202847003937,0.9096316695213318,0.3157531902848332,195000,https://www.zillow.com/homedetails/6425-W-Puget-Ave-Glendale-AZ-85302/7704539_zpid/,33.5666,-112.198,6656,2018-03-23
403811,23937192,"12807 N 47TH Dr, Glendale, AZ 85304 ",85304,0.34712202847003937,0.9096065163612366,0.3157444590688785,195000,https://www.zillow.com/homedetails/12807-N-47TH-Dr-Glendale-AZ-85304/7954552_zpid/,33.6026,-112.161,6649,2018-03-16
527580,23915105,"9450 W Palm Ln, Phoenix, AZ 85037 ",85037,0.34712202847003937,0.9095817506313324,0.3157358623384776,224900,https://www.zillow.com/homedetails/9450-W-Palm-Ln-Phoenix-AZ-85037/67773013_zpid/,33.4688,-112.264,6648,2018-03-15
406444,23938189,"5225 W Evans Dr, Glendale, AZ 85306 ",85306,0.34712202847003937,0.9095390737056732,0.31572104823747393,232000,https://www.zillow.com/homedetails/5225-W-Evans-Dr-Glendale-AZ-85306/8097358_zpid/,33.6173,-112.17200000000001,6661,2018-03-28
1421529,23938351,"8028 W Sierra Vista Dr, Glendale, AZ 85303 ",85303,0.34712202847003937,0.9094462692737579,0.3156888337748165,239900,https://www.zillow.com/homedetails/8028-W-Sierra-Vista-Dr-Glendale-AZ-85303/7462653_zpid/,33.5316,-112.23299999999999,6661,2018-03-28
343494,23875666,"2518 S 66th Dr, Phoenix, AZ 85043 ",85043,0.34712202847003937,0.9093582034111023,0.3156582641739325,194900,https://www.zillow.com/homedetails/2518-S-66th-Dr-Phoenix-AZ-85043/67773235_zpid/,33.425,-112.20200000000001,6581,2018-01-07
976364,23921519,"77 S Tercera Pl, Chandler, AZ 85226 ",85226,0.34712202847003937,0.9093223214149475,0.3156458087426417,224900,https://www.zillow.com/homedetails/77-S-Tercera-Pl-Chandler-AZ-85226/55273352_zpid/,33.3021,-111.90700000000001,6650,2018-03-17
9030029,23905726,"8997 W Alda Way, Peoria, AZ 85382 ",85382,0.34712202847003937,0.9093065857887268,0.3156403465601487,249900,https://www.zillow.com/homedetails/8997-W-Alda-Way-Peoria-AZ-85382/61629760_zpid/,33.6511,-112.25299999999999,6603,2018-01-29
418443,23938166,"5127 W Mountain View Rd, Glendale, AZ 85302 ",85302,0.34712202847003937,0.9092589616775513,0.3156238151820734,130000,https://www.zillow.com/homedetails/5127-W-Mountain-View-Rd-Glendale-AZ-85302/7734363_zpid/,33.5744,-112.17,6661,2018-03-28
391643,23937422,"4121 W North Ln, Phoenix, AZ 85051 ",85051,0.34712202847003937,0.9091958403587341,0.3156019043818459,175000,https://www.zillow.com/homedetails/4121-W-North-Ln-Phoenix-AZ-85051/7746056_zpid/,33.5812,-112.148,6653,2018-03-20
9031523,23914303,"7826 W Hearn Rd, Peoria, AZ 85381 ",85381,0.34712202847003937,0.9091898500919342,0.3155998250282832,235000,https://www.zillow.com/homedetails/7826-W-Hearn-Rd-Peoria-AZ-85381/7909437_zpid/,33.6142,-112.227,6656,2018-03-23
9034627,23940735,"8032 W Dahlia Dr, Peoria, AZ 85381 ",85381,0.34712202847003937,0.909072071313858,0.3155589414199267,235000,https://www.zillow.com/homedetails/8032-W-Dahlia-Dr-Peoria-AZ-85381/8101152_zpid/,33.6023,-112.23299999999999,6662,2018-03-29
8952020,23914430,"8419 W Columbine Dr, Peoria, AZ 85381 ",85381,0.34712202847003937,0.9090221226215363,0.3155416031285285,234900,https://www.zillow.com/homedetails/8419-W-Columbine-Dr-Peoria-AZ-85381/7914550_zpid/,33.5984,-112.24,6647,2018-03-14
9025872,23872342,"15168 N 90TH Ln, Peoria, AZ 85381 ",85381,0.34712202847003937,0.9090015292167664,0.3155344547040917,213700,https://www.zillow.com/homedetails/15168-N-90TH-Ln-Peoria-AZ-85381/7908827_zpid/,33.6229,-112.25399999999999,6605,2018-01-31
9031576,23914627,"9130 W Topeka Dr, Peoria, AZ 85382 ",85382,0.34712202847003937,0.9089946448802948,0.315532064999251,228700,https://www.zillow.com/homedetails/9130-W-Topeka-Dr-Peoria-AZ-85382/67084737_zpid/,33.6583,-112.257,6649,2018-03-16
17802,23914440,"8338 W Bluefield Ave, Peoria, AZ 85382 ",85382,0.34712202847003937,0.9089344441890717,0.31551116801319834,219900,https://www.zillow.com/homedetails/8338-W-Bluefield-Ave-Peoria-AZ-85382/8129243_zpid/,33.6507,-112.23899999999999,6649,2018-03-16
9034637,23940797,"8536 W Paradise Dr, Peoria, AZ 85345 ",85345,0.34712202847003937,0.9088696539402008,0.3154886778905852,249000,https://www.zillow.com/homedetails/8536-W-Paradise-Dr-Peoria-AZ-85345/7685412_zpid/,33.5944,-112.243,6663,2018-03-30
9026644,23892930,"1956 N Illinois St, Chandler, AZ 85225 ",85225,0.34712202847003937,0.9087867438793182,0.3154598979820711,237500,https://www.zillow.com/homedetails/1956-N-Illinois-St-Chandler-AZ-85225/8182717_zpid/,33.3332,-111.84899999999999,6619,2018-02-14
9032295,23920220,"8810 N 69TH Dr, Peoria, AZ 85345 ",85345,0.34712202847003937,0.9087158739566803,0.3154352974707675,229900,https://www.zillow.com/homedetails/8810-N-69TH-Dr-Peoria-AZ-85345/50187886_zpid/,33.5654,-112.208,6649,2018-03-16
9031598,23914759,"9809 N 67TH Dr, Peoria, AZ 85345 ",85345,0.34712202847003937,0.9086489677429199,0.31541207285012973,209900,https://www.zillow.com/homedetails/9809-N-67TH-Dr-Peoria-AZ-85345/7701593_zpid/,33.5747,-112.20299999999999,6648,2018-03-15
420087,23938198,"5651 W Comet Ave, Glendale, AZ 85302 ",85302,0.34712202847003937,0.9086267352104187,0.3154043554483499,215000,https://www.zillow.com/homedetails/5651-W-Comet-Ave-Glendale-AZ-85302/7735271_zpid/,33.5788,-112.182,6662,2018-03-29
8997765,23873388,"8065 W Hatcher Rd, Peoria, AZ 85345 ",85345,0.34712202847003937,0.9086235463619232,0.31540324852879165,247900,https://www.zillow.com/homedetails/8065-W-Hatcher-Rd-Peoria-AZ-85345/7682597_zpid/,33.5702,-112.23200000000001,6610,2018-02-05
1357797,23883517,"7780 N 58th Dr, Glendale, AZ 85301 ",85301,0.34712202847003937,0.9086029827594757,0.3153961104493974,205000,https://www.zillow.com/homedetails/7780-N-58th-Dr-Glendale-AZ-85301/62728686_zpid/,33.5501,-112.184,6605,2018-01-31
391161,23937420,"4101 W Ruth Ave, Phoenix, AZ 85051 ",85051,0.34712202847003937,0.9084145724773407,0.3153307090900781,219000,https://www.zillow.com/homedetails/4101-W-Ruth-Ave-Phoenix-AZ-85051/7753355_zpid/,33.5623,-112.147,6652,2018-03-19
419109,23938183,"5326 W Vogel Ave, Glendale, AZ 85302 ",85302,0.34712202847003937,0.9084056317806244,0.315327605577298,245000,https://www.zillow.com/homedetails/5326-W-Vogel-Ave-Glendale-AZ-85302/7734302_zpid/,33.5723,-112.176,6657,2018-03-24
1466691,23869657,"17797 N 89TH Dr, Peoria, AZ 85382 ",85382,0.34712202847003937,0.9083250761032104,0.3152996429271493,241500,https://www.zillow.com/homedetails/17797-N-89TH-Dr-Peoria-AZ-85382/71616751_zpid/,33.6449,-112.251,6594,2018-01-20
418482,23919845,"5133 W Purdue Ave, Glendale, AZ 85302 ",85302,0.34712202847003937,0.9082744121551514,0.3152820563547287,229900,https://www.zillow.com/homedetails/5133-W-Purdue-Ave-Glendale-AZ-85302/7734426_zpid/,33.5739,-112.171,6644,2018-03-11
41510,23941218,"631 N 69TH Ave, Phoenix, AZ 85043 ",85043,0.34712202847003937,0.908130556344986,0.3152321208340969,181999,https://www.zillow.com/homedetails/631-N-69TH-Ave-Phoenix-AZ-85043/7476327_zpid/,33.455999999999996,-112.208,6660,2018-03-27
424514,23920258,"9406 N 54TH Ave, Glendale, AZ 85302 ",85302,0.34712202847003937,0.9080913364887238,0.31521850675803487,229900,https://www.zillow.com/homedetails/9406-N-54TH-Ave-Glendale-AZ-85302/7734271_zpid/,33.5719,-112.177,6655,2018-03-22
9031626,23915129,"6902 W Crittenden Ln, Phoenix, AZ 85033 ",85033,0.34712202847003937,0.9080586433410645,0.3152071582463023,190000,https://www.zillow.com/homedetails/6902-W-Crittenden-Ln-Phoenix-AZ-85033/7485984_zpid/,33.4891,-112.208,6645,2018-03-12
422134,23919999,"6520 W Vogel Ave, Glendale, AZ 85302 ",85302,0.34712202847003937,0.908053457736969,0.31520535820888984,179900,https://www.zillow.com/homedetails/6520-W-Vogel-Ave-Glendale-AZ-85302/7703280_zpid/,33.5724,-112.2,6648,2018-03-15
1370379,23919991,"6634 N 84TH Ln, Glendale, AZ 85305 ",85305,0.34712202847003937,0.9079784750938416,0.3151793300817074,205000,https://www.zillow.com/homedetails/6634-N-84TH-Ln-Glendale-AZ-85305/7461312_zpid/,33.5325,-112.241,6633,2018-02-28
2056408,23914192,"7328 W Carol Ave, Peoria, AZ 85345 ",85345,0.34712202847003937,0.9079682528972626,0.3151757817320955,193900,https://www.zillow.com/homedetails/7328-W-Carol-Ave-Peoria-AZ-85345/7702125_zpid/,33.5724,-112.21600000000001,6649,2018-03-16
9031631,23915099,"7706 W Mariposa Dr, Phoenix, AZ 85033 ",85033,0.34712202847003937,0.907884418964386,0.31514668112726074,217000,https://www.zillow.com/homedetails/7706-W-Mariposa-Dr-Phoenix-AZ-85033/7467863_zpid/,33.5074,-112.23,6653,2018-03-20
9031496,23914128,"6956 W Cinnabar Ave, Peoria, AZ 85345 ",85345,0.34712202847003937,0.9077420234680176,0.31509725251371634,205000,https://www.zillow.com/homedetails/6956-W-Cinnabar-Ave-Peoria-AZ-85345/7701759_zpid/,33.5767,-112.209,6652,2018-03-19
418828,23938179,"5233 W Palo Verde Ave, Glendale, AZ 85302 ",85302,0.34712202847003937,0.9077289402484894,0.3150927110400148,159900,https://www.zillow.com/homedetails/5233-W-Palo-Verde-Ave-Glendale-AZ-85302/7734563_zpid/,33.5726,-112.17299999999999,6663,2018-03-30
424989,23920239,"9833 N 54TH Ave, Glendale, AZ 85302 ",85302,0.34712202847003937,0.9077090322971344,0.31508580055155777,208000,https://www.zillow.com/homedetails/9833-N-54TH-Ave-Glendale-AZ-85302/7736016_zpid/,33.5762,-112.176,6652,2018-03-19
9031502,23914273,"7102 W Brown St, Peoria, AZ 85345 ",85345,0.34712202847003937,0.9076715409755707,0.31507278648796655,210000,https://www.zillow.com/homedetails/7102-W-Brown-St-Peoria-AZ-85345/7701394_zpid/,33.5774,-112.212,6648,2018-03-15
3213,23914359,"8190 W Palo Verde Ave, Peoria, AZ 85345 ",85345,0.34712202847003937,0.9076711535453796,0.31507265200241275,209000,https://www.zillow.com/homedetails/8190-W-Palo-Verde-Ave-Peoria-AZ-85345/67765123_zpid/,33.5725,-112.235,6656,2018-03-23
492007,23914976,"5634 W Lewis Ave, Phoenix, AZ 85035 ",85035,0.34712202847003937,0.9076670408248901,0.3150712243865339,171500,https://www.zillow.com/homedetails/5634-W-Lewis-Ave-Phoenix-AZ-85035/7492061_zpid/,33.4749,-112.182,6656,2018-03-23
396381,23937383,"3923 W Desert Cove Ave, Phoenix, AZ 85029 ",85029,0.34712202847003937,0.9076157212257385,0.3150534102231761,216500,https://www.zillow.com/homedetails/3923-W-Desert-Cove-Ave-Phoenix-AZ-85029/7745007_zpid/,33.5853,-112.14399999999999,6661,2018-03-28
9031381,23913537,"10356 N 68TH Ln, Peoria, AZ 85345 ",85345,0.34712202847003937,0.9075039327144623,0.31501460596838227,239000,https://www.zillow.com/homedetails/10356-N-68TH-Ln-Peoria-AZ-85345/7702010_zpid/,33.5798,-112.20700000000001,6648,2018-03-15
441079,23933550,"2725 N 90TH Dr, Phoenix, AZ 85037 ",85037,0.34712202847003937,0.9073210656642914,0.3149511287869866,210000,https://www.zillow.com/homedetails/2725-N-90TH-Dr-Phoenix-AZ-85037/7487853_zpid/,33.4779,-112.25299999999999,6662,2018-03-29
9031391,23913583,"11213 N 69TH Ave, Peoria, AZ 85345 ",85345,0.34712202847003937,0.9072849750518799,0.3149386009403976,199900,https://www.zillow.com/homedetails/11213-N-69TH-Ave-Peoria-AZ-85345/7699594_zpid/,33.5872,-112.20700000000001,6640,2018-03-07
391172,23937321,"3115 W Sahuaro Dr, Phoenix, AZ 85029 ",85029,0.34712202847003937,0.9072598814964294,0.3149298904145281,249900,https://www.zillow.com/homedetails/3115-W-Sahuaro-Dr-Phoenix-AZ-85029/7740851_zpid/,33.5836,-112.126,6659,2018-03-26
9019126,23937769,"3703 W Lawrence Rd, Phoenix, AZ 85019 ",85019,0.34712202847003937,0.9071372747421265,0.31488733090927035,228000,https://www.zillow.com/homedetails/3703-W-Lawrence-Rd-Phoenix-AZ-85019/7758466_zpid/,33.5354,-112.139,6654,2018-03-21
9025869,23913573,"11848 N 79th Dr, Peoria, AZ 85345 ",85345,0.34712202847003937,0.9071371555328369,0.31488728952909995,215000,https://www.zillow.com/homedetails/11848-N-79th-Dr-Peoria-AZ-85345/146039846_zpid/,33.5928,-112.23,6632,2018-02-27
9029943,23905404,"6848 W Mission Ln, Peoria, AZ 85345 ",85345,0.34712202847003937,0.9071285128593445,0.31488428946674585,164900,https://www.zillow.com/homedetails/6848-W-Mission-Ln-Peoria-AZ-85345/7702926_zpid/,33.5695,-112.20700000000001,6611,2018-02-06
423604,23883734,"8812 N 57TH Dr, Glendale, AZ 85302 ",85302,0.34712202847003937,0.9071007966995239,0.31487466857712754,239000,https://www.zillow.com/homedetails/8812-N-57TH-Dr-Glendale-AZ-85302/7733242_zpid/,33.5658,-112.18299999999999,6603,2018-01-29
9031562,23914551,"8765 W Bluefield Ave, Peoria, AZ 85382 ",85382,0.34712202847003937,0.9070661962032318,0.31486265798266855,224000,https://www.zillow.com/homedetails/8765-W-Bluefield-Ave-Peoria-AZ-85382/2090492868_zpid/,33.6511,-112.25,6656,2018-03-23
450568,23933799,"8734 W Amelia Ave, Phoenix, AZ 85037 ",85037,0.34712202847003937,0.9069812893867493,0.3148331849563002,179900,https://www.zillow.com/homedetails/8734-W-Amelia-Ave-Phoenix-AZ-85037/7471001_zpid/,33.4932,-112.24799999999999,6662,2018-03-29
234736,23915231,"15919 N 21ST Ln, Phoenix, AZ 85023 ",85023,0.34712202847003937,0.9069311022758484,0.31481576390456123,199000,https://www.zillow.com/homedetails/15919-N-21ST-Ln-Phoenix-AZ-85023/82823718_zpid/,33.6305,-112.105,6646,2018-03-13
7415090,23937363,"3435 W Dahlia Dr, Phoenix, AZ 85029 ",85029,0.34712202847003937,0.9068540334701538,0.31478901162439676,193500,https://www.zillow.com/homedetails/3435-W-Dahlia-Dr-Phoenix-AZ-85029/7747595_zpid/,33.6027,-112.133,6653,2018-03-20
415739,23919682,"10452 N 63RD Dr, Glendale, AZ 85302 ",85302,0.34712202847003937,0.9067424833774567,0.3147502901299437,189900,https://www.zillow.com/homedetails/10452-N-63RD-Dr-Glendale-AZ-85302/7705971_zpid/,33.5815,-112.196,6635,2018-03-02
485245,23914882,"4326 W Vernon Ave, Phoenix, AZ 85035 ",85035,0.34712202847003937,0.9067039489746094,0.3147369139898615,225000,https://www.zillow.com/homedetails/4326-W-Vernon-Ave-Phoenix-AZ-85035/7495458_zpid/,33.4741,-112.15299999999999,6656,2018-03-23
1127341,23920612,"2909 W Curry St, Chandler, AZ 85224 ",85224,0.34712202847003937,0.9065991044044495,0.3147005201299935,238700,https://www.zillow.com/homedetails/2909-W-Curry-St-Chandler-AZ-85224/8197532_zpid/,33.3541,-111.89299999999999,6628,2018-02-23
449589,23950202,"8551 W Sheridan St, Phoenix, AZ 85037 ",85037,0.34712202847003937,0.9065620005130768,0.3146876405519561,220000,https://www.zillow.com/homedetails/8551-W-Sheridan-St-Phoenix-AZ-85037/7487376_zpid/,33.4745,-112.245,6625,2018-02-20
9020074,23913485,"10220 N 87TH Dr, Peoria, AZ 85345 ",85345,0.34712202847003937,0.9064595699310303,0.31465208464053873,238000,https://www.zillow.com/homedetails/10220-N-87TH-Dr-Peoria-AZ-85345/7684494_zpid/,33.5782,-112.24700000000001,6655,2018-03-22
9029920,23914705,"9614 W Purdue Ave, Peoria, AZ 85345 ",85345,0.34712202847003937,0.9062223434448242,0.31456973810144007,195500,https://www.zillow.com/homedetails/9614-W-Purdue-Ave-Peoria-AZ-85345/7687220_zpid/,33.5723,-112.266,6645,2018-03-12
416979,23919743,"4635 W Palo Verde Ave, Glendale, AZ 85302 ",85302,0.34712202847003937,0.9061541557312012,0.3145460686439705,214900,https://www.zillow.com/homedetails/4635-W-Palo-Verde-Ave-Glendale-AZ-85302/7729514_zpid/,33.5728,-112.15899999999999,6645,2018-03-12
1416474,23938335,"7600 W Krall St, Glendale, AZ 85303 ",85303,0.34712202847003937,0.9061014354228973,0.3145277682636105,245000,https://www.zillow.com/homedetails/7600-W-Krall-St-Glendale-AZ-85303/7463234_zpid/,33.5348,-112.223,6666,2018-04-02
9031515,23914288,"7601 W Cheryl Dr, Peoria, AZ 85345 ",85345,0.34712202847003937,0.9060942232608795,0.3145252647633012,217500,https://www.zillow.com/homedetails/7601-W-Cheryl-Dr-Peoria-AZ-85345/7682109_zpid/,33.5774,-112.223,6641,2018-03-08
9033772,23933816,"7139 W Montecito Ave, Phoenix, AZ 85033 ",85033,0.34712202847003937,0.9060000479221344,0.31449257442868417,199900,https://www.zillow.com/homedetails/7139-W-Montecito-Ave-Phoenix-AZ-85033/7711428_zpid/,33.4998,-112.213,6659,2018-03-26
9031500,23914158,"7009 W Cherry Hills Dr, Peoria, AZ 85345 ",85345,0.34712202847003937,0.9059337079524994,0.3144695463638558,245000,https://www.zillow.com/homedetails/7009-W-Cherry-Hills-Dr-Peoria-AZ-85345/7699971_zpid/,33.5931,-112.21,6642,2018-03-09
412387,23919889,"5434 W Saguaro Dr, Glendale, AZ 85304 ",85304,0.34712202847003937,0.9059197008609772,0.31446468419383367,229900,https://www.zillow.com/homedetails/5434-W-Saguaro-Dr-Glendale-AZ-85304/7736601_zpid/,33.5833,-112.177,6652,2018-03-19
9034647,23940837,"8774 W Aster Dr, Peoria, AZ 85381 ",85381,0.34712202847003937,0.9058952629566193,0.3144562012589014,215000,https://www.zillow.com/homedetails/8774-W-Aster-Dr-Peoria-AZ-85381/81973618_zpid/,33.6016,-112.24700000000001,6666,2018-04-02
9029872,23914718,"9832 W Kimberly Way, Peoria, AZ 85382 ",85382,0.34712202847003937,0.9058386385440826,0.31443654567796075,239900,https://www.zillow.com/homedetails/9832-W-Kimberly-Way-Peoria-AZ-85382/7893256_zpid/,33.6555,-112.272,6641,2018-03-08
422239,23919980,"6545 W Mountain View Rd, Glendale, AZ 85302 ",85302,0.34712202847003937,0.9057912826538086,0.3144201074052688,229900,https://www.zillow.com/homedetails/6545-W-Mountain-View-Rd-Glendale-AZ-85302/7703343_zpid/,33.5742,-112.20100000000001,6638,2018-03-05
433187,23914983,"7228 W Pierson St, Phoenix, AZ 85033 ",85033,0.34712202847003937,0.9057851731777191,0.31441798667153575,180000,https://www.zillow.com/homedetails/7228-W-Pierson-St-Phoenix-AZ-85033/7710740_zpid/,33.5072,-112.214,6653,2018-03-20
9004887,23940825,"8900 W Cameron Dr, Peoria, AZ 85345 ",85345,0.34712202847003937,0.9057480692863464,0.31440510709349834,242000,https://www.zillow.com/homedetails/8900-W-Cameron-Dr-Peoria-AZ-85345/95133083_zpid/,33.5906,-112.25,6660,2018-03-27
1933748,23915060,"7145 W Mulberry Dr, Phoenix, AZ 85033 ",85033,0.34712202847003937,0.905732274055481,0.31439962422092016,185000,https://www.zillow.com/homedetails/7145-W-Mulberry-Dr-Phoenix-AZ-85033/7485834_zpid/,33.4866,-112.214,6628,2018-02-23
13812,23933817,"9117 W Serrano St, Phoenix, AZ 85037 ",85037,0.34712202847003937,0.9055466949939728,0.3143352056406479,210000,https://www.zillow.com/homedetails/9117-W-Serrano-St-Phoenix-AZ-85037/54766635_zpid/,33.4973,-112.256,6662,2018-03-29
3847,23914894,"4026 N 88TH Ln, Phoenix, AZ 85037 ",85037,0.34712202847003937,0.9055058658123016,0.3143210329322854,184900,https://www.zillow.com/homedetails/4026-N-88TH-Ln-Phoenix-AZ-85037/7470882_zpid/,33.4933,-112.25,6653,2018-03-20
424361,23920272,"9210 N 51ST Dr, Glendale, AZ 85302 ",85302,0.34712202847003937,0.9054219722747803,0.3142919116373655,195000,https://www.zillow.com/homedetails/9210-N-51ST-Dr-Glendale-AZ-85302/7734593_zpid/,33.57,-112.17,6635,2018-03-02
420581,23882618,"5810 W Alice Ave, Glendale, AZ 85302 ",85302,0.34712202847003937,0.905407041311264,0.3142867287710227,234500,https://www.zillow.com/homedetails/5810-W-Alice-Ave-Glendale-AZ-85302/7733216_zpid/,33.5645,-112.185,6590,2018-01-16
1422434,23920133,"8207 W Tuckey Ln, Glendale, AZ 85303 ",85303,0.34712202847003937,0.9053699672222137,0.3142738595380279,245000,https://www.zillow.com/homedetails/8207-W-Tuckey-Ln-Glendale-AZ-85303/7462558_zpid/,33.5327,-112.23700000000001,6648,2018-03-15
9031624,23915149,"7131 W Heatherbrae Dr, Phoenix, AZ 85033 ",85033,0.34712202847003937,0.9053593277931213,0.31427016635781957,159000,https://www.zillow.com/homedetails/7131-W-Heatherbrae-Dr-Phoenix-AZ-85033/7711528_zpid/,33.4982,-112.213,6656,2018-03-23
1469628,23940750,"8372 W Oraibi Dr, Peoria, AZ 85382 ",85382,0.34712202847003937,0.905278891324997,0.31424224508784127,235000,https://www.zillow.com/homedetails/8372-W-Oraibi-Dr-Peoria-AZ-85382/8102069_zpid/,33.6626,-112.23899999999999,6667,2018-04-03
7414272,23914263,"7535 W Ironwood Dr, Peoria, AZ 85345 ",85345,0.34712202847003937,0.9052402377128601,0.31422882756758863,210500,https://www.zillow.com/homedetails/7535-W-Ironwood-Dr-Peoria-AZ-85345/7682206_zpid/,33.5752,-112.22200000000001,6653,2018-03-20
976190,23921531,"739 N Valencia Pl, Chandler, AZ 85226 ",85226,0.34712202847003937,0.9051337540149689,0.31419186473037763,244900,https://www.zillow.com/homedetails/739-N-Valencia-Pl-Chandler-AZ-85226/8155195_zpid/,33.3161,-111.90899999999999,6651,2018-03-18
412972,23919895,"5718 W Shangri La Rd, Glendale, AZ 85304 ",85304,0.34712202847003937,0.905127763748169,0.31418978537681497,249000,https://www.zillow.com/homedetails/5718-W-Shangri-La-Rd-Glendale-AZ-85304/7736192_zpid/,33.5872,-112.18299999999999,6647,2018-03-14
435965,23872021,"2237 N 94th Ave, Phoenix, AZ 85037 ",85037,0.34712202847003937,0.9050111472606659,0.31414930522511986,224000,https://www.zillow.com/homedetails/2237-N-94th-Ave-Phoenix-AZ-85037/67773064_zpid/,33.4752,-112.26100000000001,6602,2018-01-28
9030972,23919757,"4908 W Royal Palm Rd, Glendale, AZ 85302 ",85302,0.34712202847003937,0.9050083458423615,0.3141483327911154,205000,https://www.zillow.com/homedetails/4908-W-Royal-Palm-Rd-Glendale-AZ-85302/7732044_zpid/,33.5561,-112.165,6654,2018-03-21
241092,23943380,"17638 N 6TH Ave, Phoenix, AZ 85023 ",85023,0.34712202847003937,0.9049676656723022,0.31413421180796597,239500,https://www.zillow.com/homedetails/17638-N-6TH-Ave-Phoenix-AZ-85023/7958907_zpid/,33.6467,-112.08200000000001,6659,2018-03-26
9031632,23915088,"7131 W Monterey Way, Phoenix, AZ 85033 ",85033,0.34712202847003937,0.9048901796340942,0.3141073146972051,225000,https://www.zillow.com/homedetails/7131-W-Monterey-Way-Phoenix-AZ-85033/62727096_zpid/,33.4842,-112.214,6649,2018-03-16
341987,23888290,"16633 N 19th Pl, Phoenix, AZ 85022 ",85022,0.34712202847003937,0.9047791361808777,0.31406876906847625,244900,https://www.zillow.com/homedetails/16633-N-19th-Pl-Phoenix-AZ-85022/55267888_zpid/,33.6381,-112.04,6621,2018-02-16
349587,23892378,"18405 N 16TH Way, Phoenix, AZ 85022 ",85022,0.34712202847003937,0.9047788083553314,0.31406865527300765,224900,https://www.zillow.com/homedetails/18405-N-16TH-Way-Phoenix-AZ-85022/8001243_zpid/,33.6533,-112.045,6630,2018-02-25
421193,23938229,"6154 W Echo Ln, Glendale, AZ 85302 ",85302,0.34712202847003937,0.9047748446464539,0.3140672793823418,210000,https://www.zillow.com/homedetails/6154-W-Echo-Ln-Glendale-AZ-85302/7704172_zpid/,33.5584,-112.193,6667,2018-04-03
398310,23882186,"4145 W Columbine Dr, Phoenix, AZ 85029 ",85029,0.34712202847003937,0.9047713279724121,0.31406605866731496,219500,https://www.zillow.com/homedetails/4145-W-Columbine-Dr-Phoenix-AZ-85029/7742567_zpid/,33.5994,-112.148,6602,2018-01-28
2048293,23933730,"7602 W Devonshire Ave, Phoenix, AZ 85033 ",85033,0.34712202847003937,0.904735803604126,0.31405372737653536,189000,https://www.zillow.com/homedetails/7602-W-Devonshire-Ave-Phoenix-AZ-85033/7467680_zpid/,33.4969,-112.22399999999999,6663,2018-03-30
450573,23877887,"8734 W Granada Rd, Phoenix, AZ 85037 ",85037,0.34712202847003937,0.9047021865844727,0.3140420581684822,195000,https://www.zillow.com/homedetails/8734-W-Granada-Rd-Phoenix-AZ-85037/7487516_zpid/,33.4682,-112.249,6597,2018-01-23
9030014,23905762,"7436 W Sanna St, Peoria, AZ 85345 ",85345,0.34712202847003937,0.9046631157398224,0.31402849581763315,214997,https://www.zillow.com/homedetails/7436-W-Sanna-St-Peoria-AZ-85345/7702407_zpid/,33.5693,-112.21600000000001,6596,2018-01-22
1672223,23923282,"9506 W Appaloosa Dr, Sun City, AZ 85373 ",85373,0.34712202847003937,0.9046604335308075,0.3140275647637991,194900,https://www.zillow.com/homedetails/9506-W-Appaloosa-Dr-Sun-City-AZ-85373/8095180_zpid/,33.6452,-112.26700000000001,6649,2018-03-16
398005,23937459,"4123 W Cholla St, Phoenix, AZ 85029 ",85029,0.34712202847003937,0.9046221673488617,0.3140142817291003,219900,https://www.zillow.com/homedetails/4123-W-Cholla-St-Phoenix-AZ-85029/7744654_zpid/,33.5889,-112.149,6663,2018-03-30
9034320,23937446,"2229 W Larkspur Dr, Phoenix, AZ 85029 ",85029,0.34712202847003937,0.9045904278755188,0.31400326425873093,165000,https://www.zillow.com/homedetails/2229-W-Larkspur-Dr-Phoenix-AZ-85029/7738628_zpid/,33.5999,-112.10700000000001,6650,2018-03-17
411877,23919832,"5315 W Christy Dr, Glendale, AZ 85304 ",85304,0.34712202847003937,0.9045412540435791,0.3139861949384404,240000,https://www.zillow.com/homedetails/5315-W-Christy-Dr-Glendale-AZ-85304/7736616_zpid/,33.5839,-112.17399999999999,6651,2018-03-18
384536,23937332,"3437 W Diana Ave, Phoenix, AZ 85051 ",85051,0.34712202847003937,0.9045028984546661,0.31397288086861375,197000,https://www.zillow.com/homedetails/3437-W-Diana-Ave-Phoenix-AZ-85051/7753853_zpid/,33.5623,-112.134,6663,2018-03-30
9031702,23915679,"3737 W Wagoner Rd, Glendale, AZ 85308 ",85308,0.34712202847003937,0.9045000970363617,0.3139719084346093,249900,https://www.zillow.com/homedetails/3737-W-Wagoner-Rd-Glendale-AZ-85308/7948264_zpid/,33.6531,-112.141,6657,2018-03-24
424127,23920271,"9034 N 63RD Dr, Glendale, AZ 85302 ",85302,0.34712202847003937,0.90449658036232,0.3139706877195825,194900,https://www.zillow.com/homedetails/9034-N-63RD-Dr-Glendale-AZ-85302/7703631_zpid/,33.5688,-112.196,6652,2018-03-19
9026159,23915759,"4349 W Morrow Dr, Glendale, AZ 85308 ",85308,0.34712202847003937,0.904392659664154,0.3139346145560351,244900,https://www.zillow.com/homedetails/4349-W-Morrow-Dr-Glendale-AZ-85308/7938792_zpid/,33.6569,-112.154,6641,2018-03-08
9033763,23933669,"4214 N 74TH Dr, Phoenix, AZ 85033 ",85033,0.34712202847003937,0.9043918550014496,0.3139343352398849,186800,https://www.zillow.com/homedetails/4214-N-74TH-Dr-Phoenix-AZ-85033/7711097_zpid/,33.4975,-112.22,6657,2018-03-24
415235,23938053,"10033 N 66TH Ln, Glendale, AZ 85302 ",85302,0.34712202847003937,0.9043304324150085,0.3139130141070856,214500,https://www.zillow.com/homedetails/10033-N-66TH-Ln-Glendale-AZ-85302/7706521_zpid/,33.5773,-112.20200000000001,6668,2018-04-04
8975236,23887133,"3643 N 73rd Ave, Phoenix, AZ 85033 ",85033,0.34712202847003937,0.904318779706955,0.3139089691954289,184000,https://www.zillow.com/homedetails/3643-N-73rd-Ave-Phoenix-AZ-85033/7468824_zpid/,33.4911,-112.21600000000001,6621,2018-02-16
423278,23950215,"8609 N 56th Dr, Glendale, AZ 85302 ",85302,0.34712202847003937,0.904291182756424,0.31389938968598097,201500,https://www.zillow.com/homedetails/8609-N-56th-Dr-Glendale-AZ-85302/7733469_zpid/,33.5628,-112.18,6643,2018-03-10
450213,23877909,"8705 W Palm Ln, Phoenix, AZ 85037 ",85037,0.34712202847003937,0.9042399525642395,0.313881606557751,199900,https://www.zillow.com/homedetails/8705-W-Palm-Ln-Phoenix-AZ-85037/7487495_zpid/,33.4682,-112.24799999999999,6593,2018-01-19
9031506,23914226,"7335 W Paradise Dr, Peoria, AZ 85345 ",85345,0.34712202847003937,0.9041869640350342,0.3138632130720076,175000,https://www.zillow.com/homedetails/7335-W-Paradise-Dr-Peoria-AZ-85345/7700757_zpid/,33.5936,-112.21799999999999,6652,2018-03-19
348526,23935280,"1814 E Juniper Ave, Phoenix, AZ 85022 ",85022,0.34712202847003937,0.9041488468647003,0.31384998176252177,245000,https://www.zillow.com/homedetails/1814-E-Juniper-Ave-Phoenix-AZ-85022/8004962_zpid/,33.6392,-112.04299999999999,6662,2018-03-29
1094985,23886129,"825 W Temple St, Chandler, AZ 85225 ",85225,0.34712202847003937,0.9041469693183899,0.31384933002483795,230000,https://www.zillow.com/homedetails/825-W-Temple-St-Chandler-AZ-85225/8183622_zpid/,33.3326,-111.85700000000001,6591,2018-01-17
387689,23937273,"2217 W Windrose Dr, Phoenix, AZ 85029 ",85029,0.34712202847003937,0.9041300117969513,0.31384344369559836,199000,https://www.zillow.com/homedetails/2217-W-Windrose-Dr-Phoenix-AZ-85029/7738884_zpid/,33.6015,-112.10600000000001,6662,2018-03-29
449536,23875547,"8542 W Lewis Ave, Phoenix, AZ 85037 ",85037,0.34712202847003937,0.904096245765686,0.3138317227623322,246000,https://www.zillow.com/homedetails/8542-W-Lewis-Ave-Phoenix-AZ-85037/7487365_zpid/,33.4742,-112.244,6617,2018-02-12
8834499,23920170,"7505 N 45TH Cir, Glendale, AZ 85301 ",85301,0.34712202847003937,0.9040505290031433,0.31381585346698326,244993,https://www.zillow.com/homedetails/7505-N-45TH-Cir-Glendale-AZ-85301/7725210_zpid/,33.546,-112.156,6654,2018-03-21
385219,23937353,"3530 W Ironwood Dr, Phoenix, AZ 85051 ",85051,0.34712202847003937,0.9040098488330841,0.3138017324838338,235000,https://www.zillow.com/homedetails/3530-W-Ironwood-Dr-Phoenix-AZ-85051/7745392_zpid/,33.5763,-112.13600000000001,6663,2018-03-30
349688,23875696,"6325 W Whyman Ave, Phoenix, AZ 85043 ",85043,0.34712202847003937,0.9039857983589172,0.31379338403445534,225000,https://www.zillow.com/homedetails/6325-W-Whyman-Ave-Phoenix-AZ-85043/53206198_zpid/,33.4269,-112.197,6579,2018-01-05
9026278,23865568,"8630 W El Caminito Dr, Peoria, AZ 85345 ",85345,0.34712202847003937,0.9039513468742371,0.31378142516520935,199999,https://www.zillow.com/homedetails/8630-W-El-Caminito-Dr-Peoria-AZ-85345/50187525_zpid/,33.5576,-112.24600000000001,6585,2018-01-11
448080,23933749,"8339 W Turney Ave, Phoenix, AZ 85037 ",85037,0.34712202847003937,0.9039260447025299,0.31377264222404166,195000,https://www.zillow.com/homedetails/8339-W-Turney-Ave-Phoenix-AZ-85037/7466907_zpid/,33.4991,-112.24,6663,2018-03-30
445830,23877779,"4710 N 84th Ln, Phoenix, AZ 85037 ",85037,0.34712202847003937,0.9038969874382019,0.31376255580750634,175000,https://www.zillow.com/homedetails/4710-N-84th-Ln-Phoenix-AZ-85037/7481167_zpid/,33.5057,-112.242,6594,2018-01-20
8931812,23923293,"9608 W Indian Hills Dr, Sun City, AZ 85351 ",85351,0.34712202847003937,0.9038850367069244,0.3137584074454236,199900,https://www.zillow.com/homedetails/9608-W-Indian-Hills-Dr-Sun-City-AZ-85351/7921775_zpid/,33.6218,-112.265,6650,2018-03-17
356334,23881413,"819 E Audrey Ln, Phoenix, AZ 85022 ",85022,0.34712202847003937,0.90387362241745,0.3137544452941077,249900,https://www.zillow.com/homedetails/819-E-Audrey-Ln-Phoenix-AZ-85022/8002728_zpid/,33.6543,-112.06299999999999,6614,2018-02-09
435409,23915054,"7910 W Catalina Dr, Phoenix, AZ 85033 ",85033,0.34712202847003937,0.9038613140583038,0.31375017279151374,217000,https://www.zillow.com/homedetails/7910-W-Catalina-Dr-Phoenix-AZ-85033/7469393_zpid/,33.4815,-112.228,6629,2018-02-24
450364,23891932,"8721 W Virginia Ave, Phoenix, AZ 85037 ",85037,0.34712202847003937,0.903853714466095,0.31374753480565065,189000,https://www.zillow.com/homedetails/8721-W-Virginia-Ave-Phoenix-AZ-85037/7473685_zpid/,33.4763,-112.24799999999999,6627,2018-02-22
445188,23891613,"4627 N 91ST Dr, Phoenix, AZ 85037 ",85037,0.34712202847003937,0.9037598669528961,0.3137149582665022,236900,https://www.zillow.com/homedetails/4627-N-91st-Dr-Phoenix-AZ-85037/7466477_zpid/,33.5051,-112.256,6626,2018-02-21
9031521,23940665,"7809 W Mescal St, Peoria, AZ 85345 ",85345,0.34712202847003937,0.9037467837333679,0.31371041679280065,243599,https://www.zillow.com/homedetails/7809-W-Mescal-St-Peoria-AZ-85345/7681867_zpid/,33.5859,-112.227,6663,2018-03-30
403686,23937182,"12644 N 48TH Dr, Glendale, AZ 85304 ",85304,0.34712202847003937,0.9036946296691895,0.31369231296825006,203900,https://www.zillow.com/homedetails/12644-N-48TH-Dr-Glendale-AZ-85304/7954608_zpid/,33.6015,-112.164,6646,2018-03-13
527415,23868869,"9437 W Terri Lee Dr, Phoenix, AZ 85037 ",85037,0.34712202847003937,0.9036928713321686,0.31369170261073664,199500,https://www.zillow.com/homedetails/9437-W-Terri-Lee-Dr-Phoenix-AZ-85037/67764458_zpid/,33.4667,-112.264,6593,2018-01-19
448086,23915005,"8340 W Glenrosa Ave, Phoenix, AZ 85037 ",85037,0.34712202847003937,0.9036490023136139,0.31367647470802895,178000,https://www.zillow.com/homedetails/8340-W-Glenrosa-Ave-Phoenix-AZ-85037/7466807_zpid/,33.4982,-112.24,6648,2018-03-15
391388,23937814,"4111 W Orangewood Ave, Phoenix, AZ 85051 ",85051,0.34712202847003937,0.9034602344036102,0.31361094920819843,215500,https://www.zillow.com/homedetails/4111-W-Orangewood-Ave-Phoenix-AZ-85051/7756400_zpid/,33.5455,-112.148,6656,2018-03-23
402358,23919704,"14838 N 61ST Dr, Glendale, AZ 85306 ",85306,0.34712202847003937,0.9034591317176819,0.3136105664416222,239000,https://www.zillow.com/homedetails/14838-N-61ST-Dr-Glendale-AZ-85306/8098695_zpid/,33.6194,-112.191,6656,2018-03-23
230372,23915232,"16642 N 40TH Ave, Phoenix, AZ 85053 ",85053,0.34712202847003937,0.9034319221973419,0.3136011214177281,215000,https://www.zillow.com/homedetails/16642-N-40TH-Ave-Phoenix-AZ-85053/7946503_zpid/,33.6371,-112.145,6653,2018-03-20
433021,23914975,"7211 W Pierson St, Phoenix, AZ 85033 ",85033,0.34712202847003937,0.9033678770065308,0.31357888992118,160000,https://www.zillow.com/homedetails/7211-W-Pierson-St-Phoenix-AZ-85033/7710763_zpid/,33.5068,-112.214,6650,2018-03-17
424925,23920234,"9808 N 47TH Ave, Glendale, AZ 85302 ",85302,0.34712202847003937,0.903328150510788,0.31356509997939375,244900,https://www.zillow.com/homedetails/9808-N-47TH-Ave-Glendale-AZ-85302/7728902_zpid/,33.575,-112.16,6646,2018-03-13
412564,23919878,"5526 W Altadena Ave, Glendale, AZ 85304 ",85304,0.34712202847003937,0.903251051902771,0.3135383373541867,225000,https://www.zillow.com/homedetails/5526-W-Altadena-Ave-Glendale-AZ-85304/7737834_zpid/,33.5922,-112.179,6650,2018-03-17
400995,23937163,"11020 N 45TH Ave, Glendale, AZ 85304 ",85304,0.34712202847003937,0.9032272100448608,0.3135300613201064,239900,https://www.zillow.com/homedetails/11020-N-45TH-Ave-Glendale-AZ-85304/7727899_zpid/,33.5871,-112.156,6662,2018-03-29
389317,23937797,"3910 W Northview Ave, Phoenix, AZ 85051 ",85051,0.34712202847003937,0.9031850099563599,0.31351541273978434,228900,https://www.zillow.com/homedetails/3910-W-Northview-Ave-Phoenix-AZ-85051/7757820_zpid/,33.544000000000004,-112.14299999999999,6649,2018-03-16
526828,23872898,"9418 W Sheridan St, Phoenix, AZ 85037 ",85037,0.34712202847003937,0.9031441807746887,0.3135012400314219,209500,https://www.zillow.com/homedetails/9418-W-Sheridan-St-Phoenix-AZ-85037/67773035_zpid/,33.475,-112.262,6606,2018-02-01
9031620,23915002,"4723 N 79TH Ave, Phoenix, AZ 85033 ",85033,0.34712202847003937,0.9031232297420502,0.31349396746647384,179900,https://www.zillow.com/homedetails/4723-N-79TH-Ave-Phoenix-AZ-85033/7467782_zpid/,33.5072,-112.228,6656,2018-03-23
1577853,23929565,"10025 N Balboa Dr, Sun City, AZ 85351 ",85351,0.34712202847003937,0.9030740559101105,0.3134768981461833,157900,https://www.zillow.com/homedetails/10025-N-Balboa-Dr-Sun-City-AZ-85351/7688670_zpid/,33.5759,-112.273,6652,2018-03-19
248295,23915632,"3449 W Michigan Ave, Phoenix, AZ 85053 ",85053,0.34712202847003937,0.9030528962612152,0.31346955316593705,220000,https://www.zillow.com/homedetails/3449-W-Michigan-Ave-Phoenix-AZ-85053/7941231_zpid/,33.6508,-112.134,6655,2018-03-22
9031597,23914748,"9745 W Mcrae Way, Peoria, AZ 85382 ",85382,0.34712202847003937,0.9030163884162903,0.31345688048875164,246650,https://www.zillow.com/homedetails/9745-W-Mcrae-Way-Peoria-AZ-85382/7896606_zpid/,33.6529,-112.27,6647,2018-03-14
8980472,23915022,"7748 W Minnezona Ave, Phoenix, AZ 85033 ",85033,0.34712202847003937,0.9030125439167023,0.3134555459782562,169900,https://www.zillow.com/homedetails/7748-W-Minnezona-Ave-Phoenix-AZ-85033/7482425_zpid/,33.5021,-112.227,6645,2018-03-12
9033764,23933631,"4221 N 64TH Dr, Phoenix, AZ 85033 ",85033,0.34712202847003937,0.9029962718486786,0.3134498975849964,220000,https://www.zillow.com/homedetails/4221-N-64TH-Dr-Phoenix-AZ-85033/7717397_zpid/,33.498000000000005,-112.198,6664,2018-03-31
384730,23937759,"3507 W Frier Dr, Phoenix, AZ 85051 ",85051,0.34712202847003937,0.9029735326766968,0.31344200431749236,210000,https://www.zillow.com/homedetails/3507-W-Frier-Dr-Phoenix-AZ-85051/7755806_zpid/,33.5492,-112.135,6651,2018-03-18
242624,23915588,"3202 W Grovers Ave, Phoenix, AZ 85053 ",85053,0.34712202847003937,0.9028189778327942,0.313388354926567,219900,https://www.zillow.com/homedetails/3202-W-Grovers-Ave-Phoenix-AZ-85053/7941583_zpid/,33.6476,-112.12799999999999,6645,2018-03-12
9026853,23923313,"9920 W Cameo Dr, Sun City, AZ 85351 ",85351,0.34712202847003937,0.9027726650238037,0.3133722787303661,149900,https://www.zillow.com/homedetails/9920-W-Cameo-Dr-Sun-City-AZ-85351/7907926_zpid/,33.6129,-112.26899999999999,6632,2018-02-27
1414927,23883462,"7413 N 67TH Dr, Glendale, AZ 85303 ",85303,0.34712202847003937,0.9027551114559174,0.3133661855002745,235000,https://www.zillow.com/homedetails/7413-N-67TH-Dr-Glendale-AZ-85303/7705033_zpid/,33.5447,-112.20299999999999,6611,2018-02-06
418810,23938188,"5231 W Seldon Ln, Glendale, AZ 85302 ",85302,0.34712202847003937,0.9026973843574524,0.31334614715275766,212000,https://www.zillow.com/homedetails/5231-W-Seldon-Ln-Glendale-AZ-85302/7733881_zpid/,33.5609,-112.165,6659,2018-03-26
1410883,23888985,"7120 W Sierra Vista Dr, Glendale, AZ 85303 ",85303,0.34712202847003937,0.9026814103126526,0.3133406022099239,182000,https://www.zillow.com/homedetails/7120-W-Sierra-Vista-Dr-Glendale-AZ-85303/7706907_zpid/,33.5318,-112.213,6622,2018-02-17
232349,23943386,"17848 N 33RD Dr, Phoenix, AZ 85053 ",85053,0.34712202847003937,0.9026222229003906,0.3133200569553196,197150,https://www.zillow.com/homedetails/17848-N-33RD-Dr-Phoenix-AZ-85053/7941284_zpid/,33.649,-112.131,6662,2018-03-29
9032265,23920037,"5613 W Campo Bello Dr, Glendale, AZ 85308 ",85308,0.34712202847003937,0.9026002883911133,0.31331244300396577,215000,https://www.zillow.com/homedetails/5613-W-Campo-Bello-Dr-Glendale-AZ-85308/8099634_zpid/,33.6432,-112.18,6648,2018-03-15
1118968,23920456,"2113 W Boston St, Chandler, AZ 85224 ",85224,0.34712202847003937,0.9025482535362244,0.3132943805595856,205000,https://www.zillow.com/homedetails/2113-W-Boston-St-Chandler-AZ-85224/8208049_zpid/,33.3016,-111.87799999999999,6642,2018-03-09
249467,23927324,"413 E Rimrock Dr, Phoenix, AZ 85024 ",85024,0.34712202847003937,0.9024751782417297,0.31326901451512956,222000,https://www.zillow.com/homedetails/413-E-Rimrock-Dr-Phoenix-AZ-85024/7968011_zpid/,33.6625,-112.068,6637,2018-03-04
1354032,23882938,"6345 W Lawrence Rd, Glendale, AZ 85301 ",85301,0.34712202847003937,0.9024217128753662,0.31325045550870456,139500,https://www.zillow.com/homedetails/6345-W-Lawrence-Rd-Glendale-AZ-85301/7707552_zpid/,33.5357,-112.197,6603,2018-01-29
9025496,23933756,"8202 W Avalon Dr, Phoenix, AZ 85033 ",85033,0.34712202847003937,0.9023711681365967,0.3132329103164544,188999,https://www.zillow.com/homedetails/8202-W-Avalon-Dr-Phoenix-AZ-85033/7479720_zpid/,33.4825,-112.235,6657,2018-03-24
417983,23889534,"4933 W Golden Ln, Glendale, AZ 85302 ",85302,0.34712202847003937,0.9023461043834686,0.3132242101356275,200000,https://www.zillow.com/homedetails/4933-W-Golden-Ln-Glendale-AZ-85302/7730593_zpid/,33.5645,-112.166,6623,2018-02-18
380211,23937750,"2825 W State Ave, Phoenix, AZ 85051 ",85051,0.34712202847003937,0.9022885262966156,0.31320422351332367,215000,https://www.zillow.com/homedetails/2825-W-State-Ave-Phoenix-AZ-85051/7755989_zpid/,33.5442,-112.12,6652,2018-03-19
395974,23937389,"3839 W Lupine Ave, Phoenix, AZ 85029 ",85029,0.34712202847003937,0.9022049903869629,0.3131752263589149,230000,https://www.zillow.com/homedetails/3839-W-Lupine-Ave-Phoenix-AZ-85029/7744057_zpid/,33.5893,-112.14200000000001,6657,2018-03-24
424553,23938388,"9415 N 53RD Ave, Glendale, AZ 85302 ",85302,0.34712202847003937,0.9021769464015961,0.313165491673828,230000,https://www.zillow.com/homedetails/9415-N-53RD-Ave-Glendale-AZ-85302/7734580_zpid/,33.5721,-112.17399999999999,6664,2018-03-31
9034391,23938387,"8449 W 61st Dr, Glendale, AZ 85302 ",85302,0.34712202847003937,0.9021615982055664,0.31316016397688884,234587,https://www.zillow.com/homedetails/8449-W-61st-Dr-Glendale-AZ-85302/2090261909_zpid/,33.5225,-112.19200000000001,6669,2018-04-05
9032612,23923307,"9410 W Raintree Dr, Sun City, AZ 85351 ",85351,0.34712202847003937,0.9021560847759247,0.3131582501440078,194500,https://www.zillow.com/homedetails/9410-W-Raintree-Dr-Sun-City-AZ-85351/7922067_zpid/,33.6169,-112.26100000000001,6648,2018-03-15
8988863,23920237,"8622 N 69TH Dr, Peoria, AZ 85345 ",85345,0.34712202847003937,0.9021241962909698,0.3131471809484254,226900,https://www.zillow.com/homedetails/8622-N-69TH-Dr-Peoria-AZ-85345/50187892_zpid/,33.5645,-112.208,6650,2018-03-17
625114,23886893,"2235 S Hosick, Mesa, AZ 85210 ",85210,0.34712202847003937,0.9020979106426239,0.3131380566208519,200000,https://www.zillow.com/homedetails/2235-S-Hosick-Mesa-AZ-85210/8170281_zpid/,33.3741,-111.848,6621,2018-02-16
528117,23877942,"9562 W Monte Vista Rd, Phoenix, AZ 85037 ",85037,0.34712202847003937,0.9020526111125946,0.3131223321560994,209900,https://www.zillow.com/homedetails/9562-W-Monte-Vista-Rd-Phoenix-AZ-85037/60975006_zpid/,33.4704,-112.26700000000001,6617,2018-02-12
352728,23941243,"7209 W Hess Ave, Phoenix, AZ 85043 ",85043,0.34712202847003937,0.902020663022995,0.31311124227043186,198000,https://www.zillow.com/homedetails/7209-W-Hess-Ave-Phoenix-AZ-85043/52424246_zpid/,33.4293,-112.215,6670,2018-04-06
9031594,23914688,"9544 W Echo Ln, Peoria, AZ 85345 ",85345,0.34712202847003937,0.9019874036312103,0.3130996972028899,245500,https://www.zillow.com/homedetails/9544-W-Echo-Ln-Peoria-AZ-85345/7687535_zpid/,33.5581,-112.266,6651,2018-03-18
411698,23919819,"5245 W Christy Dr, Glendale, AZ 85304 ",85304,0.34712202847003937,0.9019757807254791,0.31309566263627575,226000,https://www.zillow.com/homedetails/5245-W-Christy-Dr-Glendale-AZ-85304/7737073_zpid/,33.5839,-112.17299999999999,6655,2018-03-22
429235,23914962,"6338 W Thomas Rd, Phoenix, AZ 85033 ",85033,0.34712202847003937,0.9019244611263275,0.313077848472918,224900,https://www.zillow.com/homedetails/6338-W-Thomas-Rd-Phoenix-AZ-85033/7498752_zpid/,33.4807,-112.197,6636,2018-03-03
9024615,23915698,"4345 W Morrow Dr, Glendale, AZ 85308 ",85308,0.34712202847003937,0.9018780887126923,0.31306175158663185,245000,https://www.zillow.com/homedetails/4345-W-Morrow-Dr-Glendale-AZ-85308/7938791_zpid/,33.6569,-112.154,6640,2018-03-07
381338,23937717,"2942 W Cactus Wren Dr, Phoenix, AZ 85051 ",85051,0.34712202847003937,0.9018486440181732,0.3130515306845427,245000,https://www.zillow.com/homedetails/2942-W-Cactus-Wren-Dr-Phoenix-AZ-85051/7757145_zpid/,33.5397,-112.124,6641,2018-03-08
504031,23914796,"2207 N 47TH Dr, Phoenix, AZ 85035 ",85035,0.34712202847003937,0.9017835259437561,0.313028926766461,169000,https://www.zillow.com/homedetails/2207-N-47TH-Dr-Phoenix-AZ-85035/7494471_zpid/,33.4715,-112.161,6655,2018-03-22
9031560,23914531,"8715 W Puget Ave, Peoria, AZ 85345 ",85345,0.34712202847003937,0.9017737805843353,0.3130255439375307,175000,https://www.zillow.com/homedetails/8715-W-Puget-Ave-Peoria-AZ-85345/7683996_zpid/,33.5654,-112.24700000000001,6649,2018-03-16
8967906,23915527,"2908 W Angela Dr, Phoenix, AZ 85053 ",85053,0.34712202847003937,0.9017442762851715,0.31301530234535635,189000,https://www.zillow.com/homedetails/2908-W-Angela-Dr-Phoenix-AZ-85053/7942295_zpid/,33.6461,-112.12200000000001,6638,2018-03-05
448657,23877888,"8427 W Berkeley Rd, Phoenix, AZ 85037 ",85037,0.34712202847003937,0.9017399847507477,0.3130138126592219,159990,https://www.zillow.com/homedetails/8427-W-Berkeley-Rd-Phoenix-AZ-85037/7488038_zpid/,33.4676,-112.242,6592,2018-01-18
9032346,23921566,"538 W Monterey St, Chandler, AZ 85225 ",85225,0.34712202847003937,0.9017143547534943,0.3130049159225856,171400,https://www.zillow.com/homedetails/538-W-Monterey-St-Chandler-AZ-85225/8187065_zpid/,33.315,-111.84899999999999,6630,2018-02-25
429760,23914997,"6428 W Catalina Dr, Phoenix, AZ 85033 ",85033,0.34712202847003937,0.9017012119293213,0.31300035375879887,189500,https://www.zillow.com/homedetails/6428-W-Catalina-Dr-Phoenix-AZ-85033/7498697_zpid/,33.4821,-112.198,6655,2018-03-22
389457,23937798,"3919 W Northview Ave, Phoenix, AZ 85051 ",85051,0.34712202847003937,0.9016796052455902,0.3129928536029136,199990,https://www.zillow.com/homedetails/3919-W-Northview-Ave-Phoenix-AZ-85051/7757815_zpid/,33.5436,-112.14399999999999,6663,2018-03-30
395110,23937400,"3717 W Columbine Dr, Phoenix, AZ 85029 ",85029,0.34712202847003937,0.9016731977462769,0.31299062941875455,195000,https://www.zillow.com/homedetails/3717-W-Columbine-Dr-Phoenix-AZ-85029/7743204_zpid/,33.5989,-112.139,6645,2018-03-12
9031637,23915107,"7641 W Sells Dr, Phoenix, AZ 85033 ",85033,0.34712202847003937,0.9015808403491974,0.3129585701317361,189000,https://www.zillow.com/homedetails/7641-W-Sells-Dr-Phoenix-AZ-85033/7482080_zpid/,33.5006,-112.225,6641,2018-03-08
830847,23937788,"3855 W Lawrence Rd, Phoenix, AZ 85019 ",85019,0.34712202847003937,0.9015660285949707,0.31295342864556375,199900,https://www.zillow.com/homedetails/3855-W-Lawrence-Rd-Phoenix-AZ-85019/7758482_zpid/,33.5353,-112.14299999999999,6655,2018-03-22
1120141,23885857,"2213 W Los Arboles Pl, Chandler, AZ 85224 ",85224,0.34712202847003937,0.9015576541423798,0.31295052168859305,239990,https://www.zillow.com/homedetails/2213-W-Los-Arboles-Pl-Chandler-AZ-85224/8192352_zpid/,33.3355,-111.88,6613,2018-02-08
9034166,23935411,"3034 E Kings Ave, Phoenix, AZ 85032 ",85032,0.34712202847003937,0.9015278816223145,0.3129401869910353,239900,https://www.zillow.com/homedetails/3034-E-Kings-Ave-Phoenix-AZ-85032/62731424_zpid/,33.637,-112.016,6668,2018-04-04
446948,23914963,"4832 N 84TH Dr, Phoenix, AZ 85037 ",85037,0.34712202847003937,0.901507705450058,0.3129331833971949,155000,https://www.zillow.com/homedetails/4832-N-84TH-Dr-Phoenix-AZ-85037/7481144_zpid/,33.508,-112.241,6633,2018-02-28
400361,23919712,"10635 N 49TH Ave, Glendale, AZ 85304 ",85304,0.34712202847003937,0.9013362526893616,0.31287366836711517,230000,https://www.zillow.com/homedetails/10635-N-49TH-Ave-Glendale-AZ-85304/7728180_zpid/,33.5834,-112.164,6653,2018-03-20
9031623,23933685,"5702 W Cheery Lynn Rd, Phoenix, AZ 85031 ",85031,0.34712202847003937,0.901313066482544,0.3128656199239721,184000,https://www.zillow.com/homedetails/5702-W-Cheery-Lynn-Rd-Phoenix-AZ-85031/7497554_zpid/,33.4859,-112.18299999999999,6659,2018-03-26
9031628,23915097,"6608 W Wolf St, Phoenix, AZ 85033 ",85033,0.34712202847003937,0.9013092219829559,0.31286428541347666,199000,https://www.zillow.com/homedetails/6608-W-Wolf-St-Phoenix-AZ-85033/7712485_zpid/,33.5077,-112.20200000000001,6639,2018-03-06
9034615,23940667,"7412 W Cinnabar Ave, Peoria, AZ 85345 ",85345,0.34712202847003937,0.9012516438961029,0.3128442987911728,239000,https://www.zillow.com/homedetails/7412-W-Cinnabar-Ave-Peoria-AZ-85345/7705766_zpid/,33.5765,-112.21799999999999,6657,2018-03-24
139899,23929627,"9827 W Wrangler Dr, Sun City, AZ 85373 ",85373,0.34712202847003937,0.9012448489665985,0.31284194012145994,205000,https://www.zillow.com/homedetails/9827-W-Wrangler-Dr-Sun-City-AZ-85373/8095448_zpid/,33.6396,-112.272,6655,2018-03-22
410753,23938157,"4934 W Becker Ln, Glendale, AZ 85304 ",85304,0.34712202847003937,0.9011558890342712,0.31281106016929794,229500,https://www.zillow.com/homedetails/4934-W-Becker-Ln-Glendale-AZ-85304/67083499_zpid/,33.5826,-112.166,6657,2018-03-24
411756,23919797,"5267 W Cholla St, Glendale, AZ 85304 ",85304,0.34712202847003937,0.901093989610672,0.31278957351581704,249900,https://www.zillow.com/homedetails/5267-W-Cholla-St-Glendale-AZ-85304/7736831_zpid/,33.5889,-112.17299999999999,6652,2018-03-19
9034321,23937483,"3501 W Ironwood Dr, Phoenix, AZ 85051 ",85051,0.34712202847003937,0.9009981155395508,0.31275629351377177,239900,https://www.zillow.com/homedetails/3501-W-Ironwood-Dr-Phoenix-AZ-85051/2090447100_zpid/,33.5759,-112.135,6659,2018-03-26
9031633,23915091,"7755 W Heatherbrae Dr, Phoenix, AZ 85033 ",85033,0.34712202847003937,0.9009939134120941,0.3127548348627651,189900,https://www.zillow.com/homedetails/7755-W-Heatherbrae-Dr-Phoenix-AZ-85033/7467562_zpid/,33.497,-112.228,6634,2018-03-01
9032267,23920060,"5732 W Michelle Dr, Glendale, AZ 85308 ",85308,0.34712202847003937,0.9009698629379272,0.31274648641338665,220000,https://www.zillow.com/homedetails/5732-W-Michelle-Dr-Glendale-AZ-85308/7900937_zpid/,33.6488,-112.18299999999999,6653,2018-03-20
390405,23937407,"4017 W Orchid Ln, Phoenix, AZ 85051 ",85051,0.34712202847003937,0.9008825123310089,0.31271616509352507,192400,https://www.zillow.com/homedetails/4017-W-Orchid-Ln-Phoenix-AZ-85051/7753381_zpid/,33.5615,-112.146,6666,2018-04-02
491225,23914955,"5546 W Granada Rd, Phoenix, AZ 85035 ",85035,0.34712202847003937,0.9008177220821381,0.31269367497091194,209900,https://www.zillow.com/homedetails/5546-W-Granada-Rd-Phoenix-AZ-85035/7492901_zpid/,33.4691,-112.18,6656,2018-03-23
