property_id,transaction_id,address,zipcode,any_sell,good_sell,bayesian,list,url,lat,long,date_listed,transaction_date
9030467,23907928,"1105 S 6th Ave, Phoenix, AZ 85003 ",85003,0.19107647240161896,0.9867803454399109,0.18855050744190915,50000,https://www.zillow.com/homedetails/1105-S-6th-Ave-Phoenix-AZ-85003/2091048360_zpid/,33.437,-112.08200000000001,6619,2018-02-14
9033237,23929791,"2405 S 90TH Gln, Tolleson, AZ 85353 ",85353,0.19107647240161896,0.9372518658638,0.17908678028109026,210000,https://www.zillow.com/homedetails/2405-S-90TH-Gln-Tolleson-AZ-85353/67772731_zpid/,33.4252,-112.255,6633,2018-02-28
9033248,23941288,"8937 W Hess St, Tolleson, AZ 85353 ",85353,0.19107647240161896,0.9370562136173248,0.17904939574001633,199000,https://www.zillow.com/homedetails/8937-W-Hess-St-Tolleson-AZ-85353/62726927_zpid/,33.428000000000004,-112.25399999999999,6653,2018-03-20
362997,23929962,"9017 W Hilton Ave, Tolleson, AZ 85353 ",85353,0.19107647240161896,0.9367110431194305,0.17898344177890158,210000,https://www.zillow.com/homedetails/9017-W-Hilton-Ave-Tolleson-AZ-85353/62726889_zpid/,33.4271,-112.25399999999999,6638,2018-03-05
9033245,23929967,"8536 W Magnolia St, Tolleson, AZ 85353 ",85353,0.19107647240161896,0.9347051978111267,0.17860017193320754,230000,https://www.zillow.com/homedetails/8536-W-Magnolia-St-Tolleson-AZ-85353/59271181_zpid/,33.4238,-112.245,6643,2018-03-10
363090,23874641,"9025 W Hilton Ave, Tolleson, AZ 85353 ",85353,0.19107647240161896,0.9342839121818542,0.17851967416129266,189900,https://www.zillow.com/homedetails/9025-W-Hilton-Ave-Tolleson-AZ-85353/67772691_zpid/,33.4271,-112.25399999999999,6608,2018-02-03
361198,23929894,"8529 W Hughes Dr, Tolleson, AZ 85353 ",85353,0.19107647240161896,0.934066116809845,0.17847805858990373,239900,https://www.zillow.com/homedetails/8529-W-Hughes-Dr-Tolleson-AZ-85353/59271124_zpid/,33.4249,-112.244,6635,2018-03-02
354297,23929964,"8118 W Whyman Ave, Phoenix, AZ 85043 ",85043,0.19107647240161896,0.9340485036373138,0.17847469312702868,205000,https://www.zillow.com/homedetails/8118-W-Whyman-Ave-Phoenix-AZ-85043/52423847_zpid/,33.4273,-112.235,6640,2018-03-07
361380,23886784,"8601 W Flavia Hvn, Tolleson, AZ 85353 ",85353,0.19107647240161896,0.9340307712554932,0.1784713048860631,245000,https://www.zillow.com/homedetails/8601-W-Flavia-Hvn-Tolleson-AZ-85353/59271170_zpid/,33.4241,-112.245,6621,2018-02-16
365838,23892504,"9923 W Whyman Ave, Tolleson, AZ 85353 ",85353,0.19107647240161896,0.9339423775672913,0.17845441493193892,224000,https://www.zillow.com/homedetails/9923-W-Whyman-Ave-Tolleson-AZ-85353/95149673_zpid/,33.4254,-112.274,6634,2018-03-01
40027,23874516,"2248 S 82ND Ln, Phoenix, AZ 85043 ",85043,0.19107647240161896,0.9338654577732086,0.17843971736902775,210000,https://www.zillow.com/homedetails/2248-S-82ND-Ln-Phoenix-AZ-85043/52423821_zpid/,33.4267,-112.238,6612,2018-02-07
1112872,23885785,"1482 W Orchid Ln, Chandler, AZ 85224 ",85224,0.19107647240161896,0.933516263961792,0.17837299464735779,249900,https://www.zillow.com/homedetails/1482-W-Orchid-Ln-Chandler-AZ-85224/8203452_zpid/,33.3237,-111.867,6614,2018-02-09
9026756,23893480,"1033 W Orchid Ln, Chandler, AZ 85224 ",85224,0.19107647240161896,0.9333836138248444,0.17834764832712624,249900,https://www.zillow.com/homedetails/1033-W-Orchid-Ln-Chandler-AZ-85224/8203649_zpid/,33.3236,-111.86,6619,2018-02-14
43394,23929854,"7910 W Winslow Ave, Phoenix, AZ 85043 ",85043,0.19107647240161896,0.9322270452976227,0.17812665529285399,239950,https://www.zillow.com/homedetails/7910-W-Winslow-Ave-Phoenix-AZ-85043/67764464_zpid/,33.4221,-112.23,6644,2018-03-11
43860,23874625,"8140 W Gibson Ln, Phoenix, AZ 85043 ",85043,0.19107647240161896,0.931494951248169,0.17798676934441815,214900,https://www.zillow.com/homedetails/8140-W-Gibson-Ln-Phoenix-AZ-85043/52423784_zpid/,33.4279,-112.236,6615,2018-02-10
359281,23890314,"2013 S 86TH Ave, Tolleson, AZ 85353 ",85353,0.19107647240161896,0.9314578175544739,0.17797967396921965,211000,https://www.zillow.com/homedetails/2013-S-86TH-Ave-Tolleson-AZ-85353/59271375_zpid/,33.4287,-112.244,6624,2018-02-19
352885,23929847,"7223 W Zak Rd, Phoenix, AZ 85043 ",85043,0.19107647240161896,0.9307805895805359,0.1778502716369479,179900,https://www.zillow.com/homedetails/7223-W-Zak-Rd-Phoenix-AZ-85043/52424200_zpid/,33.4269,-112.21600000000001,6646,2018-03-13
9024040,23873322,"2215 S 99TH Ln, Tolleson, AZ 85353 ",85353,0.19107647240161896,0.930606871843338,0.17781707826453053,213999,https://www.zillow.com/homedetails/2215-S-99TH-Ln-Tolleson-AZ-85353/95076703_zpid/,33.4261,-112.273,6610,2018-02-05
359511,23875667,"2422 S 84th Ln, Tolleson, AZ 85353 ",85353,0.19107647240161896,0.9305991232395172,0.1778155976886464,197500,https://www.zillow.com/homedetails/2422-S-84th-Ln-Tolleson-AZ-85353/59271244_zpid/,33.4258,-112.242,6605,2018-01-31
359312,23869360,"2024 S 85TH Ln, Tolleson, AZ 85353 ",85353,0.19107647240161896,0.9295113682746887,0.17760775330712963,185000,https://www.zillow.com/homedetails/2024-S-85th-Ln-Tolleson-AZ-85353/59271383_zpid/,33.4284,-112.244,6595,2018-01-21
9022216,23869757,"8333 W Watkins St, Tolleson, AZ 85353 ",85353,0.19107647240161896,0.9286413788795471,0.17744151880247916,190000,https://www.zillow.com/homedetails/8333-W-Watkins-St-Tolleson-AZ-85353/54886336_zpid/,33.4265,-112.24,6594,2018-01-20
6833,23886010,"3873 W Commonwealth Ave, Chandler, AZ 85226 ",85226,0.19107647240161896,0.9277511537075043,0.1772714177169621,230000,https://www.zillow.com/homedetails/3873-W-Commonwealth-Ave-Chandler-AZ-85226/55273361_zpid/,33.3027,-111.90899999999999,6618,2018-02-13
359526,23874541,"2429 S 83RD Dr, Tolleson, AZ 85353 ",85353,0.19107647240161896,0.9273746311664581,0.1771994731180393,209999,https://www.zillow.com/homedetails/2429-S-83RD-Dr-Tolleson-AZ-85353/59271229_zpid/,33.4258,-112.23899999999999,6600,2018-01-26
349674,23890334,"6325 W Magnolia St, Phoenix, AZ 85043 ",85043,0.19107647240161896,0.9269640743732452,0.17712102537427166,193000,https://www.zillow.com/homedetails/6325-W-Magnolia-St-Phoenix-AZ-85043/54948469_zpid/,33.4246,-112.197,6625,2018-02-20
354192,23874622,"8108 W Magnolia St, Phoenix, AZ 85043 ",85043,0.19107647240161896,0.9262204766273499,0.17697894134010017,217000,https://www.zillow.com/homedetails/8108-W-Magnolia-St-Phoenix-AZ-85043/50884736_zpid/,33.425,-112.234,6613,2018-02-08
9027233,23895214,"8406 W Hamster Ln, Tolleson, AZ 85353 ",85353,0.19107647240161896,0.92603400349617,0.17694331071199665,189000,https://www.zillow.com/homedetails/8406-W-Hamster-Ln-Tolleson-AZ-85353/58883271_zpid/,33.4288,-112.241,6614,2018-02-09
350370,23890327,"6417 W Preston Ln, Phoenix, AZ 85043 ",85043,0.19107647240161896,0.9260092377662659,0.1769385785636901,203800,https://www.zillow.com/homedetails/6417-W-Preston-Ln-Phoenix-AZ-85043/55257431_zpid/,33.4233,-112.199,6626,2018-02-21
972984,23921177,"5975 W Del Rio St, Chandler, AZ 85226 ",85226,0.19107647240161896,0.9256128072738647,0.17686283002364966,220000,https://www.zillow.com/homedetails/5975-W-Del-Rio-St-Chandler-AZ-85226/8262022_zpid/,33.3128,-111.945,6648,2018-03-15
21550,23880121,"8329 W Gross Ave, Tolleson, AZ 85353 ",85353,0.19107647240161896,0.9251899123191833,0.1767820247475127,198000,https://www.zillow.com/homedetails/8329-W-Gross-Ave-Tolleson-AZ-85353/59271315_zpid/,33.4293,-112.24,6620,2018-02-15
1128437,23920629,"3298 N Ash Dr, Chandler, AZ 85224 ",85224,0.19107647240161896,0.9239223599433899,0.1765398253109618,240000,https://www.zillow.com/homedetails/3298-N-Ash-Dr-Chandler-AZ-85224/8191971_zpid/,33.3549,-111.87100000000001,6636,2018-03-03
354449,23889724,"8137 W Hess Ave, Phoenix, AZ 85043 ",85043,0.19107647240161896,0.9236131012439728,0.17648073324961766,205000,https://www.zillow.com/homedetails/8137-W-Hess-Ave-Phoenix-AZ-85043/40371664_zpid/,33.4291,-112.236,6624,2018-02-19
40196,23874530,"2907 S 71st Dr, Phoenix, AZ 85043 ",85043,0.19107647240161896,0.9234425723552704,0.17644814919112184,240000,https://www.zillow.com/homedetails/2907-S-71st-Dr-Phoenix-AZ-85043/71604365_zpid/,33.4222,-112.213,6613,2018-02-08
40028,23875647,"2304 S 66TH Ln, Phoenix, AZ 85043 ",85043,0.19107647240161896,0.9227843582630157,0.1763223799642888,219900,https://www.zillow.com/homedetails/2304-S-66TH-Ln-Phoenix-AZ-85043/67773205_zpid/,33.427,-112.204,6617,2018-02-12
352675,23874598,"7143 W Zak Rd, Phoenix, AZ 85043 ",85043,0.19107647240161896,0.9227809906005859,0.17632173648323146,190000,https://www.zillow.com/homedetails/7143-W-Zak-Rd-Phoenix-AZ-85043/52424124_zpid/,33.4268,-112.214,6606,2018-02-01
39857,23889258,"1810 S 82nd Dr, Phoenix, AZ 85043 ",85043,0.19107647240161896,0.9219674170017242,0.17616628170992188,179900,https://www.zillow.com/homedetails/1810-S-82nd-Dr-Phoenix-AZ-85043/60047254_zpid/,33.4316,-112.238,6624,2018-02-19
959786,23890197,"3817 W Folley St, Chandler, AZ 85226 ",85226,0.19107647240161896,0.9219170212745667,0.1761566522721525,235000,https://www.zillow.com/homedetails/3817-W-Folley-St-Chandler-AZ-85226/8156123_zpid/,33.2977,-111.90799999999999,6625,2018-02-20
39873,23876462,"1904 S 82nd Dr, Phoenix, AZ 85043 ",85043,0.19107647240161896,0.9218053221702576,0.1761353092013307,207000,https://www.zillow.com/homedetails/1904-S-82nd-Dr-Phoenix-AZ-85043/58770129_zpid/,33.4313,-112.238,6619,2018-02-14
41792,23874571,"6411 W Winslow Ave, Phoenix, AZ 85043 ",85043,0.19107647240161896,0.9215437769889832,0.17608533407071914,210000,https://www.zillow.com/homedetails/6411-W-Winslow-Ave-Phoenix-AZ-85043/49641685_zpid/,33.4219,-112.198,6610,2018-02-05
973060,23891307,"600 N Aspen Dr, Chandler, AZ 85226 ",85226,0.19107647240161896,0.9212604463100433,0.17603119624406416,223900,https://www.zillow.com/homedetails/600-N-Aspen-Dr-Chandler-AZ-85226/8262023_zpid/,33.3128,-111.945,6624,2018-02-19
976190,23921531,"739 N Valencia Pl, Chandler, AZ 85226 ",85226,0.19107647240161896,0.9210568368434906,0.1759922912654477,244900,https://www.zillow.com/homedetails/739-N-Valencia-Pl-Chandler-AZ-85226/8155195_zpid/,33.3161,-111.90899999999999,6651,2018-03-18
349981,23889261,"6342 W Whyman Ave, Phoenix, AZ 85043 ",85043,0.19107647240161896,0.9210461378097534,0.17599024693182308,179900,https://www.zillow.com/homedetails/6342-W-Whyman-Ave-Phoenix-AZ-85043/53206189_zpid/,33.4274,-112.198,6624,2018-02-19
350150,23874570,"6406 W Preston Ln, Phoenix, AZ 85043 ",85043,0.19107647240161896,0.9203992784023285,0.17586664731811252,169900,https://www.zillow.com/homedetails/6406-W-Preston-Ln-Phoenix-AZ-85043/55257443_zpid/,33.4237,-112.198,6606,2018-02-01
351354,23929786,"6558 W Nez Perce St, Phoenix, AZ 85043 ",85043,0.19107647240161896,0.9195987582206726,0.17571368674571541,185000,https://www.zillow.com/homedetails/6558-W-Nez-Perce-St-Phoenix-AZ-85043/54938704_zpid/,33.431999999999995,-112.20100000000001,6643,2018-03-10
440506,23914803,"2405 N 83RD Dr, Phoenix, AZ 85037 ",85037,0.19107647240161896,0.918793112039566,0.17555974671542574,169900,https://www.zillow.com/homedetails/2405-N-83RD-Dr-Phoenix-AZ-85037/81976574_zpid/,33.4739,-112.238,6643,2018-03-10
350839,23886786,"6514 W Sonora St, Phoenix, AZ 85043 ",85043,0.19107647240161896,0.9187536835670471,0.17555221286198464,175000,https://www.zillow.com/homedetails/6514-W-Sonora-St-Phoenix-AZ-85043/7500079_zpid/,33.4338,-112.2,6621,2018-02-16
1108960,23920279,"1170 W Butler Dr, Chandler, AZ 85224 ",85224,0.19107647240161896,0.9186494052410126,0.175532287727298,249900,https://www.zillow.com/homedetails/1170-W-Butler-Dr-Chandler-AZ-85224/8207445_zpid/,33.3013,-111.86200000000001,6642,2018-03-09
9027265,23895296,"8555 W Sonora St, Tolleson, AZ 85353 ",85353,0.19107647240161896,0.9173659682273865,0.17528705311018467,190500,https://www.zillow.com/homedetails/8555-W-Sonora-St-Tolleson-AZ-85353/58494114_zpid/,33.4325,-112.244,6608,2018-02-03
9029090,23901746,"2331 W Comstock Dr, Chandler, AZ 85224 ",85224,0.19107647240161896,0.9173216819763184,0.17527859104955468,245000,https://www.zillow.com/homedetails/2331-W-Comstock-Dr-Chandler-AZ-85224/8201985_zpid/,33.3471,-111.882,6625,2018-02-20
9018003,23920413,"1842 W Alamo Dr, Chandler, AZ 85224 ",85224,0.19107647240161896,0.916500061750412,0.17512159875513467,244000,https://www.zillow.com/homedetails/1842-W-Alamo-Dr-Chandler-AZ-85224/8199834_zpid/,33.3482,-111.875,6639,2018-03-06
9026868,23897793,"1302 W Cortez Ct, Chandler, AZ 85224 ",85224,0.19107647240161896,0.9162684082984924,0.17507733523072222,249500,https://www.zillow.com/homedetails/1302-W-Cortez-Ct-Chandler-AZ-85224/8172446_zpid/,33.3554,-111.86399999999999,6624,2018-02-19
343269,23941092,"2230 S 63RD Dr, Phoenix, AZ 85043 ",85043,0.19107647240161896,0.9161497056484222,0.17505465394708208,197000,https://www.zillow.com/homedetails/2230-S-63RD-Dr-Phoenix-AZ-85043/55257493_zpid/,33.4273,-112.196,6654,2018-03-21
402846,23919717,"12115 N 66TH Ave, Glendale, AZ 85304 ",85304,0.19107647240161896,0.9158788919448853,0.17500290781993222,229990,https://www.zillow.com/homedetails/12115-N-66TH-Ave-Glendale-AZ-85304/67401338_zpid/,33.5959,-112.20100000000001,6646,2018-03-13
343494,23875666,"2518 S 66th Dr, Phoenix, AZ 85043 ",85043,0.19107647240161896,0.914343923330307,0.1747096114318114,194900,https://www.zillow.com/homedetails/2518-S-66th-Dr-Phoenix-AZ-85043/67773235_zpid/,33.425,-112.20200000000001,6581,2018-01-07
1466624,23913753,"17462 N 92ND Gln, Peoria, AZ 85382 ",85382,0.19107647240161896,0.9140992164611816,0.1746628537064865,224000,https://www.zillow.com/homedetails/17462-N-92ND-Gln-Peoria-AZ-85382/95142094_zpid/,33.6425,-112.259,6638,2018-03-05
501561,23888074,"7826 W Palm Ln, Phoenix, AZ 85035 ",85035,0.19107647240161896,0.9140045642852783,0.17464476790260974,172000,https://www.zillow.com/homedetails/7826-W-Palm-Ln-Phoenix-AZ-85035/95097689_zpid/,33.469,-112.228,6622,2018-02-17
1094758,23892220,"818 W Nopal Pl, Chandler, AZ 85225 ",85225,0.19107647240161896,0.9137860536575317,0.17460301566267766,249990,https://www.zillow.com/homedetails/818-W-Nopal-Pl-Chandler-AZ-85225/8177792_zpid/,33.3423,-111.85799999999999,6627,2018-02-22
9005657,23871977,"10439 W Papago St, Tolleson, AZ 85353 ",85353,0.19107647240161896,0.9137682020664215,0.17459960464362156,220000,https://www.zillow.com/homedetails/10439-W-Papago-St-Tolleson-AZ-85353/125986296_zpid/,33.4338,-112.24600000000001,6603,2018-01-29
1097216,23886156,"901 W Cheyenne Dr, Chandler, AZ 85225 ",85225,0.19107647240161896,0.9137598872184753,0.17459801587180745,240000,https://www.zillow.com/homedetails/901-W-Cheyenne-Dr-Chandler-AZ-85225/8176783_zpid/,33.3463,-111.85600000000001,6618,2018-02-13
1375062,23920152,"9054 W Nicolet Ave, Glendale, AZ 85305 ",85305,0.19107647240161896,0.9135572016239166,0.17455928742339255,245000,https://www.zillow.com/homedetails/9054-W-Nicolet-Ave-Glendale-AZ-85305/95083641_zpid/,33.5409,-112.25399999999999,6642,2018-03-09
41535,23889260,"6314 W Mohave St, Phoenix, AZ 85043 ",85043,0.19107647240161896,0.9133507013320923,0.17451983007608085,190000,https://www.zillow.com/homedetails/6314-W-Mohave-St-Phoenix-AZ-85043/55257271_zpid/,33.431999999999995,-112.196,6623,2018-02-18
351880,23929813,"6625 W Polk St, Phoenix, AZ 85043 ",85043,0.19107647240161896,0.913004606962204,0.17445369958476453,178000,https://www.zillow.com/homedetails/6625-W-Polk-St-Phoenix-AZ-85043/67788414_zpid/,33.453,-112.20200000000001,6651,2018-03-18
1078091,23885832,"2052 N Holguin Way, Chandler, AZ 85225 ",85225,0.19107647240161896,0.9129860103130341,0.17445014620264265,219000,https://www.zillow.com/homedetails/2052-N-Holguin-Way-Chandler-AZ-85225/60985138_zpid/,33.3362,-111.84899999999999,6593,2018-01-19
962858,23920761,"4276 W Park Ave, Chandler, AZ 85226 ",85226,0.19107647240161896,0.9123290479183197,0.17432461614576011,215000,https://www.zillow.com/homedetails/4276-W-Park-Ave-Chandler-AZ-85226/8153857_zpid/,33.3215,-111.91799999999999,6635,2018-03-02
9026644,23892930,"1956 N Illinois St, Chandler, AZ 85225 ",85225,0.19107647240161896,0.9122923016548157,0.17431759479935582,237500,https://www.zillow.com/homedetails/1956-N-Illinois-St-Chandler-AZ-85225/8182717_zpid/,33.3332,-111.84899999999999,6619,2018-02-14
9031576,23914627,"9130 W Topeka Dr, Peoria, AZ 85382 ",85382,0.19107647240161896,0.9120993614196777,0.17428072845984133,228700,https://www.zillow.com/homedetails/9130-W-Topeka-Dr-Peoria-AZ-85382/67084737_zpid/,33.6583,-112.257,6649,2018-03-16
9031429,23913826,"19833 N 90TH Ave, Peoria, AZ 85382 ",85382,0.19107647240161896,0.9118601381778717,0.17423501852668055,229000,https://www.zillow.com/homedetails/19833-N-90TH-Ave-Peoria-AZ-85382/8101637_zpid/,33.6645,-112.251,6633,2018-02-28
351243,23874592,"6540 W Gross Ave, Phoenix, AZ 85043 ",85043,0.19107647240161896,0.9112794697284698,0.17412406644773393,229900,https://www.zillow.com/homedetails/6540-W-Gross-Ave-Phoenix-AZ-85043/62727279_zpid/,33.4297,-112.20200000000001,6613,2018-02-08
249458,23915675,"413 E Oraibi Dr, Phoenix, AZ 85024 ",85024,0.19107647240161896,0.9109013378620148,0.17405181434458905,222000,https://www.zillow.com/homedetails/413-E-Oraibi-Dr-Phoenix-AZ-85024/67085271_zpid/,33.6637,-112.068,6655,2018-03-22
9029809,23904890,"17460 N 92ND Ave, Peoria, AZ 85382 ",85382,0.19107647240161896,0.91082563996315,0.17403735025710576,226000,https://www.zillow.com/homedetails/17460-N-92ND-Ave-Peoria-AZ-85382/95103614_zpid/,33.6425,-112.258,6621,2018-02-16
1113596,23885766,"1567 W Kesler Ln, Chandler, AZ 85224 ",85224,0.19107647240161896,0.9107454419136047,0.17402202629670516,245000,https://www.zillow.com/homedetails/1567-W-Kesler-Ln-Chandler-AZ-85224/8226104_zpid/,33.2918,-111.869,6596,2018-01-22
349688,23875696,"6325 W Whyman Ave, Phoenix, AZ 85043 ",85043,0.19107647240161896,0.9106711447238922,0.17400782985178553,225000,https://www.zillow.com/homedetails/6325-W-Whyman-Ave-Phoenix-AZ-85043/53206198_zpid/,33.4269,-112.197,6579,2018-01-05
9029861,23905103,"8642 W Echo Ln, Peoria, AZ 85345 ",85345,0.19107647240161896,0.9106545746326447,0.17400466369720258,185000,https://www.zillow.com/homedetails/8642-W-Echo-Ln-Peoria-AZ-85345/50187500_zpid/,33.5583,-112.24600000000001,6617,2018-02-12
1120336,23889251,"2231 W Ironwood Dr, Chandler, AZ 85224 ",85224,0.19107647240161896,0.9105691611766815,0.1739883431953415,219900,https://www.zillow.com/homedetails/2231-W-Ironwood-Dr-Chandler-AZ-85224/8192970_zpid/,33.3246,-111.881,6624,2018-02-19
9031420,23913768,"15881 N 74TH Ave, Peoria, AZ 85382 ",85382,0.19107647240161896,0.9105537235736847,0.17398539343261854,235000,https://www.zillow.com/homedetails/15881-N-74TH-Ave-Peoria-AZ-85382/71605894_zpid/,33.6293,-112.21799999999999,6653,2018-03-20
1126522,23920569,"2802 N Pennington Dr, Chandler, AZ 85224 ",85224,0.19107647240161896,0.9104327261447906,0.1739622736707358,249000,https://www.zillow.com/homedetails/2802-N-Pennington-Dr-Chandler-AZ-85224/8176474_zpid/,33.3465,-111.87100000000001,6634,2018-03-01
435409,23915054,"7910 W Catalina Dr, Phoenix, AZ 85033 ",85033,0.19107647240161896,0.9102678298950195,0.17393076587701728,217000,https://www.zillow.com/homedetails/7910-W-Catalina-Dr-Phoenix-AZ-85033/7469393_zpid/,33.4815,-112.228,6629,2018-02-24
1409638,23920035,"7005 W Cactus Wren Dr, Glendale, AZ 85303 ",85303,0.19107647240161896,0.9101739227771759,0.17391282243620632,230000,https://www.zillow.com/homedetails/7005-W-Cactus-Wren-Dr-Glendale-AZ-85303/55260444_zpid/,33.5388,-112.21,6648,2018-03-15
9021871,23872703,"12120 N 89th Dr, Peoria, AZ 85345 ",85345,0.19107647240161896,0.9098919928073883,0.173858952252115,239900,https://www.zillow.com/homedetails/12120-N-89th-Dr-Peoria-AZ-85345/7685583_zpid/,33.5947,-112.25200000000001,6606,2018-02-01
1370379,23919991,"6634 N 84TH Ln, Glendale, AZ 85305 ",85305,0.19107647240161896,0.9098657965660095,0.17385394676672217,205000,https://www.zillow.com/homedetails/6634-N-84TH-Ln-Glendale-AZ-85305/7461312_zpid/,33.5325,-112.241,6633,2018-02-28
478050,23914790,"1807 N 77TH Dr, Phoenix, AZ 85035 ",85035,0.19107647240161896,0.9095618426799774,0.1737958683304064,189900,https://www.zillow.com/homedetails/1807-N-77TH-Dr-Phoenix-AZ-85035/95087672_zpid/,33.4676,-112.225,6646,2018-03-13
1120647,23919574,"2302 W Ironwood Dr, Chandler, AZ 85224 ",85224,0.19107647240161896,0.9093994796276093,0.17376484457111152,240000,https://www.zillow.com/homedetails/2302-W-Ironwood-Dr-Chandler-AZ-85224/8193050_zpid/,33.3247,-111.882,6656,2018-03-23
9031389,23913600,"10929 N 72ND Dr, Peoria, AZ 85345 ",85345,0.19107647240161896,0.9091943800449371,0.1737256548663635,234900,https://www.zillow.com/homedetails/10929-N-72ND-Dr-Peoria-AZ-85345/7701012_zpid/,33.5845,-112.215,6640,2018-03-07
9029821,23904953,"8011 N 87th Dr, Peoria, AZ 85345 ",85345,0.19107647240161896,0.9091937243938446,0.1737255295868656,214900,https://www.zillow.com/homedetails/8011-N-87th-Dr-Peoria-AZ-85345/50187488_zpid/,33.5525,-112.24700000000001,6614,2018-02-09
445581,23914884,"4654 N 84TH Ln, Phoenix, AZ 85037 ",85037,0.19107647240161896,0.9090147912502289,0.17369133967298778,199000,https://www.zillow.com/homedetails/4654-N-84TH-Ln-Phoenix-AZ-85037/7481170_zpid/,33.5052,-112.242,6647,2018-03-14
423926,23883680,"8921 N 65th Dr, Glendale, AZ 85302 ",85302,0.19107647240161896,0.9089344441890717,0.17367598723997402,228800,https://www.zillow.com/homedetails/8921-N-65th-Dr-Glendale-AZ-85302/50187782_zpid/,33.5665,-112.2,6614,2018-02-09
2056408,23914192,"7328 W Carol Ave, Peoria, AZ 85345 ",85345,0.19107647240161896,0.9086875021457672,0.17362880242545176,193900,https://www.zillow.com/homedetails/7328-W-Carol-Ave-Peoria-AZ-85345/7702125_zpid/,33.5724,-112.21600000000001,6649,2018-03-16
9031597,23914748,"9745 W Mcrae Way, Peoria, AZ 85382 ",85382,0.19107647240161896,0.9086441099643707,0.1736205112005007,246650,https://www.zillow.com/homedetails/9745-W-Mcrae-Way-Peoria-AZ-85382/7896606_zpid/,33.6529,-112.27,6647,2018-03-14
9029763,23905774,"7055 W Lincoln St, Peoria, AZ 85345 ",85345,0.19107647240161896,0.9086320996284485,0.17361821630788032,198000,https://www.zillow.com/homedetails/7055-W-Lincoln-St-Peoria-AZ-85345/63200896_zpid/,33.5844,-112.211,6620,2018-02-15
1116516,23920475,"1806 N Arrowhead Dr, Chandler, AZ 85224 ",85224,0.19107647240161896,0.9086187183856964,0.1736156594672189,225000,https://www.zillow.com/homedetails/1806-N-Arrowhead-Dr-Chandler-AZ-85224/8193583_zpid/,33.3327,-111.866,6639,2018-03-06
1409899,23920128,"7018 N 77TH Dr, Glendale, AZ 85303 ",85303,0.19107647240161896,0.9084427356719971,0.17358203331108157,204900,https://www.zillow.com/homedetails/7018-N-77TH-Dr-Glendale-AZ-85303/55260188_zpid/,33.5385,-112.226,6652,2018-03-19
1409866,23920062,"7017 N 77TH Dr, Glendale, AZ 85303 ",85303,0.19107647240161896,0.9083156287670135,0.17355774617205943,203900,https://www.zillow.com/homedetails/7017-N-77TH-Dr-Glendale-AZ-85303/55260208_zpid/,33.5385,-112.225,6652,2018-03-19
1126602,23890192,"2807 N Central Dr, Chandler, AZ 85224 ",85224,0.19107647240161896,0.9082795083522797,0.1735508444106304,180000,https://www.zillow.com/homedetails/2807-N-Central-Dr-Chandler-AZ-85224/8199127_zpid/,33.3475,-111.866,6625,2018-02-20
446025,23914909,"4721 N 91ST Ln, Phoenix, AZ 85037 ",85037,0.19107647240161896,0.9081994295120239,0.17353554322832032,179900,https://www.zillow.com/homedetails/4721-N-91ST-Ln-Phoenix-AZ-85037/7466510_zpid/,33.5063,-112.256,6643,2018-03-10
976364,23921519,"77 S Tercera Pl, Chandler, AZ 85226 ",85226,0.19107647240161896,0.9081332981586456,0.17352290708260165,224900,https://www.zillow.com/homedetails/77-S-Tercera-Pl-Chandler-AZ-85226/55273352_zpid/,33.3021,-111.90700000000001,6650,2018-03-17
1373435,23873994,"8759 W Peppertree Ln, Glendale, AZ 85305 ",85305,0.19107647240161896,0.9081013202667236,0.17351679685981836,240000,https://www.zillow.com/homedetails/8759-W-Peppertree-Ln-Glendale-AZ-85305/95158696_zpid/,33.5368,-112.24700000000001,6612,2018-02-07
9031575,23914636,"9138 W John Cabot Rd, Peoria, AZ 85382 ",85382,0.19107647240161896,0.9080353081226349,0.1735041834921902,225000,https://www.zillow.com/homedetails/9138-W-John-Cabot-Rd-Peoria-AZ-85382/8104798_zpid/,33.6484,-112.256,6654,2018-03-21
9031395,23913606,"11812 N 76TH Ln, Peoria, AZ 85345 ",85345,0.19107647240161896,0.9073686897754669,0.17337680840997516,195000,https://www.zillow.com/homedetails/11812-N-76TH-Ln-Peoria-AZ-85345/7680546_zpid/,33.5924,-112.22399999999999,6647,2018-03-14
958181,23885961,"3473 W Barcelona Dr, Chandler, AZ 85226 ",85226,0.19107647240161896,0.9073499441146851,0.17337322655524012,209000,https://www.zillow.com/homedetails/3473-W-Barcelona-Dr-Chandler-AZ-85226/8263797_zpid/,33.3222,-111.902,6604,2018-01-30
349587,23892378,"18405 N 16TH Way, Phoenix, AZ 85022 ",85022,0.19107647240161896,0.9073042869567871,0.1733645025465691,224900,https://www.zillow.com/homedetails/18405-N-16TH-Way-Phoenix-AZ-85022/8001243_zpid/,33.6533,-112.045,6630,2018-02-25
400927,23919688,"11014 N 59TH Ln, Glendale, AZ 85304 ",85304,0.19107647240161896,0.9072318971157074,0.17335067055109787,235000,https://www.zillow.com/homedetails/11014-N-59TH-Ln-Glendale-AZ-85304/7698599_zpid/,33.5861,-112.18799999999999,6634,2018-03-01
9032346,23921566,"538 W Monterey St, Chandler, AZ 85225 ",85225,0.19107647240161896,0.9072205722332001,0.173348506632498,171400,https://www.zillow.com/homedetails/538-W-Monterey-St-Chandler-AZ-85225/8187065_zpid/,33.315,-111.84899999999999,6630,2018-02-25
1851930,23885755,"1315 W Manor St, Chandler, AZ 85224 ",85224,0.19107647240161896,0.9071851372718811,0.1733417358450895,247500,https://www.zillow.com/homedetails/1315-W-Manor-St-Chandler-AZ-85224/8194266_zpid/,33.328,-111.86399999999999,6605,2018-01-31
1370616,23920014,"6750 N 89TH Ave, Glendale, AZ 85305 ",85305,0.19107647240161896,0.907054603099823,0.17331679383596477,217700,https://www.zillow.com/homedetails/6750-N-89TH-Ave-Glendale-AZ-85305/7461686_zpid/,33.5333,-112.251,6630,2018-02-25
9029776,23905062,"7441 W Eva St, Peoria, AZ 85345 ",85345,0.19107647240161896,0.9069740176200867,0.17330139584676996,246800,https://www.zillow.com/homedetails/7441-W-Eva-St-Peoria-AZ-85345/7702466_zpid/,33.5683,-112.219,6615,2018-02-10
1406713,23920009,"6787 N 79TH Dr, Glendale, AZ 85303 ",85303,0.19107647240161896,0.9068827331066132,0.17328395352395054,229900,https://www.zillow.com/homedetails/6787-N-79TH-Dr-Glendale-AZ-85303/60974481_zpid/,33.5353,-112.229,6655,2018-03-22
9031502,23914273,"7102 W Brown St, Peoria, AZ 85345 ",85345,0.19107647240161896,0.9068571627140045,0.17327906762353296,210000,https://www.zillow.com/homedetails/7102-W-Brown-St-Peoria-AZ-85345/7701394_zpid/,33.5774,-112.212,6648,2018-03-15
22091,23889710,"8335 W Lewis Ave, Phoenix, AZ 85037 ",85037,0.19107647240161896,0.9067898690700531,0.17326620939143167,184900,https://www.zillow.com/homedetails/8335-W-Lewis-Ave-Phoenix-AZ-85037/81996643_zpid/,33.4736,-112.23899999999999,6625,2018-02-20
1414408,23870613,"7359 N 70th Ave, Glendale, AZ 85303 ",85303,0.19107647240161896,0.906742662191391,0.17325718926758382,174900,https://www.zillow.com/homedetails/7359-N-70th-Ave-Glendale-AZ-85303/7704942_zpid/,33.5441,-112.21,6598,2018-01-24
351665,23889721,"6616 W Johnson St, Phoenix, AZ 85043 ",85043,0.19107647240161896,0.9067098498344421,0.17325091959816685,180000,https://www.zillow.com/homedetails/6616-W-Johnson-St-Phoenix-AZ-85043/67788378_zpid/,33.4544,-112.20200000000001,6625,2018-02-20
561461,23912399,"1056 W Frito Ave, Mesa, AZ 85210 ",85210,0.19107647240161896,0.9065807461738586,0.17322625092612842,199900,https://www.zillow.com/homedetails/1056-W-Frito-Ave-Mesa-AZ-85210/7598718_zpid/,33.3955,-111.855,6638,2018-03-05
625114,23886893,"2235 S Hosick, Mesa, AZ 85210 ",85210,0.19107647240161896,0.9065455198287964,0.17321952000037832,200000,https://www.zillow.com/homedetails/2235-S-Hosick-Mesa-AZ-85210/8170281_zpid/,33.3741,-111.848,6621,2018-02-16
445506,23891936,"4646 N 84TH Ln, Phoenix, AZ 85037 ",85037,0.19107647240161896,0.9062817394733429,0.17316911778056943,198000,https://www.zillow.com/homedetails/4646-N-84TH-Ln-Phoenix-AZ-85037/7481172_zpid/,33.505,-112.242,6627,2018-02-22
423474,23920179,"8651 N 57TH Dr, Glendale, AZ 85302 ",85302,0.19107647240161896,0.906241774559021,0.17316148142572096,245000,https://www.zillow.com/homedetails/8651-N-57TH-Dr-Glendale-AZ-85302/55260816_zpid/,33.5631,-112.182,6639,2018-03-06
243943,23929305,"18466 N 5TH Ave, Phoenix, AZ 85023 ",85023,0.19107647240161896,0.9061741232872009,0.1731485548593481,244000,https://www.zillow.com/homedetails/18466-N-5TH-Ave-Phoenix-AZ-85023/7956365_zpid/,33.6543,-112.08,6628,2018-02-23
9031631,23915099,"7706 W Mariposa Dr, Phoenix, AZ 85033 ",85033,0.19107647240161896,0.9061272144317627,0.17313959168072657,217000,https://www.zillow.com/homedetails/7706-W-Mariposa-Dr-Phoenix-AZ-85033/7467863_zpid/,33.5074,-112.23,6653,2018-03-20
42458,23891642,"6830 W Garfield St, Phoenix, AZ 85043 ",85043,0.19107647240161896,0.9060617387294769,0.17312708081450578,199900,https://www.zillow.com/homedetails/6830-W-Garfield-St-Phoenix-AZ-85043/7476107_zpid/,33.4575,-112.20700000000001,6626,2018-02-21
1410407,23890694,"7080 W Glenn Dr, Glendale, AZ 85303 ",85303,0.19107647240161896,0.906031459569931,0.17312129517951247,234650,https://www.zillow.com/homedetails/7080-W-Glenn-Dr-Glendale-AZ-85303/55173602_zpid/,33.5399,-112.211,6626,2018-02-21
9032281,23920178,"7006 W Kings Ave, Peoria, AZ 85382 ",85382,0.19107647240161896,0.9060160517692566,0.17311835111131213,225000,https://www.zillow.com/homedetails/7006-W-Kings-Ave-Peoria-AZ-85382/7903074_zpid/,33.6345,-112.21,6639,2018-03-06
1370662,23883178,"6798 N 87TH Ln, Glendale, AZ 85305 ",85305,0.19107647240161896,0.9059185981750488,0.17309973002230805,247900,https://www.zillow.com/homedetails/6798-N-87TH-Ln-Glendale-AZ-85305/95111567_zpid/,33.5346,-112.24799999999999,6598,2018-01-24
436257,23914816,"2352 N 84TH Dr, Phoenix, AZ 85037 ",85037,0.19107647240161896,0.9057844281196594,0.17307409328142231,190000,https://www.zillow.com/homedetails/2352-N-84TH-Dr-Phoenix-AZ-85037/82818698_zpid/,33.4735,-112.241,6640,2018-03-07
248862,23915551,"306 E Piute Ave, Phoenix, AZ 85024 ",85024,0.19107647240161896,0.9057362079620361,0.173064879543805,199900,https://www.zillow.com/homedetails/306-E-Piute-Ave-Phoenix-AZ-85024/7967866_zpid/,33.6635,-112.07,6656,2018-03-23
9031496,23914128,"6956 W Cinnabar Ave, Peoria, AZ 85345 ",85345,0.19107647240161896,0.9056850075721741,0.17305509635392458,205000,https://www.zillow.com/homedetails/6956-W-Cinnabar-Ave-Peoria-AZ-85345/7701759_zpid/,33.5767,-112.209,6652,2018-03-19
9031657,23915259,"1122 E Villa Theresa Dr, Phoenix, AZ 85022 ",85022,0.19107647240161896,0.9055854380130768,0.17303607095381368,247500,https://www.zillow.com/homedetails/1122-E-Villa-Theresa-Dr-Phoenix-AZ-85022/8002659_zpid/,33.6538,-112.057,6648,2018-03-15
5231985,23914892,"4221 N 79TH Dr, Phoenix, AZ 85033 ",85033,0.19107647240161896,0.9053593873977661,0.1729928779996559,183000,https://www.zillow.com/homedetails/4221-N-79TH-Dr-Phoenix-AZ-85033/7481959_zpid/,33.4971,-112.229,6630,2018-02-25
249467,23927324,"413 E Rimrock Dr, Phoenix, AZ 85024 ",85024,0.19107647240161896,0.9051759243011475,0.17295782251833813,222000,https://www.zillow.com/homedetails/413-E-Rimrock-Dr-Phoenix-AZ-85024/7968011_zpid/,33.6625,-112.068,6637,2018-03-04
9031500,23914158,"7009 W Cherry Hills Dr, Peoria, AZ 85345 ",85345,0.19107647240161896,0.9051076173782349,0.17294477067246738,245000,https://www.zillow.com/homedetails/7009-W-Cherry-Hills-Dr-Peoria-AZ-85345/7699971_zpid/,33.5931,-112.21,6642,2018-03-09
9026899,23893911,"1318 W Boxelder Ct, Chandler, AZ 85224 ",85224,0.19107647240161896,0.9050995707511902,0.17294323315135696,239900,https://www.zillow.com/homedetails/1318-W-Boxelder-Ct-Chandler-AZ-85224/8172413_zpid/,33.3542,-111.865,6604,2018-01-30
450725,23873992,"8746 W Granada Rd, Phoenix, AZ 85037 ",85037,0.19107647240161896,0.9050382375717163,0.1729315138237819,199900,https://www.zillow.com/homedetails/8746-W-Granada-Rd-Phoenix-AZ-85037/7487519_zpid/,33.4683,-112.249,6611,2018-02-06
449490,23915041,"8536 W Elm St, Phoenix, AZ 85037 ",85037,0.19107647240161896,0.9049575328826904,0.17291609305649658,189900,https://www.zillow.com/homedetails/8536-W-Elm-St-Phoenix-AZ-85037/7483626_zpid/,33.5063,-112.244,6653,2018-03-20
523764,23888833,"9034 W Avalon Dr, Phoenix, AZ 85037 ",85037,0.19107647240161896,0.9048991501331329,0.17290493748666202,180000,https://www.zillow.com/homedetails/9034-W-Avalon-Dr-Phoenix-AZ-85037/54948475_zpid/,33.4832,-112.25399999999999,6623,2018-02-18
9031713,23915791,"4130 W Muriel Dr, Glendale, AZ 85308 ",85308,0.19107647240161896,0.9048015177249908,0.17288628223052216,240000,https://www.zillow.com/homedetails/4130-W-Muriel-Dr-Glendale-AZ-85308/7947225_zpid/,33.6458,-112.149,6636,2018-03-03
9030014,23905762,"7436 W Sanna St, Peoria, AZ 85345 ",85345,0.19107647240161896,0.904769092798233,0.1728800865898994,214997,https://www.zillow.com/homedetails/7436-W-Sanna-St-Peoria-AZ-85345/7702407_zpid/,33.5693,-112.21600000000001,6596,2018-01-22
9030029,23905726,"8997 W Alda Way, Peoria, AZ 85382 ",85382,0.19107647240161896,0.904626190662384,0.1728527813538827,249900,https://www.zillow.com/homedetails/8997-W-Alda-Way-Peoria-AZ-85382/61629760_zpid/,33.6511,-112.25299999999999,6603,2018-01-29
9029597,23903877,"9147 W Minnezona Ave, Phoenix, AZ 85037 ",85037,0.19107647240161896,0.9044249653816223,0.17281433193707674,249990,https://www.zillow.com/homedetails/9147-W-Minnezona-Ave-Phoenix-AZ-85037/2091007381_zpid/,33.5024,-112.251,6622,2018-02-17
235711,23887043,"2881 W Muriel Dr, Phoenix, AZ 85053 ",85053,0.19107647240161896,0.9044073224067688,0.17281096077967906,222900,https://www.zillow.com/homedetails/2881-W-Muriel-Dr-Phoenix-AZ-85053/7942467_zpid/,33.646,-112.12100000000001,6613,2018-02-08
1123841,23911895,"2713 W Estrella Dr, Chandler, AZ 85224 ",85224,0.19107647240161896,0.9043343663215637,0.17279702058827784,218700,https://www.zillow.com/homedetails/2713-W-Estrella-Dr-Chandler-AZ-85224/8193175_zpid/,33.3327,-111.889,6646,2018-03-13
9029774,23904701,"7414 W Paradise Dr, Peoria, AZ 85345 ",85345,0.19107647240161896,0.9043246805667877,0.1727951698684227,179900,https://www.zillow.com/homedetails/7414-W-Paradise-Dr-Peoria-AZ-85345/7700773_zpid/,33.5939,-112.219,6620,2018-02-15
9029845,23913752,"17748 N 89TH Dr, Peoria, AZ 85382 ",85382,0.19107647240161896,0.9042161107063293,0.17277442472247717,241900,https://www.zillow.com/homedetails/17748-N-89TH-Dr-Peoria-AZ-85382/81952280_zpid/,33.6443,-112.251,6638,2018-03-05
401213,23919676,"11039 N 59TH Dr, Glendale, AZ 85304 ",85304,0.19107647240161896,0.9041875898838043,0.1727689750643191,231900,https://www.zillow.com/homedetails/11039-N-59TH-Dr-Glendale-AZ-85304/7698624_zpid/,33.586999999999996,-112.18700000000001,6655,2018-03-22
1115843,23930034,"1725 W Loughlin Dr, Chandler, AZ 85224 ",85224,0.19107647240161896,0.904033362865448,0.17273950590970255,225000,https://www.zillow.com/homedetails/1725-W-Loughlin-Dr-Chandler-AZ-85224/8176421_zpid/,33.3451,-111.874,6655,2018-03-22
445188,23891613,"4627 N 91ST Dr, Phoenix, AZ 85037 ",85037,0.19107647240161896,0.9040212631225586,0.17273719393351428,236900,https://www.zillow.com/homedetails/4627-N-91st-Dr-Phoenix-AZ-85037/7466477_zpid/,33.5051,-112.256,6626,2018-02-21
249685,23929319,"421 E Kerry Ln, Phoenix, AZ 85024 ",85024,0.19107647240161896,0.9040183126926422,0.1727366301757738,200000,https://www.zillow.com/homedetails/421-E-Kerry-Ln-Phoenix-AZ-85024/7972492_zpid/,33.6603,-112.069,6649,2018-03-16
1115749,23864072,"1721 W Nopal Dr, Chandler, AZ 85224 ",85224,0.19107647240161896,0.9039729535579681,0.17272796311232907,249900,https://www.zillow.com/homedetails/1721-W-Nopal-Dr-Chandler-AZ-85224/8198402_zpid/,33.3418,-111.874,6581,2018-01-07
1111311,23885718,"1319 W Straford Dr, Chandler, AZ 85224 ",85224,0.19107647240161896,0.9039707481861115,0.17272754171765436,209000,https://www.zillow.com/homedetails/1319-W-Straford-Dr-Chandler-AZ-85224/8172355_zpid/,33.353,-111.865,6618,2018-02-13
9029961,23905490,"6926 W Mountain View Rd, Peoria, AZ 85345 ",85345,0.19107647240161896,0.9037586152553558,0.17268700810556536,218000,https://www.zillow.com/homedetails/6926-W-Mountain-View-Rd-Peoria-AZ-85345/7701856_zpid/,33.5743,-112.208,6620,2018-02-15
448361,23888250,"8402 W Coolidge St, Phoenix, AZ 85037 ",85037,0.19107647240161896,0.903749406337738,0.17268524849807232,183500,https://www.zillow.com/homedetails/8402-W-Coolidge-St-Phoenix-AZ-85037/7481009_zpid/,33.5049,-112.24,6622,2018-02-17
9031425,23913807,"19424 N 84TH Ave, Peoria, AZ 85382 ",85382,0.19107647240161896,0.9037415981292725,0.17268375653314294,235900,https://www.zillow.com/homedetails/19424-N-84TH-Ave-Peoria-AZ-85382/8102096_zpid/,33.6609,-112.24,6650,2018-03-17
9030034,23905759,"7410 W Sierra St, Peoria, AZ 85345 ",85345,0.19107647240161896,0.9036943018436432,0.1726747193257272,249777,https://www.zillow.com/homedetails/7410-W-Sierra-St-Peoria-AZ-85345/7700341_zpid/,33.5901,-112.219,6599,2018-01-25
9031561,23914546,"8741 W Port Au Prince Ln, Peoria, AZ 85381 ",85381,0.19107647240161896,0.9035476744174957,0.1726467022743816,239900,https://www.zillow.com/homedetails/8741-W-Port-Au-Prince-Ln-Peoria-AZ-85381/7909203_zpid/,33.6228,-112.24700000000001,6655,2018-03-22
625494,23866146,"1522 W Plana Ave, Mesa, AZ 85202 ",85202,0.19107647240161896,0.9032596051692963,0.17259165901862827,242500,https://www.zillow.com/homedetails/1522-W-Plana-Ave-Mesa-AZ-85202/8172015_zpid/,33.3588,-111.866,6585,2018-01-11
8969922,23914756,"9626 W Sunnyslope Ln, Peoria, AZ 85345 ",85345,0.19107647240161896,0.9032333493232727,0.17258664214419017,235000,https://www.zillow.com/homedetails/9626-W-Sunnyslope-Ln-Peoria-AZ-85345/7697901_zpid/,33.5693,-112.26700000000001,6649,2018-03-16
1422434,23920133,"8207 W Tuckey Ln, Glendale, AZ 85303 ",85303,0.19107647240161896,0.9031964540481567,0.17257959232517273,245000,https://www.zillow.com/homedetails/8207-W-Tuckey-Ln-Glendale-AZ-85303/7462558_zpid/,33.5327,-112.23700000000001,6648,2018-03-15
961362,23890199,"3986 W Calle Segunda, Chandler, AZ 85226 ",85226,0.19107647240161896,0.9031103253364563,0.1725631351547685,215000,https://www.zillow.com/homedetails/3986-W-Calle-Segunda-Chandler-AZ-85226/8156357_zpid/,33.304,-111.911,6625,2018-02-20
9033206,23929346,"18649 N 42ND Ave, Glendale, AZ 85308 ",85308,0.19107647240161896,0.9027903378009796,0.17250199306527714,234900,https://www.zillow.com/homedetails/18649-N-42ND-Ave-Glendale-AZ-85308/7935950_zpid/,33.656,-112.149,6646,2018-03-13
9026101,23869917,"9032 W Marco Polo Rd, Peoria, AZ 85382 ",85382,0.19107647240161896,0.9027569591999054,0.17249561519993017,235000,https://www.zillow.com/homedetails/9032-W-Marco-Polo-Rd-Peoria-AZ-85382/8101657_zpid/,33.6651,-112.25299999999999,6596,2018-01-22
1406510,23868833,"6760 N 77th Ave, Glendale, AZ 85303 ",85303,0.19107647240161896,0.9026913642883301,0.17248308155561887,195000,https://www.zillow.com/homedetails/6760-N-77th-Ave-Glendale-AZ-85303/7463200_zpid/,33.5359,-112.225,6593,2018-01-19
423213,23920166,"8553 N 63RD Dr, Glendale, AZ 85302 ",85302,0.19107647240161896,0.9026724100112915,0.1724794598392254,222000,https://www.zillow.com/homedetails/8553-N-63RD-Dr-Glendale-AZ-85302/81980207_zpid/,33.5622,-112.195,6646,2018-03-13
958473,23930110,"3534 W Carla Vista Dr, Chandler, AZ 85226 ",85226,0.19107647240161896,0.9025346338748932,0.1724531340611013,234000,https://www.zillow.com/homedetails/3534-W-Carla-Vista-Dr-Chandler-AZ-85226/8154923_zpid/,33.3095,-111.905,6656,2018-03-23
9029948,23905431,"8835 W Rimrock Dr, Peoria, AZ 85382 ",85382,0.19107647240161896,0.9024381637573242,0.17243470089134405,232500,https://www.zillow.com/homedetails/8835-W-Rimrock-Dr-Peoria-AZ-85382/7892874_zpid/,33.6632,-112.25,6593,2018-01-19
414666,23919968,"6513 W Mescal St, Glendale, AZ 85304 ",85304,0.19107647240161896,0.9023875594139099,0.17242503159191624,204900,https://www.zillow.com/homedetails/6513-W-Mescal-St-Glendale-AZ-85304/7699113_zpid/,33.586,-112.199,6648,2018-03-15
477598,23914855,"1641 N 72ND Ln, Phoenix, AZ 85035 ",85035,0.19107647240161896,0.902286946773529,0.17240580688351326,173000,https://www.zillow.com/homedetails/1641-N-72ND-Ln-Phoenix-AZ-85035/7475213_zpid/,33.4673,-112.215,6642,2018-03-09
524624,23887143,"9123 W Cambridge Ave, Phoenix, AZ 85037 ",85037,0.19107647240161896,0.9022530317306519,0.17239932651675893,232000,https://www.zillow.com/homedetails/9123-W-Cambridge-Ave-Phoenix-AZ-85037/60974866_zpid/,33.4764,-112.257,6620,2018-02-15
423622,23892126,"8816 N 44TH Ln, Glendale, AZ 85302 ",85302,0.19107647240161896,0.9021696746349335,0.17238339893695942,209000,https://www.zillow.com/homedetails/8816-N-44TH-Ln-Glendale-AZ-85302/7731485_zpid/,33.565,-112.155,6627,2018-02-22
650458,23872026,"2419 W Naranja Ave, Mesa, AZ 85202 ",85202,0.19107647240161896,0.9021666646003723,0.17238282379017367,218000,https://www.zillow.com/homedetails/2419-W-Naranja-Ave-Mesa-AZ-85202/8251330_zpid/,33.3643,-111.88600000000001,6603,2018-01-29
423604,23883734,"8812 N 57TH Dr, Glendale, AZ 85302 ",85302,0.19107647240161896,0.9019773006439209,0.17234664079337492,239000,https://www.zillow.com/homedetails/8812-N-57TH-Dr-Glendale-AZ-85302/7733242_zpid/,33.5658,-112.18299999999999,6603,2018-01-29
500715,23888248,"7341 W Cypress St, Phoenix, AZ 85035 ",85035,0.19107647240161896,0.9019683003425598,0.1723449210475403,172000,https://www.zillow.com/homedetails/7341-W-Cypress-St-Phoenix-AZ-85035/7474860_zpid/,33.472,-112.21799999999999,6622,2018-02-17
9031632,23915088,"7131 W Monterey Way, Phoenix, AZ 85033 ",85033,0.19107647240161896,0.9019201695919037,0.17233572439349087,225000,https://www.zillow.com/homedetails/7131-W-Monterey-Way-Phoenix-AZ-85033/62727096_zpid/,33.4842,-112.214,6649,2018-03-16
1416563,23872427,"7608 W Peck Dr, Glendale, AZ 85303 ",85303,0.19107647240161896,0.90181964635849,0.17231651676865578,249900,https://www.zillow.com/homedetails/7608-W-Peck-Dr-Glendale-AZ-85303/95094058_zpid/,33.5268,-112.22399999999999,6605,2018-01-31
9026853,23923313,"9920 W Cameo Dr, Sun City, AZ 85351 ",85351,0.19107647240161896,0.9017846584320068,0.17230983139908673,149900,https://www.zillow.com/homedetails/9920-W-Cameo-Dr-Sun-City-AZ-85351/7907926_zpid/,33.6129,-112.26899999999999,6632,2018-02-27
412972,23919895,"5718 W Shangri La Rd, Glendale, AZ 85304 ",85304,0.19107647240161896,0.9017497599124908,0.17230316311308558,249000,https://www.zillow.com/homedetails/5718-W-Shangri-La-Rd-Glendale-AZ-85304/7736192_zpid/,33.5872,-112.18299999999999,6647,2018-03-14
1408259,23883188,"6919 N 73rd Dr, Glendale, AZ 85303 ",85303,0.19107647240161896,0.9017387926578522,0.1723010675287573,214000,https://www.zillow.com/homedetails/6919-N-73rd-Dr-Glendale-AZ-85303/7706959_zpid/,33.5365,-112.21600000000001,6608,2018-02-03
8980472,23915022,"7748 W Minnezona Ave, Phoenix, AZ 85033 ",85033,0.19107647240161896,0.9016893208026886,0.17229161462118947,169900,https://www.zillow.com/homedetails/7748-W-Minnezona-Ave-Phoenix-AZ-85033/7482425_zpid/,33.5021,-112.227,6645,2018-03-12
1127341,23920612,"2909 W Curry St, Chandler, AZ 85224 ",85224,0.19107647240161896,0.9016128182411194,0.17227699678159514,238700,https://www.zillow.com/homedetails/2909-W-Curry-St-Chandler-AZ-85224/8197532_zpid/,33.3541,-111.89299999999999,6628,2018-02-23
525211,23915067,"9201 W Cambridge Ave, Phoenix, AZ 85037 ",85037,0.19107647240161896,0.9015896320343018,0.17227256644298805,239000,https://www.zillow.com/homedetails/9201-W-Cambridge-Ave-Phoenix-AZ-85037/60974862_zpid/,33.4763,-112.257,6640,2018-03-07
9031506,23914226,"7335 W Paradise Dr, Peoria, AZ 85345 ",85345,0.19107647240161896,0.9015748202800751,0.17226973626524034,175000,https://www.zillow.com/homedetails/7335-W-Paradise-Dr-Peoria-AZ-85345/7700757_zpid/,33.5936,-112.21799999999999,6652,2018-03-19
1348426,23873785,"5406 W Sands Rd, Glendale, AZ 85301 ",85301,0.19107647240161896,0.9014419317245483,0.17224434438882774,205000,https://www.zillow.com/homedetails/5406-W-Sands-Rd-Glendale-AZ-85301/7726252_zpid/,33.5525,-112.17399999999999,6607,2018-02-02
9031636,23915062,"8027 W Hazelwood St, Phoenix, AZ 85033 ",85033,0.19107647240161896,0.9013476371765137,0.17222632691922257,135000,https://www.zillow.com/homedetails/8027-W-Hazelwood-St-Phoenix-AZ-85033/7482746_zpid/,33.5038,-112.23299999999999,6645,2018-03-12
8952020,23914430,"8419 W Columbine Dr, Peoria, AZ 85381 ",85381,0.19107647240161896,0.9013442099094391,0.17222567204911998,234900,https://www.zillow.com/homedetails/8419-W-Columbine-Dr-Peoria-AZ-85381/7914550_zpid/,33.5984,-112.24,6647,2018-03-14
251314,23915810,"533 E Utopia Rd, Phoenix, AZ 85024 ",85024,0.19107647240161896,0.9013197720050812,0.17222100254056238,240000,https://www.zillow.com/homedetails/533-E-Utopia-Rd-Phoenix-AZ-85024/7972470_zpid/,33.6619,-112.066,6653,2018-03-20
9006368,23879941,"4701 N 79TH Dr, Phoenix, AZ 85033 ",85033,0.19107647240161896,0.9012140929698944,0.1722008097633121,187499,https://www.zillow.com/homedetails/4701-N-79TH-Dr-Phoenix-AZ-85033/82779611_zpid/,33.5056,-112.229,6614,2018-02-09
9029849,23914454,"8531 W Mission Ln, Peoria, AZ 85345 ",85345,0.19107647240161896,0.9011729657649994,0.172192951322081,214000,https://www.zillow.com/homedetails/8531-W-Mission-Ln-Peoria-AZ-85345/7697188_zpid/,33.5689,-112.243,6655,2018-03-22
1472355,23885687,"9834 W Kerry Ln, Peoria, AZ 85382 ",85382,0.19107647240161896,0.9011644423007965,0.17219132268860848,224900,https://www.zillow.com/homedetails/9834-W-Kerry-Ln-Peoria-AZ-85382/7893293_zpid/,33.6592,-112.272,6611,2018-02-06
1884777,23888714,"8606 W Vogel Ave, Peoria, AZ 85345 ",85345,0.19107647240161896,0.9009803533554077,0.17215614762231546,225000,https://www.zillow.com/homedetails/8606-W-Vogel-Ave-Peoria-AZ-85345/7697101_zpid/,33.5717,-112.245,6614,2018-02-09
9024363,23888231,"3147 N 77TH Ln, Phoenix, AZ 85033 ",85033,0.19107647240161896,0.9008376598358154,0.1721288822479572,197900,https://www.zillow.com/homedetails/3147-N-77TH-Ln-Phoenix-AZ-85033/7469330_zpid/,33.4853,-112.226,6621,2018-02-16
9031628,23915097,"6608 W Wolf St, Phoenix, AZ 85033 ",85033,0.19107647240161896,0.9007194936275482,0.17210630346572442,199000,https://www.zillow.com/homedetails/6608-W-Wolf-St-Phoenix-AZ-85033/7712485_zpid/,33.5077,-112.20200000000001,6639,2018-03-06
9026278,23865568,"8630 W El Caminito Dr, Peoria, AZ 85345 ",85345,0.19107647240161896,0.9006482362747192,0.17209268786211318,199999,https://www.zillow.com/homedetails/8630-W-El-Caminito-Dr-Peoria-AZ-85345/50187525_zpid/,33.5576,-112.24600000000001,6585,2018-01-11
9029935,23905376,"9180 W Villa Rita Dr, Peoria, AZ 85382 ",85382,0.19107647240161896,0.9006299376487732,0.1720891914252176,249900,https://www.zillow.com/homedetails/9180-W-Villa-Rita-Dr-Peoria-AZ-85382/8104842_zpid/,33.6476,-112.257,6598,2018-01-24
9031526,23914320,"7927 W Shaw Butte Dr, Peoria, AZ 85345 ",85345,0.19107647240161896,0.9006021916866302,0.17208388982464795,210000,https://www.zillow.com/homedetails/7927-W-Shaw-Butte-Dr-Peoria-AZ-85345/7680685_zpid/,33.5949,-112.23,6655,2018-03-22
9029872,23914718,"9832 W Kimberly Way, Peoria, AZ 85382 ",85382,0.19107647240161896,0.900558739900589,0.17207558721065164,239900,https://www.zillow.com/homedetails/9832-W-Kimberly-Way-Peoria-AZ-85382/7893256_zpid/,33.6555,-112.272,6641,2018-03-08
15301,23888262,"9312 W Madison St, Tolleson, AZ 85353 ",85353,0.19107647240161896,0.9004891812801361,0.17206229619483038,164900,https://www.zillow.com/homedetails/9312-W-Madison-St-Tolleson-AZ-85353/7460113_zpid/,33.4457,-112.26100000000001,6622,2018-02-17
9030011,23905769,"9138 W Kimberly Way, Peoria, AZ 85382 ",85382,0.19107647240161896,0.9004804491996765,0.17206062769969943,239900,https://www.zillow.com/homedetails/9138-W-Kimberly-Way-Peoria-AZ-85382/7896528_zpid/,33.6559,-112.257,6600,2018-01-26
1118177,23920469,"2027 N Villas Ln, Chandler, AZ 85224 ",85224,0.19107647240161896,0.9003853797912598,0.17204246217250585,220000,https://www.zillow.com/homedetails/2027-N-Villas-Ln-Chandler-AZ-85224/8199734_zpid/,33.3361,-111.87200000000001,6632,2018-02-27
1414034,23890084,"7334 W Lamar Rd, Glendale, AZ 85303 ",85303,0.19107647240161896,0.8999764323234558,0.1719643219329603,226000,https://www.zillow.com/homedetails/7334-W-Lamar-Rd-Glendale-AZ-85303/50188064_zpid/,33.5354,-112.21799999999999,6625,2018-02-20
1472398,23914717,"9845 W Oraibi Dr, Peoria, AZ 85382 ",85382,0.19107647240161896,0.8999548554420471,0.1719601990985753,249000,https://www.zillow.com/homedetails/9845-W-Oraibi-Dr-Peoria-AZ-85382/7893585_zpid/,33.6613,-112.272,6655,2018-03-22
9025869,23913573,"11848 N 79th Dr, Peoria, AZ 85345 ",85345,0.19107647240161896,0.8999508917331696,0.17195944172706534,215000,https://www.zillow.com/homedetails/11848-N-79th-Dr-Peoria-AZ-85345/146039846_zpid/,33.5928,-112.23,6632,2018-02-27
9026282,23865594,"9621 N 82nd Ln, Peoria, AZ 85345 ",85345,0.19107647240161896,0.899942547082901,0.1719578472607286,205000,https://www.zillow.com/homedetails/9621-N-82nd-Ln-Peoria-AZ-85345/67710601_zpid/,33.5723,-112.236,6585,2018-01-11
9031626,23915129,"6902 W Crittenden Ln, Phoenix, AZ 85033 ",85033,0.19107647240161896,0.8999387323856354,0.1719571183618318,190000,https://www.zillow.com/homedetails/6902-W-Crittenden-Ln-Phoenix-AZ-85033/7485984_zpid/,33.4891,-112.208,6645,2018-03-12
398139,23888411,"4133 W Bloomfield Rd, Phoenix, AZ 85029 ",85029,0.19107647240161896,0.8999061584472656,0.1719508942485959,230000,https://www.zillow.com/homedetails/4133-W-Bloomfield-Rd-Phoenix-AZ-85029/7742616_zpid/,33.5986,-112.148,6622,2018-02-17
9032285,23920247,"7579 W Wikieup Ln, Glendale, AZ 85308 ",85308,0.19107647240161896,0.8998696804046631,0.17194392415289528,249900,https://www.zillow.com/homedetails/7579-W-Wikieup-Ln-Glendale-AZ-85308/7892240_zpid/,33.6639,-112.221,6640,2018-03-07
42567,23875698,"6926 W Pierce St, Phoenix, AZ 85043 ",85043,0.19107647240161896,0.8998628854751587,0.17194262580173536,197900,https://www.zillow.com/homedetails/6926-W-Pierce-St-Phoenix-AZ-85043/7476307_zpid/,33.4554,-112.209,6605,2018-01-31
9031552,23914473,"8540 W Shaw Butte Dr, Peoria, AZ 85345 ",85345,0.19107647240161896,0.8998090326786041,0.17193233579934075,235000,https://www.zillow.com/homedetails/8540-W-Shaw-Butte-Dr-Peoria-AZ-85345/7685370_zpid/,33.5951,-112.243,6641,2018-03-08
359527,23941084,"2430 S 83RD Dr, Tolleson, AZ 85353 ",85353,0.19107647240161896,0.8997836709022522,0.1719274897605816,195000,https://www.zillow.com/homedetails/2430-S-83RD-Dr-Tolleson-AZ-85353/59271226_zpid/,33.4258,-112.23899999999999,6663,2018-03-30
1094634,23886104,"814 W Palomino Dr, Chandler, AZ 85225 ",85225,0.19107647240161896,0.8997577726840973,0.17192254122041506,195000,https://www.zillow.com/homedetails/814-W-Palomino-Dr-Chandler-AZ-85225/8177734_zpid/,33.3408,-111.85700000000001,6616,2018-02-11
9031633,23915091,"7755 W Heatherbrae Dr, Phoenix, AZ 85033 ",85033,0.19107647240161896,0.8996175825595856,0.17189575418595782,189900,https://www.zillow.com/homedetails/7755-W-Heatherbrae-Dr-Phoenix-AZ-85033/7467562_zpid/,33.497,-112.228,6634,2018-03-01
1414927,23883462,"7413 N 67TH Dr, Glendale, AZ 85303 ",85303,0.19107647240161896,0.899613618850708,0.17189499681444786,235000,https://www.zillow.com/homedetails/7413-N-67TH-Dr-Glendale-AZ-85303/7705033_zpid/,33.5447,-112.20299999999999,6611,2018-02-06
9029981,23905553,"7307 W Sunnyslope Ln, Peoria, AZ 85345 ",85345,0.19107647240161896,0.8995461463928223,0.1718821044152108,205000,https://www.zillow.com/homedetails/7307-W-Sunnyslope-Ln-Peoria-AZ-85345/7702241_zpid/,33.5705,-112.21600000000001,6612,2018-02-07
1120141,23885857,"2213 W Los Arboles Pl, Chandler, AZ 85224 ",85224,0.19107647240161896,0.8995111286640167,0.1718754133511191,239990,https://www.zillow.com/homedetails/2213-W-Los-Arboles-Pl-Chandler-AZ-85224/8192352_zpid/,33.3355,-111.88,6613,2018-02-08
9030024,23905709,"7267 W Charter Oak Rd, Peoria, AZ 85381 ",85381,0.19107647240161896,0.8993955254554749,0.17185332429783262,248000,https://www.zillow.com/homedetails/7267-W-Charter-Oak-Rd-Peoria-AZ-85381/7912731_zpid/,33.5972,-112.21600000000001,6614,2018-02-09
8989493,23890965,"3646 N 79TH Dr, Phoenix, AZ 85033 ",85033,0.19107647240161896,0.8993940055370331,0.17185303387717843,169900,https://www.zillow.com/homedetails/3646-N-79th-Dr-Phoenix-AZ-85033/7478627_zpid/,33.4902,-112.23100000000001,6625,2018-02-20
9030023,23905783,"8112 W Laurel Ln, Peoria, AZ 85345 ",85345,0.19107647240161896,0.8990746736526489,0.17179201706718494,243000,https://www.zillow.com/homedetails/8112-W-Laurel-Ln-Peoria-AZ-85345/7680881_zpid/,33.5932,-112.234,6580,2018-01-06
1672223,23923282,"9506 W Appaloosa Dr, Sun City, AZ 85373 ",85373,0.19107647240161896,0.8990070521831512,0.1717790961953347,194900,https://www.zillow.com/homedetails/9506-W-Appaloosa-Dr-Sun-City-AZ-85373/8095180_zpid/,33.6452,-112.26700000000001,6649,2018-03-16
17802,23914440,"8338 W Bluefield Ave, Peoria, AZ 85382 ",85382,0.19107647240161896,0.8989772498607635,0.1717734016727035,219900,https://www.zillow.com/homedetails/8338-W-Bluefield-Ave-Peoria-AZ-85382/8129243_zpid/,33.6507,-112.23899999999999,6649,2018-03-16
447841,23877841,"8329 W Mulberry Dr, Phoenix, AZ 85037 ",85037,0.19107647240161896,0.8988590836524963,0.17175082289047072,175000,https://www.zillow.com/homedetails/8329-W-Mulberry-Dr-Phoenix-AZ-85037/7470394_zpid/,33.486,-112.23899999999999,6597,2018-01-23
9026770,23893524,"1518 W Marlboro Dr, Chandler, AZ 85224 ",85224,0.19107647240161896,0.8988449275493622,0.1717481179922209,237500,https://www.zillow.com/homedetails/1518-W-Marlboro-Dr-Chandler-AZ-85224/8176555_zpid/,33.3476,-111.87,6591,2018-01-17
353909,23881508,"2219 E Aire Libre Ave, Phoenix, AZ 85022 ",85022,0.19107647240161896,0.8988046944141388,0.17174043038666875,239900,https://www.zillow.com/homedetails/2219-E-Aire-Libre-Ave-Phoenix-AZ-85022/8005158_zpid/,33.637,-112.03399999999999,6620,2018-02-15
9031515,23914288,"7601 W Cheryl Dr, Peoria, AZ 85345 ",85345,0.19107647240161896,0.8986586332321167,0.17171252153125316,217500,https://www.zillow.com/homedetails/7601-W-Cheryl-Dr-Peoria-AZ-85345/7682109_zpid/,33.5774,-112.223,6641,2018-03-08
9029867,23905119,"9707 W Caron Dr, Peoria, AZ 85345 ",85345,0.19107647240161896,0.8986188173294067,0.17170491364901785,206900,https://www.zillow.com/homedetails/9707-W-Caron-Dr-Peoria-AZ-85345/95113869_zpid/,33.5663,-112.26899999999999,6601,2018-01-27
9029967,23940804,"8765 W Port Au Prince Ln, Peoria, AZ 85381 ",85381,0.19107647240161896,0.898604154586792,0.1717021119438833,249500,https://www.zillow.com/homedetails/8765-W-Port-Au-Prince-Ln-Peoria-AZ-85381/7909199_zpid/,33.623000000000005,-112.24799999999999,6627,2018-02-22
353901,23941246,"8007 W Whyman Ave, Phoenix, AZ 85043 ",85043,0.19107647240161896,0.898408979177475,0.17166481851517146,215000,https://www.zillow.com/homedetails/8007-W-Whyman-Ave-Phoenix-AZ-85043/38433056_zpid/,33.427,-112.23200000000001,6662,2018-03-29
354030,23866666,"8023 W Brill St, Phoenix, AZ 85043 ",85043,0.19107647240161896,0.8983845114707947,0.17166014331209123,210000,https://www.zillow.com/homedetails/8023-W-Brill-St-Phoenix-AZ-85043/81990661_zpid/,33.4639,-112.23200000000001,6587,2018-01-13
519544,23891946,"8906 W Cypress St, Phoenix, AZ 85037 ",85037,0.19107647240161896,0.8982080221176147,0.17162642034906916,219000,https://www.zillow.com/homedetails/8906-W-Cypress-St-Phoenix-AZ-85037/7487715_zpid/,33.4719,-112.251,6627,2018-02-22
341987,23888290,"16633 N 19th Pl, Phoenix, AZ 85022 ",85022,0.19107647240161896,0.8981927037239075,0.17162349336443672,244900,https://www.zillow.com/homedetails/16633-N-19th-Pl-Phoenix-AZ-85022/55267888_zpid/,33.6381,-112.04,6621,2018-02-16
833199,23888418,"5269 N 42ND Ln, Phoenix, AZ 85019 ",85019,0.19107647240161896,0.8979926109313965,0.17158526033949073,209900,https://www.zillow.com/homedetails/5269-N-42ND-Ln-Phoenix-AZ-85019/55260747_zpid/,33.5158,-112.15,6622,2018-02-17
445075,23888238,"4620 N 92ND Dr, Phoenix, AZ 85037 ",85037,0.19107647240161896,0.8978984951972961,0.17156727703702135,241000,https://www.zillow.com/homedetails/4620-N-92ND-Dr-Phoenix-AZ-85037/7466545_zpid/,33.5049,-112.259,6622,2018-02-17
9031391,23913583,"11213 N 69TH Ave, Peoria, AZ 85345 ",85345,0.19107647240161896,0.8978512585163116,0.17155825121865087,199900,https://www.zillow.com/homedetails/11213-N-69TH-Ave-Peoria-AZ-85345/7699594_zpid/,33.5872,-112.20700000000001,6640,2018-03-07
500170,23877836,"7149 W Palm Ln, Phoenix, AZ 85035 ",85035,0.19107647240161896,0.8978219032287598,0.17155264211385912,149888,https://www.zillow.com/homedetails/7149-W-Palm-Ln-Phoenix-AZ-85035/7475358_zpid/,33.4689,-112.214,6611,2018-02-06
9024615,23915698,"4345 W Morrow Dr, Glendale, AZ 85308 ",85308,0.19107647240161896,0.8978114426136017,0.17155064333641556,245000,https://www.zillow.com/homedetails/4345-W-Morrow-Dr-Glendale-AZ-85308/7938791_zpid/,33.6569,-112.154,6640,2018-03-07
9031418,23913746,"15708 N 90TH Ave, Peoria, AZ 85382 ",85382,0.19107647240161896,0.8977639973163605,0.17154157765638667,219900,https://www.zillow.com/homedetails/15708-N-90TH-Ave-Peoria-AZ-85382/7903531_zpid/,33.6268,-112.25200000000001,6655,2018-03-22
1413599,23870195,"7315 W Midway Ave, Glendale, AZ 85303 ",85303,0.19107647240161896,0.8977005779743195,0.17152945971222744,203000,https://www.zillow.com/homedetails/7315-W-Midway-Ave-Glendale-AZ-85303/95160837_zpid/,33.541,-112.21600000000001,6597,2018-01-23
449536,23875547,"8542 W Lewis Ave, Phoenix, AZ 85037 ",85037,0.19107647240161896,0.8975934088230133,0.17150898220884558,246000,https://www.zillow.com/homedetails/8542-W-Lewis-Ave-Phoenix-AZ-85037/7487365_zpid/,33.4742,-112.244,6617,2018-02-12
1092216,23939633,"716 W Palomino Dr, Chandler, AZ 85225 ",85225,0.19107647240161896,0.8975507020950317,0.17150082195791505,249999,https://www.zillow.com/homedetails/716-W-Palomino-Dr-Chandler-AZ-85225/8177692_zpid/,33.3408,-111.854,6657,2018-03-24
9029979,23905545,"6851 W Jenan Dr, Peoria, AZ 85345 ",85345,0.19107647240161896,0.8974459171295166,0.1714808000163437,194900,https://www.zillow.com/homedetails/6851-W-Jenan-Dr-Peoria-AZ-85345/7699802_zpid/,33.5918,-112.20700000000001,6612,2018-02-07
9029087,23901717,"6915 W Jenan Dr, Peoria, AZ 85345 ",85345,0.19107647240161896,0.8974363505840302,0.17147897207457907,203000,https://www.zillow.com/homedetails/6915-W-Jenan-Dr-Peoria-AZ-85345/7699796_zpid/,33.5918,-112.208,6620,2018-02-15
9029842,23905028,"9830 W Kerry Ln, Peoria, AZ 85382 ",85382,0.19107647240161896,0.8974206447601318,0.17147597106115242,221500,https://www.zillow.com/homedetails/9830-W-Kerry-Ln-Peoria-AZ-85382/7893295_zpid/,33.6593,-112.272,6608,2018-02-03
9024755,23914845,"3026 N 75TH Dr, Phoenix, AZ 85033 ",85033,0.19107647240161896,0.8974123299121857,0.1714743822893383,174000,https://www.zillow.com/homedetails/3026-N-75TH-Dr-Phoenix-AZ-85033/7469531_zpid/,33.4832,-112.221,6629,2018-02-24
483296,23891539,"2625 N 73RD Dr, Phoenix, AZ 85035 ",85035,0.19107647240161896,0.8973886072635651,0.17146984944932386,205000,https://www.zillow.com/homedetails/2625-N-73rd-Dr-Phoenix-AZ-85035/95093273_zpid/,33.4771,-112.21600000000001,6623,2018-02-18
1850957,23888709,"7907 W Sweetwater Ave, Peoria, AZ 85381 ",85381,0.19107647240161896,0.8972484469413757,0.17144306810938925,229500,https://www.zillow.com/homedetails/7907-W-Sweetwater-Ave-Peoria-AZ-85381/8101192_zpid/,33.6026,-112.229,6619,2018-02-14
451876,23881479,"8821 W Columbus Ave, Phoenix, AZ 85037 ",85037,0.19107647240161896,0.8971651494503021,0.171427151918635,174000,https://www.zillow.com/homedetails/8821-W-Columbus-Ave-Phoenix-AZ-85037/7470735_zpid/,33.4888,-112.249,6620,2018-02-15
9020198,23867892,"17950 N 88th Ave, Peoria, AZ 85382 ",85382,0.19107647240161896,0.8970888555049896,0.1714125739406991,249000,https://www.zillow.com/homedetails/17950-N-88th-Ave-Peoria-AZ-85382/7898435_zpid/,33.6467,-112.24799999999999,6590,2018-01-16
415739,23919682,"10452 N 63RD Dr, Glendale, AZ 85302 ",85302,0.19107647240161896,0.8968428373336792,0.1713655656563784,189900,https://www.zillow.com/homedetails/10452-N-63RD-Dr-Glendale-AZ-85302/7705971_zpid/,33.5815,-112.196,6635,2018-03-02
9030025,23905718,"7026 W Brown St, Peoria, AZ 85345 ",85345,0.19107647240161896,0.8967849612236023,0.17135450689342857,224900,https://www.zillow.com/homedetails/7026-W-Brown-St-Peoria-AZ-85345/7701724_zpid/,33.5772,-112.21,6606,2018-02-01
9026758,23893954,"8538 W Las Palmaritas Dr, Peoria, AZ 85345 ",85345,0.19107647240161896,0.8967813849449158,0.17135382355071282,198000,https://www.zillow.com/homedetails/8538-W-Las-Palmaritas-Dr-Peoria-AZ-85345/7683390_zpid/,33.5569,-112.243,6613,2018-02-08
8997765,23873388,"8065 W Hatcher Rd, Peoria, AZ 85345 ",85345,0.19107647240161896,0.8966673612594604,0.1713320363071258,247900,https://www.zillow.com/homedetails/8065-W-Hatcher-Rd-Peoria-AZ-85345/7682597_zpid/,33.5702,-112.23200000000001,6610,2018-02-05
7542144,23891819,"4205 W Rockwood Dr, Glendale, AZ 85308 ",85308,0.19107647240161896,0.8965838253498077,0.1713160745601905,219900,https://www.zillow.com/homedetails/4205-W-Rockwood-Dr-Glendale-AZ-85308/7935978_zpid/,33.6561,-112.149,6627,2018-02-22
1357833,23920153,"7783 N 58TH Ave, Glendale, AZ 85301 ",85301,0.19107647240161896,0.8965714275836945,0.1713137056387759,219800,https://www.zillow.com/homedetails/7783-N-58TH-Ave-Glendale-AZ-85301/62728699_zpid/,33.5502,-112.18299999999999,6645,2018-03-12
425103,23914841,"2902 N 80TH Ave, Phoenix, AZ 85033 ",85033,0.19107647240161896,0.8965162634849548,0.17130316507738552,215000,https://www.zillow.com/homedetails/2902-N-80TH-Ave-Phoenix-AZ-85033/7479596_zpid/,33.4803,-112.23100000000001,6655,2018-03-22
3847,23914894,"4026 N 88TH Ln, Phoenix, AZ 85037 ",85037,0.19107647240161896,0.8965052366256714,0.17130105810401197,184900,https://www.zillow.com/homedetails/4026-N-88TH-Ln-Phoenix-AZ-85037/7470882_zpid/,33.4933,-112.25,6653,2018-03-20
491981,23914928,"5633 W Monte Vista Rd, Phoenix, AZ 85035 ",85035,0.19107647240161896,0.8963578641414642,0.1712728986896006,179900,https://www.zillow.com/homedetails/5633-W-Monte-Vista-Rd-Phoenix-AZ-85035/7492461_zpid/,33.4721,-112.182,6647,2018-03-14
418904,23919782,"5240 W Las Palmaritas Dr, Glendale, AZ 85302 ",85302,0.19107647240161896,0.896327942609787,0.17126718138887886,245000,https://www.zillow.com/homedetails/5240-W-Las-Palmaritas-Dr-Glendale-AZ-85302/7732637_zpid/,33.5571,-112.17299999999999,6629,2018-02-24
429235,23914962,"6338 W Thomas Rd, Phoenix, AZ 85033 ",85033,0.19107647240161896,0.8961150050163269,0.17122649402467882,224900,https://www.zillow.com/homedetails/6338-W-Thomas-Rd-Phoenix-AZ-85033/7498752_zpid/,33.4807,-112.197,6636,2018-03-03
450133,23873086,"8659 W Palm Ln, Phoenix, AZ 85037 ",85037,0.19107647240161896,0.8960983753204346,0.1712233164810506,179900,https://www.zillow.com/homedetails/8659-W-Palm-Ln-Phoenix-AZ-85037/7487502_zpid/,33.47,-112.244,6607,2018-02-02
9031598,23914759,"9809 N 67TH Dr, Peoria, AZ 85345 ",85345,0.19107647240161896,0.8959646821022034,0.17119777085252696,209900,https://www.zillow.com/homedetails/9809-N-67TH-Dr-Peoria-AZ-85345/7701593_zpid/,33.5747,-112.20299999999999,6648,2018-03-15
421871,23919975,"6425 W Puget Ave, Glendale, AZ 85302 ",85302,0.19107647240161896,0.8959522545337677,0.17119539623658975,195000,https://www.zillow.com/homedetails/6425-W-Puget-Ave-Glendale-AZ-85302/7704539_zpid/,33.5666,-112.198,6656,2018-03-23
9029837,23905016,"8053 W Caron Dr, Peoria, AZ 85345 ",85345,0.19107647240161896,0.8959327340126038,0.1711916663242663,169000,https://www.zillow.com/homedetails/8053-W-Caron-Dr-Peoria-AZ-85345/50187192_zpid/,33.5672,-112.23200000000001,6583,2018-01-09
7442560,23888689,"7114 W Cochise Dr, Peoria, AZ 85345 ",85345,0.19107647240161896,0.8959241509437561,0.1711900263017485,185000,https://www.zillow.com/homedetails/7114-W-Cochise-Dr-Peoria-AZ-85345/7701382_zpid/,33.58,-112.212,6621,2018-02-16
9032607,23923228,"15026 N Lakeforest Dr, Sun City, AZ 85351 ",85351,0.19107647240161896,0.8959138989448547,0.17118806738596337,210000,https://www.zillow.com/homedetails/15026-N-Lakeforest-Dr-Sun-City-AZ-85351/7922290_zpid/,33.6209,-112.26799999999999,6650,2018-03-17
9027960,23897448,"2739 E Schiliro Cir, Phoenix, AZ 85032 ",85032,0.19107647240161896,0.895856112241745,0.17117702570658144,230000,https://www.zillow.com/homedetails/2739-E-Schiliro-Cir-Phoenix-AZ-85032/88787626_zpid/,33.641999999999996,-112.024,6612,2018-02-07
9026159,23915759,"4349 W Morrow Dr, Glendale, AZ 85308 ",85308,0.19107647240161896,0.8958527743816376,0.17117638792004675,244900,https://www.zillow.com/homedetails/4349-W-Morrow-Dr-Glendale-AZ-85308/7938792_zpid/,33.6569,-112.154,6641,2018-03-08
9029901,23905267,"7329 W Peoria Ave, Peoria, AZ 85345 ",85345,0.19107647240161896,0.8955806791782379,0.17112439692842374,192000,https://www.zillow.com/homedetails/7329-W-Peoria-Ave-Peoria-AZ-85345/7705949_zpid/,33.5815,-112.21700000000001,6621,2018-02-16
8975236,23887133,"3643 N 73rd Ave, Phoenix, AZ 85033 ",85033,0.19107647240161896,0.8955716788768768,0.1711226771825891,184000,https://www.zillow.com/homedetails/3643-N-73rd-Ave-Phoenix-AZ-85033/7468824_zpid/,33.4911,-112.21600000000001,6621,2018-02-16
528117,23877942,"9562 W Monte Vista Rd, Phoenix, AZ 85037 ",85037,0.19107647240161896,0.8954855799674988,0.17110622570670753,209900,https://www.zillow.com/homedetails/9562-W-Monte-Vista-Rd-Phoenix-AZ-85037/60975006_zpid/,33.4704,-112.26700000000001,6617,2018-02-12
503933,23877682,"2048 N 74th Ln, Phoenix, AZ 85035 ",85035,0.19107647240161896,0.8954805433750153,0.17110526333238285,184000,https://www.zillow.com/homedetails/2048-N-74th-Ln-Phoenix-AZ-85035/7474844_zpid/,33.4711,-112.22,6615,2018-02-10
256906,23870517,"609 W Beverly Ln, Phoenix, AZ 85023 ",85023,0.19107647240161896,0.8954550325870514,0.17110038882101053,219900,https://www.zillow.com/homedetails/609-W-Beverly-Ln-Phoenix-AZ-85023/7965493_zpid/,33.6333,-112.08200000000001,6598,2018-01-24
7414272,23914263,"7535 W Ironwood Dr, Peoria, AZ 85345 ",85345,0.19107647240161896,0.8954081535339355,0.17109143133691163,210500,https://www.zillow.com/homedetails/7535-W-Ironwood-Dr-Peoria-AZ-85345/7682206_zpid/,33.5752,-112.22200000000001,6653,2018-03-20
418482,23919845,"5133 W Purdue Ave, Glendale, AZ 85302 ",85302,0.19107647240161896,0.895370215177536,0.1710841822096021,229900,https://www.zillow.com/homedetails/5133-W-Purdue-Ave-Glendale-AZ-85302/7734426_zpid/,33.5739,-112.171,6644,2018-03-11
452001,23881474,"8826 W Wilshire Dr, Phoenix, AZ 85037 ",85037,0.19107647240161896,0.8953505158424377,0.17108041813014285,187000,https://www.zillow.com/homedetails/8826-W-Wilshire-Dr-Phoenix-AZ-85037/7473924_zpid/,33.475,-112.25,6620,2018-02-15
9025872,23872342,"15168 N 90TH Ln, Peoria, AZ 85381 ",85381,0.19107647240161896,0.8953014016151428,0.1710710335568466,213700,https://www.zillow.com/homedetails/15168-N-90TH-Ln-Peoria-AZ-85381/7908827_zpid/,33.6229,-112.25399999999999,6605,2018-01-31
433021,23914975,"7211 W Pierson St, Phoenix, AZ 85033 ",85033,0.19107647240161896,0.8952721953392029,0.17106545292466802,160000,https://www.zillow.com/homedetails/7211-W-Pierson-St-Phoenix-AZ-85033/7710763_zpid/,33.5068,-112.214,6650,2018-03-17
421866,23919982,"6425 W Hatcher Rd, Glendale, AZ 85302 ",85302,0.19107647240161896,0.8952358067035675,0.1710584999125353,194900,https://www.zillow.com/homedetails/6425-W-Hatcher-Rd-Glendale-AZ-85302/7703488_zpid/,33.5711,-112.198,6629,2018-02-24
9026100,23873397,"8885 W Hollywood Ave, Peoria, AZ 85345 ",85345,0.19107647240161896,0.8951192796230316,0.17103623432904724,239000,https://www.zillow.com/homedetails/8885-W-Hollywood-Ave-Peoria-AZ-85345/95133596_zpid/,33.5895,-112.25,6610,2018-02-05
425872,23889873,"4041 N 80TH Dr, Phoenix, AZ 85033 ",85033,0.19107647240161896,0.8951059579849243,0.1710336888774311,180000,https://www.zillow.com/homedetails/4041-N-80TH-Dr-Phoenix-AZ-85033/7478679_zpid/,33.4931,-112.23200000000001,6625,2018-02-20
422134,23919999,"6520 W Vogel Ave, Glendale, AZ 85302 ",85302,0.19107647240161896,0.8949086964130402,0.17099599683213507,179900,https://www.zillow.com/homedetails/6520-W-Vogel-Ave-Glendale-AZ-85302/7703280_zpid/,33.5724,-112.2,6648,2018-03-15
9021737,23871550,"10136 N 73RD Ave, Peoria, AZ 85345 ",85345,0.19107647240161896,0.8946369290351868,0.170944068480261,206000,https://www.zillow.com/homedetails/10136-N-73rd-Ave-Peoria-AZ-85345/92353333_zpid/,33.5777,-112.215,6599,2018-01-25
9029830,23904987,"9503 N 82nd Ln, Peoria, AZ 85345 ",85345,0.19107647240161896,0.8946142792701721,0.17093974064306128,189900,https://www.zillow.com/homedetails/9503-N-82nd-Ln-Peoria-AZ-85345/67765087_zpid/,33.571,-112.236,6621,2018-02-16
9029810,23904895,"7322 W Carol Ave, Peoria, AZ 85345 ",85345,0.19107647240161896,0.8945564329624176,0.1709286875746341,190000,https://www.zillow.com/homedetails/7322-W-Carol-Ave-Peoria-AZ-85345/7702124_zpid/,33.5721,-112.21600000000001,6596,2018-01-22
251306,23891024,"533 E Taro Ln, Phoenix, AZ 85024 ",85024,0.19107647240161896,0.8944202363491058,0.17090266360620943,236000,https://www.zillow.com/homedetails/533-E-Taro-Ln-Phoenix-AZ-85024/7972372_zpid/,33.6591,-112.066,6617,2018-02-12
9031493,23914127,"6868 W Cheryl Dr, Peoria, AZ 85345 ",85345,0.19107647240161896,0.894408255815506,0.17090037440811168,225000,https://www.zillow.com/homedetails/6868-W-Cheryl-Dr-Peoria-AZ-85345/7702035_zpid/,33.5782,-112.20700000000001,6641,2018-03-08
491427,23914916,"5601 W Windsor Ave, Phoenix, AZ 85035 ",85035,0.19107647240161896,0.8944004774093628,0.17089888813770493,224900,https://www.zillow.com/homedetails/5601-W-Windsor-Ave-Phoenix-AZ-85035/7492230_zpid/,33.4778,-112.181,6633,2018-02-28
561282,23877184,"1050 W Farmdale Ave, Mesa, AZ 85210 ",85210,0.19107647240161896,0.894374430179596,0.17089391112492525,195000,https://www.zillow.com/homedetails/1050-W-Farmdale-Ave-Mesa-AZ-85210/7598750_zpid/,33.3962,-111.854,6619,2018-02-14
9031381,23913537,"10356 N 68TH Ln, Peoria, AZ 85345 ",85345,0.19107647240161896,0.8943294882774353,0.17088532378479737,239000,https://www.zillow.com/homedetails/10356-N-68TH-Ln-Peoria-AZ-85345/7702010_zpid/,33.5798,-112.20700000000001,6648,2018-03-15
492244,23876132,"5649 W Wilshire Dr, Phoenix, AZ 85035 ",85035,0.19107647240161896,0.8943171203136444,0.17088296055790542,155000,https://www.zillow.com/homedetails/5649-W-Wilshire-Dr-Phoenix-AZ-85035/7492095_zpid/,33.4751,-112.182,6618,2018-02-13
9031505,23914209,"7312 W Emile Zola Ave, Peoria, AZ 85381 ",85381,0.19107647240161896,0.8942852020263672,0.17087686172416738,242000,https://www.zillow.com/homedetails/7312-W-Emile-Zola-Ave-Peoria-AZ-85381/7925066_zpid/,33.6077,-112.21700000000001,6656,2018-03-23
441758,23877763,"3636 N 86th Ln, Phoenix, AZ 85037 ",85037,0.19107647240161896,0.8942127525806427,0.1708630183396509,189800,https://www.zillow.com/homedetails/3636-N-86th-Ln-Phoenix-AZ-85037/7469813_zpid/,33.4903,-112.24600000000001,6618,2018-02-13
499651,23915065,"7117 W Berkeley Rd, Phoenix, AZ 85035 ",85035,0.19107647240161896,0.8942007422447205,0.17086072344703052,159900,https://www.zillow.com/homedetails/7117-W-Berkeley-Rd-Phoenix-AZ-85035/7475320_zpid/,33.4675,-112.213,6649,2018-03-16
9031714,23915792,"4445 W Morrow Dr, Glendale, AZ 85308 ",85308,0.19107647240161896,0.8941527605056763,0.17085155526559426,234900,https://www.zillow.com/homedetails/4445-W-Morrow-Dr-Glendale-AZ-85308/7938804_zpid/,33.6567,-112.156,6655,2018-03-22
1933748,23915060,"7145 W Mulberry Dr, Phoenix, AZ 85033 ",85033,0.19107647240161896,0.8941032886505127,0.17084210235802644,185000,https://www.zillow.com/homedetails/7145-W-Mulberry-Dr-Phoenix-AZ-85033/7485834_zpid/,33.4866,-112.214,6628,2018-02-23
422239,23919980,"6545 W Mountain View Rd, Glendale, AZ 85302 ",85302,0.19107647240161896,0.8940117657184601,0.17082461447902597,229900,https://www.zillow.com/homedetails/6545-W-Mountain-View-Rd-Glendale-AZ-85302/7703343_zpid/,33.5742,-112.20100000000001,6638,2018-03-05
1108948,23885722,"1169 W Nopal Pl, Chandler, AZ 85224 ",85224,0.19107647240161896,0.8940033912658691,0.1708230143181666,244900,https://www.zillow.com/homedetails/1169-W-Nopal-Pl-Chandler-AZ-85224/8175911_zpid/,33.341,-111.86200000000001,6602,2018-01-28
251570,23881419,"710 E Sack Dr, Phoenix, AZ 85024 ",85024,0.19107647240161896,0.8939936757087708,0.17082115790378882,240000,https://www.zillow.com/homedetails/710-E-Sack-Dr-Phoenix-AZ-85024/7997524_zpid/,33.6583,-112.065,6620,2018-02-15
235315,23915223,"16027 N 19TH Dr, Phoenix, AZ 85023 ",85023,0.19107647240161896,0.8938979804515839,0.17080287279162,249900,https://www.zillow.com/homedetails/16027-N-19TH-Dr-Phoenix-AZ-85023/81980470_zpid/,33.6314,-112.1,6631,2018-02-26
1419842,23883468,"7842 W Fleetwood Ln, Glendale, AZ 85303 ",85303,0.19107647240161896,0.8938768804073334,0.17079884106959708,217500,https://www.zillow.com/homedetails/7842-W-Fleetwood-Ln-Glendale-AZ-85303/7462815_zpid/,33.5367,-112.228,6617,2018-02-12
9030878,23910358,"1022 E Villa Theresa Dr, Phoenix, AZ 85022 ",85022,0.19107647240161896,0.8938312232494354,0.17079011706092606,249900,https://www.zillow.com/homedetails/1022-E-Villa-Theresa-Dr-Phoenix-AZ-85022/8002651_zpid/,33.6537,-112.059,6613,2018-02-08
9028425,23899113,"6937 W Ironwood Dr, Peoria, AZ 85345 ",85345,0.19107647240161896,0.8937876224517822,0.1707817859743166,187000,https://www.zillow.com/homedetails/6937-W-Ironwood-Dr-Peoria-AZ-85345/7701801_zpid/,33.5758,-112.209,6624,2018-02-19
450364,23891932,"8721 W Virginia Ave, Phoenix, AZ 85037 ",85037,0.19107647240161896,0.8936794102191925,0.17076110916264264,189000,https://www.zillow.com/homedetails/8721-W-Virginia-Ave-Phoenix-AZ-85037/7473685_zpid/,33.4763,-112.24799999999999,6627,2018-02-22
9021799,23923181,"13014 N Lakeforest Dr, Sun City, AZ 85351 ",85351,0.19107647240161896,0.8936641812324524,0.1707581992615781,194380,https://www.zillow.com/homedetails/13014-N-Lakeforest-Dr-Sun-City-AZ-85351/8095961_zpid/,33.6035,-112.26899999999999,6635,2018-03-02
391862,23884713,"4128 W Solar Dr, Phoenix, AZ 85051 ",85051,0.19107647240161896,0.8936121761798859,0.17074826231958662,195000,https://www.zillow.com/homedetails/4128-W-Solar-Dr-Phoenix-AZ-85051/7756636_zpid/,33.54,-112.148,6612,2018-02-07
390575,23937395,"4026 W Harmont Dr, Phoenix, AZ 85051 ",85051,0.19107647240161896,0.8936083018779755,0.17074752203164456,219900,https://www.zillow.com/homedetails/4026-W-Harmont-Dr-Phoenix-AZ-85051/7753017_zpid/,33.5545,-112.147,6652,2018-03-19
9029938,23905383,"8872 W Cameron Dr, Peoria, AZ 85345 ",85345,0.19107647240161896,0.893578827381134,0.1707418901487623,249999,https://www.zillow.com/homedetails/8872-W-Cameron-Dr-Peoria-AZ-85345/95166649_zpid/,33.5898,-112.249,6613,2018-02-08
355451,23891815,"414 E Danbury Rd, Phoenix, AZ 85022 ",85022,0.19107647240161896,0.893574059009552,0.1707409790251413,179900,https://www.zillow.com/homedetails/414-E-Danbury-Rd-Phoenix-AZ-85022/7959485_zpid/,33.6425,-112.068,6627,2018-02-22
440692,23880113,"2509 N 90th Ln, Phoenix, AZ 85037 ",85037,0.19107647240161896,0.8935495018959045,0.17073628673849317,205000,https://www.zillow.com/homedetails/2509-N-90th-Ln-Phoenix-AZ-85037/7473832_zpid/,33.4751,-112.25399999999999,6620,2018-02-15
448086,23915005,"8340 W Glenrosa Ave, Phoenix, AZ 85037 ",85037,0.19107647240161896,0.8935144245624542,0.17072958428535623,178000,https://www.zillow.com/homedetails/8340-W-Glenrosa-Ave-Phoenix-AZ-85037/7466807_zpid/,33.4982,-112.24,6648,2018-03-15
420581,23882618,"5810 W Alice Ave, Glendale, AZ 85302 ",85302,0.19107647240161896,0.8934838175773621,0.17072373601061397,234500,https://www.zillow.com/homedetails/5810-W-Alice-Ave-Glendale-AZ-85302/7733216_zpid/,33.5645,-112.185,6590,2018-01-16
9031594,23914688,"9544 W Echo Ln, Peoria, AZ 85345 ",85345,0.19107647240161896,0.8934136629104614,0.17071033110434009,245500,https://www.zillow.com/homedetails/9544-W-Echo-Ln-Peoria-AZ-85345/7687535_zpid/,33.5581,-112.266,6651,2018-03-18
342036,23935209,"16637 N 19TH Pl, Phoenix, AZ 85022 ",85022,0.19107647240161896,0.8933814764022827,0.17070418101989837,239900,https://www.zillow.com/homedetails/16637-N-19TH-Pl-Phoenix-AZ-85022/55030773_zpid/,33.6382,-112.04,6653,2018-03-20
485245,23914882,"4326 W Vernon Ave, Phoenix, AZ 85035 ",85035,0.19107647240161896,0.8933648765087128,0.17070100917079278,225000,https://www.zillow.com/homedetails/4326-W-Vernon-Ave-Phoenix-AZ-85035/7495458_zpid/,33.4741,-112.15299999999999,6656,2018-03-23
1357797,23883517,"7780 N 58th Dr, Glendale, AZ 85301 ",85301,0.19107647240161896,0.8932949006557465,0.1706876384316547,205000,https://www.zillow.com/homedetails/7780-N-58th-Dr-Glendale-AZ-85301/62728686_zpid/,33.5501,-112.184,6605,2018-01-31
9028736,23900205,"6736 W Kings Ave, Peoria, AZ 85382 ",85382,0.19107647240161896,0.8931593298912048,0.17066173404820528,200000,https://www.zillow.com/homedetails/6736-W-Kings-Ave-Peoria-AZ-85382/7902943_zpid/,33.6345,-112.205,6627,2018-02-22
443817,23887960,"4318 N 85TH Ave, Phoenix, AZ 85037 ",85037,0.19107647240161896,0.8931184709072113,0.17065392685767788,184900,https://www.zillow.com/homedetails/4318-N-85TH-Ave-Phoenix-AZ-85037/7466861_zpid/,33.4987,-112.243,6621,2018-02-16
1090009,23867209,"615 W Dublin St, Chandler, AZ 85225 ",85225,0.19107647240161896,0.8931146860122681,0.17065320365330372,247000,https://www.zillow.com/homedetails/615-W-Dublin-St-Chandler-AZ-85225/8189370_zpid/,33.3189,-111.851,6586,2018-01-12
416979,23919743,"4635 W Palo Verde Ave, Glendale, AZ 85302 ",85302,0.19107647240161896,0.893093466758728,0.1706491491531903,214900,https://www.zillow.com/homedetails/4635-W-Palo-Verde-Ave-Glendale-AZ-85302/7729514_zpid/,33.5728,-112.15899999999999,6645,2018-03-12
9029927,23905344,"11212 N 76th Dr, Peoria, AZ 85345 ",85345,0.19107647240161896,0.8930855393409729,0.1706476344101704,180000,https://www.zillow.com/homedetails/11212-N-76th-Dr-Peoria-AZ-85345/7681911_zpid/,33.5861,-112.22399999999999,6620,2018-02-15
623384,23877222,"1441 S Revere, Mesa, AZ 85210 ",85210,0.19107647240161896,0.892974853515625,0.17062648495311805,175000,https://www.zillow.com/homedetails/1441-S-Revere-Mesa-AZ-85210/7599342_zpid/,33.3886,-111.84700000000001,6618,2018-02-13
424989,23920239,"9833 N 54TH Ave, Glendale, AZ 85302 ",85302,0.19107647240161896,0.8929671943187714,0.17062502146080183,208000,https://www.zillow.com/homedetails/9833-N-54TH-Ave-Glendale-AZ-85302/7736016_zpid/,33.5762,-112.176,6652,2018-03-19
9030965,23919730,"18402 N 56TH Ln, Glendale, AZ 85308 ",85308,0.19107647240161896,0.8929629027843475,0.17062420144954293,216000,https://www.zillow.com/homedetails/18402-N-56TH-Ln-Glendale-AZ-85308/7901151_zpid/,33.652,-112.182,6648,2018-03-15
424361,23920272,"9210 N 51ST Dr, Glendale, AZ 85302 ",85302,0.19107647240161896,0.8929397761821747,0.1706197824999811,195000,https://www.zillow.com/homedetails/9210-N-51ST-Dr-Glendale-AZ-85302/7734593_zpid/,33.57,-112.17,6635,2018-03-02
9031745,23915938,"754 E Rosemonte Dr, Phoenix, AZ 85024 ",85024,0.19107647240161896,0.8929303288459778,0.17061797733630701,249999,https://www.zillow.com/homedetails/754-E-Rosemonte-Dr-Phoenix-AZ-85024/7997468_zpid/,33.6572,-112.064,6656,2018-03-23
242624,23915588,"3202 W Grovers Ave, Phoenix, AZ 85053 ",85053,0.19107647240161896,0.8927792608737946,0.17058911180108938,219900,https://www.zillow.com/homedetails/3202-W-Grovers-Ave-Phoenix-AZ-85053/7941583_zpid/,33.6476,-112.12799999999999,6645,2018-03-12
832462,23892108,"4208 W Palo Verde Dr, Phoenix, AZ 85019 ",85019,0.19107647240161896,0.8927119672298431,0.1705762535689881,179000,https://www.zillow.com/homedetails/4208-W-Palo-Verde-Dr-Phoenix-AZ-85019/7718993_zpid/,33.5233,-112.149,6627,2018-02-22
9029911,23905288,"7550 W Ironwood Dr, Peoria, AZ 85345 ",85345,0.19107647240161896,0.8926565647125244,0.17056566745141666,217500,https://www.zillow.com/homedetails/7550-W-Ironwood-Dr-Peoria-AZ-85345/7682225_zpid/,33.5754,-112.22200000000001,6621,2018-02-16
8985192,23888637,"13250 N 79TH Ave, Peoria, AZ 85381 ",85381,0.19107647240161896,0.8926212191581726,0.17055891374757604,249900,https://www.zillow.com/homedetails/13250-N-79TH-Ave-Peoria-AZ-85381/8100968_zpid/,33.6054,-112.229,6620,2018-02-15
391643,23937422,"4121 W North Ln, Phoenix, AZ 85051 ",85051,0.19107647240161896,0.8926061391830444,0.17055603231912464,175000,https://www.zillow.com/homedetails/4121-W-North-Ln-Phoenix-AZ-85051/7746056_zpid/,33.5812,-112.148,6653,2018-03-20
9031637,23915107,"7641 W Sells Dr, Phoenix, AZ 85033 ",85033,0.19107647240161896,0.8924554288387299,0.17052723511817858,189000,https://www.zillow.com/homedetails/7641-W-Sells-Dr-Phoenix-AZ-85033/7482080_zpid/,33.5006,-112.225,6641,2018-03-08
523366,23877920,"9026 W Windsor Ave, Phoenix, AZ 85037 ",85037,0.19107647240161896,0.8924508690834045,0.170526363856216,191000,https://www.zillow.com/homedetails/9026-W-Windsor-Ave-Phoenix-AZ-85037/7474171_zpid/,33.4766,-112.255,6606,2018-02-01
461114,23914856,"2943 N 53RD Pkwy, Phoenix, AZ 85031 ",85031,0.19107647240161896,0.892438679933548,0.17052403479645983,199900,https://www.zillow.com/homedetails/2943-N-53RD-Pkwy-Phoenix-AZ-85031/7497194_zpid/,33.4824,-112.175,6651,2018-03-18
429236,23891937,"6338 W Verde Ln, Phoenix, AZ 85033 ",85033,0.19107647240161896,0.8924258351325989,0.17052158045720578,159900,https://www.zillow.com/homedetails/6338-W-Verde-Ln-Phoenix-AZ-85033/7498713_zpid/,33.4819,-112.197,6627,2018-02-22
252997,23872566,"3801 W Tierra Buena Ln, Phoenix, AZ 85053 ",85053,0.19107647240161896,0.8923412263393402,0.17050541370745576,249900,https://www.zillow.com/homedetails/3801-W-Tierra-Buena-Ln-Phoenix-AZ-85053/7945818_zpid/,33.6286,-112.14,6604,2018-01-30
415150,23919739,"10021 N 53RD Ave, Glendale, AZ 85302 ",85302,0.19107647240161896,0.8923152685165405,0.17050045377824397,238900,https://www.zillow.com/homedetails/10021-N-53RD-Ave-Glendale-AZ-85302/7735790_zpid/,33.5774,-112.17299999999999,6631,2018-02-26
9025883,23888696,"7436 W Beryl Ave, Peoria, AZ 85345 ",85345,0.19107647240161896,0.8922638893127441,0.17049063642122775,189900,https://www.zillow.com/homedetails/7436-W-Beryl-Ave-Peoria-AZ-85345/7705847_zpid/,33.5785,-112.219,6620,2018-02-15
350999,23875711,"6522 W Preston Ln, Phoenix, AZ 85043 ",85043,0.19107647240161896,0.8922612369060516,0.17049012960871357,230000,https://www.zillow.com/homedetails/6522-W-Preston-Ln-Phoenix-AZ-85043/62727413_zpid/,33.4236,-112.20100000000001,6561,2017-12-18
424925,23920234,"9808 N 47TH Ave, Glendale, AZ 85302 ",85302,0.19107647240161896,0.8922273218631744,0.17048364924195925,244900,https://www.zillow.com/homedetails/9808-N-47TH-Ave-Glendale-AZ-85302/7728902_zpid/,33.575,-112.16,6646,2018-03-13
411584,23919818,"5226 W Shaw Butte Dr, Glendale, AZ 85304 ",85304,0.19107647240161896,0.8921957314014435,0.17047761304797016,205000,https://www.zillow.com/homedetails/5226-W-Shaw-Butte-Dr-Glendale-AZ-85304/60978707_zpid/,33.596,-112.17200000000001,6655,2018-03-22
8931812,23923293,"9608 W Indian Hills Dr, Sun City, AZ 85351 ",85351,0.19107647240161896,0.8921620845794678,0.1704711839319195,199900,https://www.zillow.com/homedetails/9608-W-Indian-Hills-Dr-Sun-City-AZ-85351/7921775_zpid/,33.6218,-112.265,6650,2018-03-17
1466859,23888642,"18393 N 88TH Dr, Peoria, AZ 85382 ",85382,0.19107647240161896,0.8920511305332184,0.1704499832241635,239900,https://www.zillow.com/homedetails/18393-N-88TH-Dr-Peoria-AZ-85382/7898763_zpid/,33.6514,-112.249,6619,2018-02-14
449407,23915079,"8528 W Amelia Ave, Phoenix, AZ 85037 ",85037,0.19107647240161896,0.8920215666294098,0.17044433425771333,180000,https://www.zillow.com/homedetails/8528-W-Amelia-Ave-Phoenix-AZ-85037/7469628_zpid/,33.4932,-112.244,6652,2018-03-19
9030901,23910682,"3826 W Villa Rita Dr, Glendale, AZ 85308 ",85308,0.19107647240161896,0.8919362127780914,0.17042802514489752,227500,https://www.zillow.com/homedetails/3826-W-Villa-Rita-Dr-Glendale-AZ-85308/7948155_zpid/,33.6505,-112.14200000000001,6615,2018-02-10
417983,23889534,"4933 W Golden Ln, Glendale, AZ 85302 ",85302,0.19107647240161896,0.8919277191162109,0.17042640220594762,200000,https://www.zillow.com/homedetails/4933-W-Golden-Ln-Glendale-AZ-85302/7730593_zpid/,33.5645,-112.166,6623,2018-02-18
426202,23889384,"4309 N 82nd Dr, Phoenix, AZ 85033 ",85033,0.19107647240161896,0.8918751776218414,0.1704163627625488,189900,https://www.zillow.com/homedetails/4309-N-82nd-Dr-Phoenix-AZ-85033/2091011523_zpid/,33.4983,-112.23700000000001,6624,2018-02-19
433187,23914983,"7228 W Pierson St, Phoenix, AZ 85033 ",85033,0.19107647240161896,0.8918415606021881,0.17040993934102078,180000,https://www.zillow.com/homedetails/7228-W-Pierson-St-Phoenix-AZ-85033/7710740_zpid/,33.5072,-112.214,6653,2018-03-20
413432,23882762,"6016 W Desert Cove Ave, Glendale, AZ 85304 ",85304,0.19107647240161896,0.8918138146400452,0.17040463774045111,206000,https://www.zillow.com/homedetails/6016-W-Desert-Cove-Ave-Glendale-AZ-85304/7698491_zpid/,33.5861,-112.189,6613,2018-02-08
1958850,23885690,"9924 W Camden Ave, Sun City, AZ 85351 ",85351,0.19107647240161896,0.8918079733848572,0.1704035216140154,200000,https://www.zillow.com/homedetails/9924-W-Camden-Ave-Sun-City-AZ-85351/7688651_zpid/,33.5766,-112.274,6616,2018-02-11
459358,23891941,"5643 W Earll Dr, Phoenix, AZ 85031 ",85031,0.19107647240161896,0.8917916417121887,0.1704004010156135,175900,https://www.zillow.com/homedetails/5643-W-Earll-Dr-Phoenix-AZ-85031/7497770_zpid/,33.4843,-112.182,6627,2018-02-22
424127,23920271,"9034 N 63RD Dr, Glendale, AZ 85302 ",85302,0.19107647240161896,0.8917692005634308,0.17039611304007218,194900,https://www.zillow.com/homedetails/9034-N-63RD-Dr-Glendale-AZ-85302/7703631_zpid/,33.5688,-112.196,6652,2018-03-19
9029873,23905139,"8626 W Willow Ave, Peoria, AZ 85381 ",85381,0.19107647240161896,0.8917199671268463,0.1703867056886854,240000,https://www.zillow.com/homedetails/8626-W-Willow-Ave-Peoria-AZ-85381/7914417_zpid/,33.6053,-112.245,6613,2018-02-08
1118968,23920456,"2113 W Boston St, Chandler, AZ 85224 ",85224,0.19107647240161896,0.8917095065116882,0.17038470691124186,205000,https://www.zillow.com/homedetails/2113-W-Boston-St-Chandler-AZ-85224/8208049_zpid/,33.3016,-111.87799999999999,6642,2018-03-09
9030451,23907844,"2522 N 60th Dr, Phoenix, AZ 85035 ",85035,0.19107647240161896,0.8917031288146973,0.17038348828339878,165500,https://www.zillow.com/homedetails/2522-N-60th-Dr-Phoenix-AZ-85035/2091236966_zpid/,33.4755,-112.189,6619,2018-02-14
9029692,23904310,"3614 N 64TH Dr, Phoenix, AZ 85033 ",85033,0.19107647240161896,0.8916672468185425,0.1703766320781508,159000,https://www.zillow.com/homedetails/3614-N-64TH-Dr-Phoenix-AZ-85033/7489243_zpid/,33.4902,-112.199,6622,2018-02-17
403686,23937182,"12644 N 48TH Dr, Glendale, AZ 85304 ",85304,0.19107647240161896,0.8915773034095764,0.17035944600884978,203900,https://www.zillow.com/homedetails/12644-N-48TH-Dr-Glendale-AZ-85304/7954608_zpid/,33.6015,-112.164,6646,2018-03-13
9029736,23904559,"14462 N Lakeforest Dr, Sun City, AZ 85351 ",85351,0.19107647240161896,0.891543447971344,0.17035297703114072,170000,https://www.zillow.com/homedetails/14462-N-Lakeforest-Dr-Sun-City-AZ-85351/7922311_zpid/,33.6164,-112.26700000000001,6625,2018-02-20
238572,23915526,"3021 W Bluefield Ave, Phoenix, AZ 85053 ",85053,0.19107647240161896,0.891523540019989,0.17034917309002306,214900,https://www.zillow.com/homedetails/3021-W-Bluefield-Ave-Phoenix-AZ-85053/7940618_zpid/,33.6523,-112.125,6645,2018-03-12
9015636,23887124,"7118 W Sells Dr, Phoenix, AZ 85033 ",85033,0.19107647240161896,0.8915122151374817,0.1703470091714232,175000,https://www.zillow.com/homedetails/7118-W-Sells-Dr-Phoenix-AZ-85033/88889219_zpid/,33.5022,-112.213,6620,2018-02-15
9029954,23905639,"19056 N 96th Ave, Peoria, AZ 85382 ",85382,0.19107647240161896,0.8914889097213745,0.1703425560547256,249900,https://www.zillow.com/homedetails/19056-N-96th-Ave-Peoria-AZ-85382/7893092_zpid/,33.6559,-112.265,6604,2018-01-30
391161,23937420,"4101 W Ruth Ave, Phoenix, AZ 85051 ",85051,0.19107647240161896,0.8914543390274048,0.17033595040847338,219000,https://www.zillow.com/homedetails/4101-W-Ruth-Ave-Phoenix-AZ-85051/7753355_zpid/,33.5623,-112.147,6652,2018-03-19
1094985,23886129,"825 W Temple St, Chandler, AZ 85225 ",85225,0.19107647240161896,0.8914525210857391,0.17033560304259288,230000,https://www.zillow.com/homedetails/825-W-Temple-St-Chandler-AZ-85225/8183622_zpid/,33.3326,-111.85700000000001,6591,2018-01-17
415051,23919687,"10007 N 48TH Dr, Glendale, AZ 85302 ",85302,0.19107647240161896,0.8914298713207245,0.17033127520539315,233000,https://www.zillow.com/homedetails/10007-N-48TH-Dr-Glendale-AZ-85302/7728794_zpid/,33.5766,-112.162,6630,2018-02-25
139899,23929627,"9827 W Wrangler Dr, Sun City, AZ 85373 ",85373,0.19107647240161896,0.8913028538227081,0.1703070051499389,205000,https://www.zillow.com/homedetails/9827-W-Wrangler-Dr-Sun-City-AZ-85373/8095448_zpid/,33.6396,-112.272,6655,2018-03-22
356334,23881413,"819 E Audrey Ln, Phoenix, AZ 85022 ",85022,0.19107647240161896,0.8912708163261414,0.17030088353811035,249900,https://www.zillow.com/homedetails/819-E-Audrey-Ln-Phoenix-AZ-85022/8002728_zpid/,33.6543,-112.06299999999999,6614,2018-02-09
1370392,23883185,"6654 N 84TH Ln, Glendale, AZ 85305 ",85305,0.19107647240161896,0.8912555277347565,0.17029796224800053,220000,https://www.zillow.com/homedetails/6654-N-84TH-Ln-Glendale-AZ-85305/7461308_zpid/,33.5331,-112.24,6604,2018-01-30
9023484,23885682,"9501 W Hidden Valley Cir N, Sun City, AZ 85351 ",85351,0.19107647240161896,0.8912414610385895,0.1702952744333186,186000,https://www.zillow.com/homedetails/9501-W-Hidden-Valley-Cir-N-Sun-City-AZ-85351/7904887_zpid/,33.6359,-112.264,6620,2018-02-15
1878732,23888713,"8133 W Larkspur Dr, Peoria, AZ 85381 ",85381,0.19107647240161896,0.8912186622619629,0.17029091812350572,232500,https://www.zillow.com/homedetails/8133-W-Larkspur-Dr-Peoria-AZ-85381/8100861_zpid/,33.5992,-112.235,6620,2018-02-15
9015572,23864377,"9416 W Madison St, Tolleson, AZ 85353 ",85353,0.19107647240161896,0.8911992907524109,0.17028721668379543,149000,https://www.zillow.com/homedetails/9416-W-Madison-St-Tolleson-AZ-85353/7460136_zpid/,33.4454,-112.264,6582,2018-01-08
434384,23888835,"7629 W Flower St, Phoenix, AZ 85033 ",85033,0.19107647240161896,0.8911903202533722,0.17028550263248343,175900,https://www.zillow.com/homedetails/7629-W-Flower-St-Phoenix-AZ-85033/7469131_zpid/,33.4849,-112.22399999999999,6623,2018-02-18
1666111,23885649,"17610 N Palo Verde Dr, Sun City, AZ 85373 ",85373,0.19107647240161896,0.8911891579627991,0.17028528054610081,210000,https://www.zillow.com/homedetails/17610-N-Palo-Verde-Dr-Sun-City-AZ-85373/8095261_zpid/,33.6443,-112.273,6613,2018-02-08
9029902,23905265,"11226 N 67th Dr, Peoria, AZ 85345 ",85345,0.19107647240161896,0.8911795318126678,0.17028344121529093,214900,https://www.zillow.com/homedetails/11226-N-67th-Dr-Peoria-AZ-85345/7699634_zpid/,33.5882,-112.20299999999999,6618,2018-02-13
9032259,23919953,"19410 N 75TH Dr, Glendale, AZ 85308 ",85308,0.19107647240161896,0.8911762237548828,0.17028280912327887,240000,https://www.zillow.com/homedetails/19410-N-75TH-Dr-Glendale-AZ-85308/8101537_zpid/,33.6602,-112.221,6656,2018-03-23
836918,23890072,"5609 N 38TH Dr, Phoenix, AZ 85019 ",85019,0.19107647240161896,0.8909754157066345,0.17024443942978973,195900,https://www.zillow.com/homedetails/5609-N-38TH-Dr-Phoenix-AZ-85019/7719599_zpid/,33.5183,-112.14200000000001,6625,2018-02-20
450213,23877909,"8705 W Palm Ln, Phoenix, AZ 85037 ",85037,0.19107647240161896,0.8909046053886414,0.17023090924401796,199900,https://www.zillow.com/homedetails/8705-W-Palm-Ln-Phoenix-AZ-85037/7487495_zpid/,33.4682,-112.24799999999999,6593,2018-01-19
832456,23872579,"4208 W Tuckey Ln, Phoenix, AZ 85019 ",85019,0.19107647240161896,0.8908840417861938,0.17022698002340242,157900,https://www.zillow.com/homedetails/4208-W-Tuckey-Ln-Phoenix-AZ-85019/7762230_zpid/,33.5336,-112.15,6605,2018-01-31
450573,23877887,"8734 W Granada Rd, Phoenix, AZ 85037 ",85037,0.19107647240161896,0.89088174700737,0.17022654154515982,195000,https://www.zillow.com/homedetails/8734-W-Granada-Rd-Phoenix-AZ-85037/7487516_zpid/,33.4682,-112.249,6597,2018-01-23
9029622,23904013,"5207 W Campo Bello Dr, Glendale, AZ 85308 ",85308,0.19107647240161896,0.8908652067184448,0.1702233810850995,230000,https://www.zillow.com/homedetails/5207-W-Campo-Bello-Dr-Glendale-AZ-85308/8100316_zpid/,33.6426,-112.17200000000001,6625,2018-02-20
9030778,23911308,"4941 W Townley Ave, Glendale, AZ 85302 ",85302,0.19107647240161896,0.8908389210700989,0.17021835851613876,200000,https://www.zillow.com/homedetails/4941-W-Townley-Ave-Glendale-AZ-85302/7730613_zpid/,33.5647,-112.167,6613,2018-02-08
234736,23915231,"15919 N 21ST Ln, Phoenix, AZ 85023 ",85023,0.19107647240161896,0.890798956155777,0.1702107221612903,199000,https://www.zillow.com/homedetails/15919-N-21ST-Ln-Phoenix-AZ-85023/82823718_zpid/,33.6305,-112.105,6646,2018-03-13
41734,23870779,"637 N 69th Ave, Phoenix, AZ 85043 ",85043,0.19107647240161896,0.8907694518566132,0.1702050845838854,152000,https://www.zillow.com/homedetails/637-N-69th-Ave-Phoenix-AZ-85043/7476326_zpid/,33.4562,-112.208,6599,2018-01-25
252070,23915737,"3728 W Carol Ann Way, Phoenix, AZ 85053 ",85053,0.19107647240161896,0.8907161951065063,0.1701949084719434,198900,https://www.zillow.com/homedetails/3728-W-Carol-Ann-Way-Phoenix-AZ-85053/7945963_zpid/,33.6283,-112.139,6627,2018-02-22
1410883,23888985,"7120 W Sierra Vista Dr, Glendale, AZ 85303 ",85303,0.19107647240161896,0.8906802833080292,0.1701880465721728,182000,https://www.zillow.com/homedetails/7120-W-Sierra-Vista-Dr-Glendale-AZ-85303/7706907_zpid/,33.5318,-112.213,6622,2018-02-17
485999,23881464,"4650 W Hubbell St, Phoenix, AZ 85035 ",85035,0.19107647240161896,0.8906571567058563,0.17018362762261097,173000,https://www.zillow.com/homedetails/4650-W-Hubbell-St-Phoenix-AZ-85035/7494965_zpid/,33.4703,-112.16,6620,2018-02-15
9024613,23887041,"3851 W Wagoner Rd, Glendale, AZ 85308 ",85308,0.19107647240161896,0.890642523765564,0.17018083161199904,246500,https://www.zillow.com/homedetails/3851-W-Wagoner-Rd-Glendale-AZ-85308/7948380_zpid/,33.6531,-112.14299999999999,6619,2018-02-14
9030022,23905699,"9131 N 95th Dr, Peoria, AZ 85345 ",85345,0.19107647240161896,0.890630692243576,0.17017857088651445,230000,https://www.zillow.com/homedetails/9131-N-95th-Dr-Peoria-AZ-85345/7697835_zpid/,33.568000000000005,-112.264,6600,2018-01-26
461098,23891547,"2939 N 53RD Dr, Phoenix, AZ 85031 ",85031,0.19107647240161896,0.8906043469905853,0.17017353692850845,212999,https://www.zillow.com/homedetails/2939-N-53rd-Dr-Phoenix-AZ-85031/7497250_zpid/,33.4831,-112.176,6614,2018-02-09
9029804,23904860,"6849 W Yucca St, Peoria, AZ 85345 ",85345,0.19107647240161896,0.8906002044677734,0.1701727453898627,225000,https://www.zillow.com/homedetails/6849-W-Yucca-St-Peoria-AZ-85345/7699653_zpid/,33.5881,-112.20700000000001,6620,2018-02-15
233032,23915285,"18202 N 29TH Ave, Phoenix, AZ 85053 ",85053,0.19107647240161896,0.8905979990959167,0.170172323995188,209900,https://www.zillow.com/homedetails/18202-N-29TH-Ave-Phoenix-AZ-85053/7941101_zpid/,33.6512,-112.12100000000001,6641,2018-03-08
258336,23929325,"520 W Oraibi Dr, Phoenix, AZ 85027 ",85027,0.19107647240161896,0.8905914127826691,0.1701710655056865,204500,https://www.zillow.com/homedetails/520-W-Oraibi-Dr-Phoenix-AZ-85027/7968150_zpid/,33.6637,-112.08200000000001,6646,2018-03-13
9026594,23892782,"9941 W Gulf Hills Dr, Sun City, AZ 85351 ",85351,0.19107647240161896,0.8905794024467468,0.17016877061306612,193500,https://www.zillow.com/homedetails/9941-W-Gulf-Hills-Dr-Sun-City-AZ-85351/7905903_zpid/,33.6258,-112.273,6600,2018-01-26
396523,23937380,"3932 W Aster Dr, Phoenix, AZ 85029 ",85029,0.19107647240161896,0.8905641734600067,0.17016586071200157,229400,https://www.zillow.com/homedetails/3932-W-Aster-Dr-Phoenix-AZ-85029/7742396_zpid/,33.6019,-112.14399999999999,6648,2018-03-15
251000,23881402,"522 E Utopia Rd, Phoenix, AZ 85024 ",85024,0.19107647240161896,0.890505462884903,0.17015464250241807,229000,https://www.zillow.com/homedetails/522-E-Utopia-Rd-Phoenix-AZ-85024/7968037_zpid/,33.6623,-112.06700000000001,6611,2018-02-06
254794,23872042,"306 W Kings Ave, Phoenix, AZ 85023 ",85023,0.19107647240161896,0.89044189453125,0.1701424960856457,219900,https://www.zillow.com/homedetails/306-W-Kings-Ave-Phoenix-AZ-85023/7965343_zpid/,33.6358,-112.079,6603,2018-01-29
837022,23871277,"5743 N 38th Dr, Phoenix, AZ 85019 ",85019,0.19107647240161896,0.8904136717319489,0.17013710337271393,187900,https://www.zillow.com/homedetails/5743-N-38th-Dr-Phoenix-AZ-85019/7719105_zpid/,33.5219,-112.141,6601,2018-01-27
497626,23889892,"6811 W Encanto Blvd, Phoenix, AZ 85035 ",85035,0.19107647240161896,0.890394002199173,0.17013334498777732,189900,https://www.zillow.com/homedetails/6811-W-Encanto-Blvd-Phoenix-AZ-85035/7475710_zpid/,33.4732,-112.206,6625,2018-02-20
407053,23919851,"5501 W Boca Raton Rd, Glendale, AZ 85306 ",85306,0.19107647240161896,0.8903656005859375,0.17012791810770977,249900,https://www.zillow.com/homedetails/5501-W-Boca-Raton-Rd-Glendale-AZ-85306/7911123_zpid/,33.6112,-112.177,6655,2018-03-22
351306,23877786,"4119 W Monte Vista Rd, Phoenix, AZ 85009 ",85009,0.19107647240161896,0.8903068006038666,0.17011668281455838,164000,https://www.zillow.com/homedetails/4119-W-Monte-Vista-Rd-Phoenix-AZ-85009/7511620_zpid/,33.4715,-112.148,6619,2018-02-14
9024146,23879848,"18231 N 35th Dr, Glendale, AZ 85308 ",85308,0.19107647240161896,0.8902970552444458,0.17011482070565798,244900,https://www.zillow.com/homedetails/18231-N-35th-Dr-Glendale-AZ-85308/7947905_zpid/,33.652,-112.135,6619,2018-02-14
9029324,23902714,"7007 W Windsor Ave, Phoenix, AZ 85035 ",85035,0.19107647240161896,0.8902792632579803,0.17011142107564714,159900,https://www.zillow.com/homedetails/7007-W-Windsor-Ave-Phoenix-AZ-85035/2091066637_zpid/,33.4782,-112.21,6618,2018-02-13
412387,23919889,"5434 W Saguaro Dr, Glendale, AZ 85304 ",85304,0.19107647240161896,0.8902631402015686,0.17010834033890365,229900,https://www.zillow.com/homedetails/5434-W-Saguaro-Dr-Glendale-AZ-85304/7736601_zpid/,33.5833,-112.177,6652,2018-03-19
9032611,23923305,"9319 W Arrowhead Dr, Sun City, AZ 85351 ",85351,0.19107647240161896,0.8902629315853119,0.17010830047724523,163000,https://www.zillow.com/homedetails/9319-W-Arrowhead-Dr-Sun-City-AZ-85351/7908165_zpid/,33.6099,-112.26,6638,2018-03-05
1113152,23930028,"1516 W Cheyenne Dr, Chandler, AZ 85224 ",85224,0.19107647240161896,0.8902619779109955,0.17010811825252103,205000,https://www.zillow.com/homedetails/1516-W-Cheyenne-Dr-Chandler-AZ-85224/8176581_zpid/,33.3469,-111.869,6656,2018-03-23
7452531,23914721,"9318 W Vogel Ave, Peoria, AZ 85345 ",85345,0.19107647240161896,0.890207976102829,0.17009779977751327,225000,https://www.zillow.com/homedetails/9318-W-Vogel-Ave-Peoria-AZ-85345/7697363_zpid/,33.5718,-112.26,6640,2018-03-07
395110,23937400,"3717 W Columbine Dr, Phoenix, AZ 85029 ",85029,0.19107647240161896,0.890126645565033,0.17008225942525268,195000,https://www.zillow.com/homedetails/3717-W-Columbine-Dr-Phoenix-AZ-85029/7743204_zpid/,33.5989,-112.139,6645,2018-03-12
426687,23866512,"4834 N 81st Dr, Phoenix, AZ 85033 ",85033,0.19107647240161896,0.890085905790329,0.1700744750128158,174900,https://www.zillow.com/homedetails/4834-N-81st-Dr-Phoenix-AZ-85033/7482505_zpid/,33.5079,-112.235,6586,2018-01-12
380211,23937750,"2825 W State Ave, Phoenix, AZ 85051 ",85051,0.19107647240161896,0.8900828659534454,0.17007389417150742,215000,https://www.zillow.com/homedetails/2825-W-State-Ave-Phoenix-AZ-85051/7755989_zpid/,33.5442,-112.12,6652,2018-03-19
411832,23919811,"5309 W Sierra St, Glendale, AZ 85304 ",85304,0.19107647240161896,0.8900782763957977,0.17007301721502222,199000,https://www.zillow.com/homedetails/5309-W-Sierra-St-Glendale-AZ-85304/7737309_zpid/,33.5911,-112.17399999999999,6641,2018-03-08
9025882,23869744,"7140 W Desert Cove Ave, Peoria, AZ 85345 ",85345,0.19107647240161896,0.8900561630725861,0.17006879187922985,234900,https://www.zillow.com/homedetails/7140-W-Desert-Cove-Ave-Peoria-AZ-85345/7701093_zpid/,33.585,-112.213,6595,2018-01-21
9016482,23874213,"7522 W Turquoise Ave, Peoria, AZ 85345 ",85345,0.19107647240161896,0.8900294899940491,0.1700636952814749,199000,https://www.zillow.com/homedetails/7522-W-Turquoise-Ave-Peoria-AZ-85345/7682171_zpid/,33.5747,-112.221,6613,2018-02-08
383147,23881939,"13014 N 18th Dr, Phoenix, AZ 85029 ",85029,0.19107647240161896,0.8899950981140137,0.1700571238023585,225000,https://www.zillow.com/homedetails/13014-N-18th-Dr-Phoenix-AZ-85029/7784318_zpid/,33.6055,-112.09899999999999,6614,2018-02-09
