property_id,transaction_id,address,zipcode,any_sell,good_sell,bayesian,list,url,lat,long,date_listed,transaction_date
9030467,23907928,"1105 S 6th Ave, Phoenix, AZ 85003 ",85003,0.24468592554330826,0.8267014026641846,0.20228219785883716,50000,https://www.zillow.com/homedetails/1105-S-6th-Ave-Phoenix-AZ-85003/2091048360_zpid/,33.437,-112.08200000000001,6619,2018-02-14
9026756,23893480,"1033 W Orchid Ln, Chandler, AZ 85224 ",85224,0.24468592554330826,0.7914115786552429,0.19364727460894882,249900,https://www.zillow.com/homedetails/1033-W-Orchid-Ln-Chandler-AZ-85224/8203649_zpid/,33.3236,-111.86,6619,2018-02-14
1112872,23885785,"1482 W Orchid Ln, Chandler, AZ 85224 ",85224,0.24468592554330826,0.7905789017677307,0.19344353029404937,249900,https://www.zillow.com/homedetails/1482-W-Orchid-Ln-Chandler-AZ-85224/8203452_zpid/,33.3237,-111.867,6614,2018-02-09
9026899,23893911,"1318 W Boxelder Ct, Chandler, AZ 85224 ",85224,0.24468592554330826,0.7894841134548187,0.1931756510024305,239900,https://www.zillow.com/homedetails/1318-W-Boxelder-Ct-Chandler-AZ-85224/8172413_zpid/,33.3542,-111.865,6604,2018-01-30
9026868,23897793,"1302 W Cortez Ct, Chandler, AZ 85224 ",85224,0.24468592554330826,0.7889800071716309,0.19305230328995648,249500,https://www.zillow.com/homedetails/1302-W-Cortez-Ct-Chandler-AZ-85224/8172446_zpid/,33.3554,-111.86399999999999,6624,2018-02-19
973060,23891307,"600 N Aspen Dr, Chandler, AZ 85226 ",85226,0.24468592554330826,0.7885738015174866,0.19295291048351126,223900,https://www.zillow.com/homedetails/600-N-Aspen-Dr-Chandler-AZ-85226/8262023_zpid/,33.3128,-111.945,6624,2018-02-19
6833,23886010,"3873 W Commonwealth Ave, Chandler, AZ 85226 ",85226,0.24468592554330826,0.7883629202842712,0.19290131081378226,230000,https://www.zillow.com/homedetails/3873-W-Commonwealth-Ave-Chandler-AZ-85226/55273361_zpid/,33.3027,-111.90899999999999,6618,2018-02-13
1128437,23920629,"3298 N Ash Dr, Chandler, AZ 85224 ",85224,0.24468592554330826,0.7857614159584045,0.19226475932000264,240000,https://www.zillow.com/homedetails/3298-N-Ash-Dr-Chandler-AZ-85224/8191971_zpid/,33.3549,-111.87100000000001,6636,2018-03-03
972984,23921177,"5975 W Del Rio St, Chandler, AZ 85226 ",85226,0.24468592554330826,0.7856734097003937,0.19224322542730765,220000,https://www.zillow.com/homedetails/5975-W-Del-Rio-St-Chandler-AZ-85226/8262022_zpid/,33.3128,-111.945,6648,2018-03-15
1094758,23892220,"818 W Nopal Pl, Chandler, AZ 85225 ",85225,0.24468592554330826,0.7854611277580261,0.19219128302376332,249990,https://www.zillow.com/homedetails/818-W-Nopal-Pl-Chandler-AZ-85225/8177792_zpid/,33.3423,-111.85799999999999,6627,2018-02-22
9029090,23901746,"2331 W Comstock Dr, Chandler, AZ 85224 ",85224,0.24468592554330826,0.7852143943309784,0.19213091082680367,245000,https://www.zillow.com/homedetails/2331-W-Comstock-Dr-Chandler-AZ-85224/8201985_zpid/,33.3471,-111.882,6625,2018-02-20
1126602,23890192,"2807 N Central Dr, Chandler, AZ 85224 ",85224,0.24468592554330826,0.7851270437240601,0.1921095373627031,180000,https://www.zillow.com/homedetails/2807-N-Central-Dr-Chandler-AZ-85224/8199127_zpid/,33.3475,-111.866,6625,2018-02-20
959786,23890197,"3817 W Folley St, Chandler, AZ 85226 ",85226,0.24468592554330826,0.7849193513393402,0.1920587179593196,235000,https://www.zillow.com/homedetails/3817-W-Folley-St-Chandler-AZ-85226/8156123_zpid/,33.2977,-111.90799999999999,6625,2018-02-20
1851930,23885755,"1315 W Manor St, Chandler, AZ 85224 ",85224,0.24468592554330826,0.7847219407558441,0.19201041436798483,247500,https://www.zillow.com/homedetails/1315-W-Manor-St-Chandler-AZ-85224/8194266_zpid/,33.328,-111.86399999999999,6605,2018-01-31
1111311,23885718,"1319 W Straford Dr, Chandler, AZ 85224 ",85224,0.24468592554330826,0.7839645743370056,0.1918250974648159,209000,https://www.zillow.com/homedetails/1319-W-Straford-Dr-Chandler-AZ-85224/8172355_zpid/,33.353,-111.865,6618,2018-02-13
1116516,23920475,"1806 N Arrowhead Dr, Chandler, AZ 85224 ",85224,0.24468592554330826,0.7826998829841614,0.1915156452906186,225000,https://www.zillow.com/homedetails/1806-N-Arrowhead-Dr-Chandler-AZ-85224/8193583_zpid/,33.3327,-111.866,6639,2018-03-06
359488,23929707,"2409 S 90TH Gln, Tolleson, AZ 85353 ",85353,0.2429743856191635,0.7880639731884003,0.1914793597140485,213900,https://www.zillow.com/homedetails/2409-S-90TH-Gln-Tolleson-AZ-85353/67772730_zpid/,33.425,-112.25399999999999,6647,2018-03-14
350370,23890327,"6417 W Preston Ln, Phoenix, AZ 85043 ",85043,0.2429743856191635,0.7878166437149048,0.19141926498718043,203800,https://www.zillow.com/homedetails/6417-W-Preston-Ln-Phoenix-AZ-85043/55257431_zpid/,33.4233,-112.199,6626,2018-02-21
349674,23890334,"6325 W Magnolia St, Phoenix, AZ 85043 ",85043,0.2429743856191635,0.7878166437149048,0.19141926498718043,193000,https://www.zillow.com/homedetails/6325-W-Magnolia-St-Phoenix-AZ-85043/54948469_zpid/,33.4246,-112.197,6625,2018-02-20
625494,23866146,"1522 W Plana Ave, Mesa, AZ 85202 ",85202,0.24468592554330826,0.7820872068405151,0.1913657320613522,242500,https://www.zillow.com/homedetails/1522-W-Plana-Ave-Mesa-AZ-85202/8172015_zpid/,33.3588,-111.866,6585,2018-01-11
962858,23920761,"4276 W Park Ave, Chandler, AZ 85226 ",85226,0.24468592554330826,0.7816234529018402,0.19125225799964318,215000,https://www.zillow.com/homedetails/4276-W-Park-Ave-Chandler-AZ-85226/8153857_zpid/,33.3215,-111.91799999999999,6635,2018-03-02
1113596,23885766,"1567 W Kesler Ln, Chandler, AZ 85224 ",85224,0.24468592554330826,0.7814672887325287,0.1912140468253385,245000,https://www.zillow.com/homedetails/1567-W-Kesler-Ln-Chandler-AZ-85224/8226104_zpid/,33.2918,-111.869,6596,2018-01-22
1126522,23920569,"2802 N Pennington Dr, Chandler, AZ 85224 ",85224,0.24468592554330826,0.7813026010990143,0.19117375007930648,249000,https://www.zillow.com/homedetails/2802-N-Pennington-Dr-Chandler-AZ-85224/8176474_zpid/,33.3465,-111.87100000000001,6634,2018-03-01
9033237,23929791,"2405 S 90TH Gln, Tolleson, AZ 85353 ",85353,0.2429743856191635,0.7867497503757477,0.19116003723357755,210000,https://www.zillow.com/homedetails/2405-S-90TH-Gln-Tolleson-AZ-85353/67772731_zpid/,33.4252,-112.255,6633,2018-02-28
1078091,23885832,"2052 N Holguin Way, Chandler, AZ 85225 ",85225,0.24468592554330826,0.7811289131641388,0.19113125108620577,219000,https://www.zillow.com/homedetails/2052-N-Holguin-Way-Chandler-AZ-85225/60985138_zpid/,33.3362,-111.84899999999999,6593,2018-01-19
958181,23885961,"3473 W Barcelona Dr, Chandler, AZ 85226 ",85226,0.24468592554330826,0.7810560464859009,0.19111342163559986,209000,https://www.zillow.com/homedetails/3473-W-Barcelona-Dr-Chandler-AZ-85226/8263797_zpid/,33.3222,-111.902,6604,2018-01-30
350839,23886786,"6514 W Sonora St, Phoenix, AZ 85043 ",85043,0.2429743856191635,0.7864637672901154,0.19109055066904856,175000,https://www.zillow.com/homedetails/6514-W-Sonora-St-Phoenix-AZ-85043/7500079_zpid/,33.4338,-112.2,6621,2018-02-16
1118177,23920469,"2027 N Villas Ln, Chandler, AZ 85224 ",85224,0.24468592554330826,0.780645340681076,0.19101292770562028,220000,https://www.zillow.com/homedetails/2027-N-Villas-Ln-Chandler-AZ-85224/8199734_zpid/,33.3361,-111.87200000000001,6632,2018-02-27
9018003,23920413,"1842 W Alamo Dr, Chandler, AZ 85224 ",85224,0.24468592554330826,0.780582994222641,0.19099767240473375,244000,https://www.zillow.com/homedetails/1842-W-Alamo-Dr-Chandler-AZ-85224/8199834_zpid/,33.3482,-111.875,6639,2018-03-06
1097216,23886156,"901 W Cheyenne Dr, Chandler, AZ 85225 ",85225,0.24468592554330826,0.7797968983650208,0.19080532581224618,240000,https://www.zillow.com/homedetails/901-W-Cheyenne-Dr-Chandler-AZ-85225/8176783_zpid/,33.3463,-111.85600000000001,6618,2018-02-13
9026770,23893524,"1518 W Marlboro Dr, Chandler, AZ 85224 ",85224,0.24468592554330826,0.7796890735626221,0.19077894260067474,237500,https://www.zillow.com/homedetails/1518-W-Marlboro-Dr-Chandler-AZ-85224/8176555_zpid/,33.3476,-111.87,6591,2018-01-17
1120336,23889251,"2231 W Ironwood Dr, Chandler, AZ 85224 ",85224,0.24468592554330826,0.7796577215194702,0.19077127119697845,219900,https://www.zillow.com/homedetails/2231-W-Ironwood-Dr-Chandler-AZ-85224/8192970_zpid/,33.3246,-111.881,6624,2018-02-19
41792,23874571,"6411 W Winslow Ave, Phoenix, AZ 85043 ",85043,0.2429743856191635,0.7851304411888123,0.19076658657875445,210000,https://www.zillow.com/homedetails/6411-W-Winslow-Ave-Phoenix-AZ-85043/49641685_zpid/,33.4219,-112.198,6610,2018-02-05
362997,23929962,"9017 W Hilton Ave, Tolleson, AZ 85353 ",85353,0.2429743856191635,0.7846637666225433,0.19065319661273117,210000,https://www.zillow.com/homedetails/9017-W-Hilton-Ave-Tolleson-AZ-85353/62726889_zpid/,33.4271,-112.25399999999999,6638,2018-03-05
9005657,23871977,"10439 W Papago St, Tolleson, AZ 85353 ",85353,0.2429743856191635,0.7845947444438934,0.1906364259912796,220000,https://www.zillow.com/homedetails/10439-W-Papago-St-Tolleson-AZ-85353/125986296_zpid/,33.4338,-112.24600000000001,6603,2018-01-29
354192,23874622,"8108 W Magnolia St, Phoenix, AZ 85043 ",85043,0.2429743856191635,0.7845082879066467,0.19061541926725933,217000,https://www.zillow.com/homedetails/8108-W-Magnolia-St-Phoenix-AZ-85043/50884736_zpid/,33.425,-112.234,6613,2018-02-08
350150,23874570,"6406 W Preston Ln, Phoenix, AZ 85043 ",85043,0.2429743856191635,0.7843969166278839,0.19058835889922632,169900,https://www.zillow.com/homedetails/6406-W-Preston-Ln-Phoenix-AZ-85043/55257443_zpid/,33.4237,-112.198,6606,2018-02-01
359511,23875667,"2422 S 84th Ln, Tolleson, AZ 85353 ",85353,0.2429743856191635,0.7843917012214661,0.1905870916890562,197500,https://www.zillow.com/homedetails/2422-S-84th-Ln-Tolleson-AZ-85353/59271244_zpid/,33.4258,-112.242,6605,2018-01-31
359281,23890314,"2013 S 86TH Ave, Tolleson, AZ 85353 ",85353,0.2429743856191635,0.7843081653118134,0.19056679460273118,211000,https://www.zillow.com/homedetails/2013-S-86TH-Ave-Tolleson-AZ-85353/59271375_zpid/,33.4287,-112.244,6624,2018-02-19
1108960,23920279,"1170 W Butler Dr, Chandler, AZ 85224 ",85224,0.24468592554330826,0.7787710130214691,0.19055430610745794,249900,https://www.zillow.com/homedetails/1170-W-Butler-Dr-Chandler-AZ-85224/8207445_zpid/,33.3013,-111.86200000000001,6642,2018-03-09
40027,23874516,"2248 S 82ND Ln, Phoenix, AZ 85043 ",85043,0.2429743856191635,0.7842309474945068,0.19054803265101228,210000,https://www.zillow.com/homedetails/2248-S-82ND-Ln-Phoenix-AZ-85043/52423821_zpid/,33.4267,-112.238,6612,2018-02-07
43394,23929854,"7910 W Winslow Ave, Phoenix, AZ 85043 ",85043,0.2429743856191635,0.7838862836360931,0.19046428816176908,239950,https://www.zillow.com/homedetails/7910-W-Winslow-Ave-Phoenix-AZ-85043/67764464_zpid/,33.4221,-112.23,6644,2018-03-11
354297,23929964,"8118 W Whyman Ave, Phoenix, AZ 85043 ",85043,0.2429743856191635,0.7836121618747711,0.19039768359522702,205000,https://www.zillow.com/homedetails/8118-W-Whyman-Ave-Phoenix-AZ-85043/52423847_zpid/,33.4273,-112.235,6640,2018-03-07
365838,23892504,"9923 W Whyman Ave, Tolleson, AZ 85353 ",85353,0.2429743856191635,0.7835641205310822,0.19038601077925987,224000,https://www.zillow.com/homedetails/9923-W-Whyman-Ave-Tolleson-AZ-85353/95149673_zpid/,33.4254,-112.274,6634,2018-03-01
965657,23930144,"4724 W Del Rio St, Chandler, AZ 85226 ",85226,0.24468592554330826,0.7780154645442963,0.19036943402902806,237000,https://www.zillow.com/homedetails/4724-W-Del-Rio-St-Chandler-AZ-85226/8156655_zpid/,33.3162,-111.925,6656,2018-03-23
363090,23874641,"9025 W Hilton Ave, Tolleson, AZ 85353 ",85353,0.2429743856191635,0.7834673225879669,0.19036249135850225,189900,https://www.zillow.com/homedetails/9025-W-Hilton-Ave-Tolleson-AZ-85353/67772691_zpid/,33.4271,-112.25399999999999,6608,2018-02-03
361198,23929894,"8529 W Hughes Dr, Tolleson, AZ 85353 ",85353,0.2429743856191635,0.7834644913673401,0.1903618034444099,239900,https://www.zillow.com/homedetails/8529-W-Hughes-Dr-Tolleson-AZ-85353/59271124_zpid/,33.4249,-112.244,6635,2018-03-02
21550,23880121,"8329 W Gross Ave, Tolleson, AZ 85353 ",85353,0.2429743856191635,0.7833353579044342,0.19033042732059746,198000,https://www.zillow.com/homedetails/8329-W-Gross-Ave-Tolleson-AZ-85353/59271315_zpid/,33.4293,-112.24,6620,2018-02-15
39857,23889258,"1810 S 82nd Dr, Phoenix, AZ 85043 ",85043,0.2429743856191635,0.7832836210727692,0.19031785659570977,179900,https://www.zillow.com/homedetails/1810-S-82nd-Dr-Phoenix-AZ-85043/60047254_zpid/,33.4316,-112.238,6624,2018-02-19
351354,23929786,"6558 W Nez Perce St, Phoenix, AZ 85043 ",85043,0.2429743856191635,0.7832585275173187,0.1903117595044912,185000,https://www.zillow.com/homedetails/6558-W-Nez-Perce-St-Phoenix-AZ-85043/54938704_zpid/,33.431999999999995,-112.20100000000001,6643,2018-03-10
361380,23886784,"8601 W Flavia Hvn, Tolleson, AZ 85353 ",85353,0.2429743856191635,0.7831414043903351,0.19028330158467055,245000,https://www.zillow.com/homedetails/8601-W-Flavia-Hvn-Tolleson-AZ-85353/59271170_zpid/,33.4241,-112.245,6621,2018-02-16
9033245,23929967,"8536 W Magnolia St, Tolleson, AZ 85353 ",85353,0.2429743856191635,0.7830067276954651,0.1902505785974773,230000,https://www.zillow.com/homedetails/8536-W-Magnolia-St-Tolleson-AZ-85353/59271181_zpid/,33.4238,-112.245,6643,2018-03-10
9022216,23869757,"8333 W Watkins St, Tolleson, AZ 85353 ",85353,0.2429743856191635,0.7829476594924927,0.19023622653715044,190000,https://www.zillow.com/homedetails/8333-W-Watkins-St-Tolleson-AZ-85353/54886336_zpid/,33.4265,-112.24,6594,2018-01-20
9028534,23899487,"9926 W Gross Ave, Tolleson, AZ 85353 ",85353,0.2429743856191635,0.782701700925827,0.1901764649055271,217000,https://www.zillow.com/homedetails/9926-W-Gross-Ave-Tolleson-AZ-85353/89456847_zpid/,33.428000000000004,-112.274,6633,2018-02-28
9032346,23921566,"538 W Monterey St, Chandler, AZ 85225 ",85225,0.24468592554330826,0.7771458327770233,0.19015664737517102,171400,https://www.zillow.com/homedetails/538-W-Monterey-St-Chandler-AZ-85225/8187065_zpid/,33.315,-111.84899999999999,6630,2018-02-25
9027233,23895214,"8406 W Hamster Ln, Tolleson, AZ 85353 ",85353,0.2429743856191635,0.7823987007141113,0.190102843615243,189000,https://www.zillow.com/homedetails/8406-W-Hamster-Ln-Tolleson-AZ-85353/58883271_zpid/,33.4288,-112.241,6614,2018-02-09
40196,23874530,"2907 S 71st Dr, Phoenix, AZ 85043 ",85043,0.2429743856191635,0.7819188237190247,0.18998624579718904,240000,https://www.zillow.com/homedetails/2907-S-71st-Dr-Phoenix-AZ-85043/71604365_zpid/,33.4222,-112.213,6613,2018-02-08
9027265,23895296,"8555 W Sonora St, Tolleson, AZ 85353 ",85353,0.2429743856191635,0.7816579043865204,0.18992284908267765,190500,https://www.zillow.com/homedetails/8555-W-Sonora-St-Tolleson-AZ-85353/58494114_zpid/,33.4325,-112.244,6608,2018-02-03
352694,23929821,"7205 W Hess Ave, Phoenix, AZ 85043 ",85043,0.2429743856191635,0.7816052734851837,0.1899100611217608,209990,https://www.zillow.com/homedetails/7205-W-Hess-Ave-Phoenix-AZ-85043/52424247_zpid/,33.4296,-112.215,6639,2018-03-06
9024040,23873322,"2215 S 99TH Ln, Tolleson, AZ 85353 ",85353,0.2429743856191635,0.7811644971370697,0.18980296375938233,213999,https://www.zillow.com/homedetails/2215-S-99TH-Ln-Tolleson-AZ-85353/95076703_zpid/,33.4261,-112.273,6610,2018-02-05
41583,23874562,"6321 W Mohave St, Phoenix, AZ 85043 ",85043,0.2429743856191635,0.7808979153633118,0.18973819121668623,195000,https://www.zillow.com/homedetails/6321-W-Mohave-St-Phoenix-AZ-85043/55257280_zpid/,33.4315,-112.196,6608,2018-02-03
354449,23889724,"8137 W Hess Ave, Phoenix, AZ 85043 ",85043,0.2429743856191635,0.780651867389679,0.18967840786145995,205000,https://www.zillow.com/homedetails/8137-W-Hess-Ave-Phoenix-AZ-85043/40371664_zpid/,33.4291,-112.236,6624,2018-02-19
249467,23927324,"413 E Rimrock Dr, Phoenix, AZ 85024 ",85024,0.24468592554330826,0.7749926745891571,0.18962979987113182,222000,https://www.zillow.com/homedetails/413-E-Rimrock-Dr-Phoenix-AZ-85024/7968011_zpid/,33.6625,-112.068,6637,2018-03-04
352675,23874598,"7143 W Zak Rd, Phoenix, AZ 85043 ",85043,0.2429743856191635,0.780218243598938,0.1895730483873148,190000,https://www.zillow.com/homedetails/7143-W-Zak-Rd-Phoenix-AZ-85043/52424124_zpid/,33.4268,-112.214,6606,2018-02-01
359526,23874541,"2429 S 83RD Dr, Tolleson, AZ 85353 ",85353,0.2429743856191635,0.7797740399837494,0.18946511828682455,209999,https://www.zillow.com/homedetails/2429-S-83RD-Dr-Tolleson-AZ-85353/59271229_zpid/,33.4258,-112.23899999999999,6600,2018-01-26
352885,23929847,"7223 W Zak Rd, Phoenix, AZ 85043 ",85043,0.2429743856191635,0.7797722518444061,0.18946468381476622,179900,https://www.zillow.com/homedetails/7223-W-Zak-Rd-Phoenix-AZ-85043/52424200_zpid/,33.4269,-112.21600000000001,6646,2018-03-13
9026644,23892930,"1956 N Illinois St, Chandler, AZ 85225 ",85225,0.24468592554330826,0.7742391526699066,0.18944542366290285,237500,https://www.zillow.com/homedetails/1956-N-Illinois-St-Chandler-AZ-85225/8182717_zpid/,33.3332,-111.84899999999999,6619,2018-02-14
9033246,23929961,"8421 W Cocopah St, Tolleson, AZ 85353 ",85353,0.2429743856191635,0.7796674072742462,0.1894392092697461,219995,https://www.zillow.com/homedetails/8421-W-Cocopah-St-Tolleson-AZ-85353/59271616_zpid/,33.4321,-112.241,6650,2018-03-17
251570,23881419,"710 E Sack Dr, Phoenix, AZ 85024 ",85024,0.24468592554330826,0.7737179696559906,0.18931789751476535,240000,https://www.zillow.com/homedetails/710-E-Sack-Dr-Phoenix-AZ-85024/7997524_zpid/,33.6583,-112.065,6620,2018-02-15
1094985,23886129,"825 W Temple St, Chandler, AZ 85225 ",85225,0.24468592554330826,0.7736316025257111,0.18929676469355639,230000,https://www.zillow.com/homedetails/825-W-Temple-St-Chandler-AZ-85225/8183622_zpid/,33.3326,-111.85700000000001,6591,2018-01-17
1120141,23885857,"2213 W Los Arboles Pl, Chandler, AZ 85224 ",85224,0.24468592554330826,0.7735209763050079,0.18926969601435428,239990,https://www.zillow.com/homedetails/2213-W-Los-Arboles-Pl-Chandler-AZ-85224/8192352_zpid/,33.3355,-111.88,6613,2018-02-08
349981,23889261,"6342 W Whyman Ave, Phoenix, AZ 85043 ",85043,0.2429743856191635,0.7787895202636719,0.18922590521270877,179900,https://www.zillow.com/homedetails/6342-W-Whyman-Ave-Phoenix-AZ-85043/53206189_zpid/,33.4274,-112.198,6624,2018-02-19
650458,23872026,"2419 W Naranja Ave, Mesa, AZ 85202 ",85202,0.24468592554330826,0.7733183801174164,0.1892201235786819,218000,https://www.zillow.com/homedetails/2419-W-Naranja-Ave-Mesa-AZ-85202/8251330_zpid/,33.3643,-111.88600000000001,6603,2018-01-29
39873,23876462,"1904 S 82nd Dr, Phoenix, AZ 85043 ",85043,0.2429743856191635,0.7786672711372375,0.1891962018063209,207000,https://www.zillow.com/homedetails/1904-S-82nd-Dr-Phoenix-AZ-85043/58770129_zpid/,33.4313,-112.238,6619,2018-02-14
1115749,23864072,"1721 W Nopal Dr, Chandler, AZ 85224 ",85224,0.24468592554330826,0.7731971740722656,0.18919046616534274,249900,https://www.zillow.com/homedetails/1721-W-Nopal-Dr-Chandler-AZ-85224/8198402_zpid/,33.3418,-111.874,6581,2018-01-07
501561,23888074,"7826 W Palm Ln, Phoenix, AZ 85035 ",85035,0.2429743856191635,0.7786210775375366,0.18918497794481404,172000,https://www.zillow.com/homedetails/7826-W-Palm-Ln-Phoenix-AZ-85035/95097689_zpid/,33.469,-112.228,6622,2018-02-17
41747,23929839,"6402 W Pima St, Phoenix, AZ 85043 ",85043,0.2429743856191635,0.7785667479038239,0.18917177723544176,179900,https://www.zillow.com/homedetails/6402-W-Pima-St-Phoenix-AZ-85043/7499989_zpid/,33.4351,-112.198,6646,2018-03-13
356334,23881413,"819 E Audrey Ln, Phoenix, AZ 85022 ",85022,0.24468592554330826,0.7730582356452942,0.1891564698877457,249900,https://www.zillow.com/homedetails/819-E-Audrey-Ln-Phoenix-AZ-85022/8002728_zpid/,33.6543,-112.06299999999999,6614,2018-02-09
351243,23874592,"6540 W Gross Ave, Phoenix, AZ 85043 ",85043,0.2429743856191635,0.7783010005950928,0.18910720744637288,229900,https://www.zillow.com/homedetails/6540-W-Gross-Ave-Phoenix-AZ-85043/62727279_zpid/,33.4297,-112.20200000000001,6613,2018-02-08
43860,23874625,"8140 W Gibson Ln, Phoenix, AZ 85043 ",85043,0.2429743856191635,0.7782930433750153,0.1891052740457133,214900,https://www.zillow.com/homedetails/8140-W-Gibson-Ln-Phoenix-AZ-85043/52423784_zpid/,33.4279,-112.236,6615,2018-02-10
1094634,23886104,"814 W Palomino Dr, Chandler, AZ 85225 ",85225,0.24468592554330826,0.7728343307971954,0.18910168352275503,195000,https://www.zillow.com/homedetails/814-W-Palomino-Dr-Chandler-AZ-85225/8177734_zpid/,33.3408,-111.85700000000001,6616,2018-02-11
625114,23886893,"2235 S Hosick, Mesa, AZ 85210 ",85210,0.24468592554330826,0.7726466655731201,0.18905576448370986,200000,https://www.zillow.com/homedetails/2235-S-Hosick-Mesa-AZ-85210/8170281_zpid/,33.3741,-111.848,6621,2018-02-16
961362,23890199,"3986 W Calle Segunda, Chandler, AZ 85226 ",85226,0.24468592554330826,0.7726238369941711,0.1890501786517409,215000,https://www.zillow.com/homedetails/3986-W-Calle-Segunda-Chandler-AZ-85226/8156357_zpid/,33.304,-111.911,6625,2018-02-20
343494,23875666,"2518 S 66th Dr, Phoenix, AZ 85043 ",85043,0.2429743856191635,0.7780117988586426,0.1890369388321389,194900,https://www.zillow.com/homedetails/2518-S-66th-Dr-Phoenix-AZ-85043/67773235_zpid/,33.425,-112.20200000000001,6581,2018-01-07
41535,23889260,"6314 W Mohave St, Phoenix, AZ 85043 ",85043,0.2429743856191635,0.7778692841529846,0.18900231140908996,190000,https://www.zillow.com/homedetails/6314-W-Mohave-St-Phoenix-AZ-85043/55257271_zpid/,33.431999999999995,-112.196,6623,2018-02-18
235315,23915223,"16027 N 19TH Dr, Phoenix, AZ 85023 ",85023,0.24468592554330826,0.7723904550075531,0.18899307336434013,249900,https://www.zillow.com/homedetails/16027-N-19TH-Dr-Phoenix-AZ-85023/81980470_zpid/,33.6314,-112.1,6631,2018-02-26
359312,23869360,"2024 S 85TH Ln, Tolleson, AZ 85353 ",85353,0.2429743856191635,0.7778022885322571,0.18898603318930451,185000,https://www.zillow.com/homedetails/2024-S-85th-Ln-Tolleson-AZ-85353/59271383_zpid/,33.4284,-112.244,6595,2018-01-21
1108948,23885722,"1169 W Nopal Pl, Chandler, AZ 85224 ",85224,0.24468592554330826,0.7720104157924652,0.1889000831172536,244900,https://www.zillow.com/homedetails/1169-W-Nopal-Pl-Chandler-AZ-85224/8175911_zpid/,33.341,-111.86200000000001,6602,2018-01-28
9029842,23905028,"9830 W Kerry Ln, Peoria, AZ 85382 ",85382,0.2429743856191635,0.7772579789161682,0.18885377989474872,221500,https://www.zillow.com/homedetails/9830-W-Kerry-Ln-Peoria-AZ-85382/7893295_zpid/,33.6593,-112.272,6608,2018-02-03
1472355,23885687,"9834 W Kerry Ln, Peoria, AZ 85382 ",85382,0.2429743856191635,0.7772579789161682,0.18885377989474872,224900,https://www.zillow.com/homedetails/9834-W-Kerry-Ln-Peoria-AZ-85382/7893293_zpid/,33.6592,-112.272,6611,2018-02-06
246977,23892063,"3417 W Saint Moritz Ln, Phoenix, AZ 85053 ",85053,0.24468592554330826,0.7715385258197784,0.18878461828253212,172500,https://www.zillow.com/homedetails/3417-W-Saint-Moritz-Ln-Phoenix-AZ-85053/7943599_zpid/,33.619,-112.132,6627,2018-02-22
40028,23875647,"2304 S 66TH Ln, Phoenix, AZ 85043 ",85043,0.2429743856191635,0.7766920030117035,0.18871626224708615,219900,https://www.zillow.com/homedetails/2304-S-66TH-Ln-Phoenix-AZ-85043/67773205_zpid/,33.427,-112.204,6617,2018-02-12
1123841,23911895,"2713 W Estrella Dr, Chandler, AZ 85224 ",85224,0.24468592554330826,0.7708996534347534,0.18862829520169822,218700,https://www.zillow.com/homedetails/2713-W-Estrella-Dr-Chandler-AZ-85224/8193175_zpid/,33.3327,-111.889,6646,2018-03-13
243943,23929305,"18466 N 5TH Ave, Phoenix, AZ 85023 ",85023,0.24468592554330826,0.7708984911441803,0.18862801080555358,244000,https://www.zillow.com/homedetails/18466-N-5TH-Ave-Phoenix-AZ-85023/7956365_zpid/,33.6543,-112.08,6628,2018-02-23
1370379,23919991,"6634 N 84TH Ln, Glendale, AZ 85305 ",85305,0.2429743856191635,0.7762078046798706,0.18859861445489123,205000,https://www.zillow.com/homedetails/6634-N-84TH-Ln-Glendale-AZ-85305/7461312_zpid/,33.5325,-112.241,6633,2018-02-28
9028719,23903845,"3407 W Evans Dr, Phoenix, AZ 85053 ",85053,0.24468592554330826,0.7704919576644897,0.18852853778481116,249900,https://www.zillow.com/homedetails/3407-W-Evans-Dr-Phoenix-AZ-85053/7943538_zpid/,33.6168,-112.131,6625,2018-02-20
9029845,23913752,"17748 N 89TH Dr, Peoria, AZ 85382 ",85382,0.2429743856191635,0.775870144367218,0.1885165716478765,241900,https://www.zillow.com/homedetails/17748-N-89TH-Dr-Peoria-AZ-85382/81952280_zpid/,33.6443,-112.251,6638,2018-03-05
349587,23892378,"18405 N 16TH Way, Phoenix, AZ 85022 ",85022,0.24468592554330826,0.7703435122966766,0.1884922152925952,224900,https://www.zillow.com/homedetails/18405-N-16TH-Way-Phoenix-AZ-85022/8001243_zpid/,33.6533,-112.045,6630,2018-02-25
1466624,23913753,"17462 N 92ND Gln, Peoria, AZ 85382 ",85382,0.2429743856191635,0.7753467261791229,0.1883893944352022,224000,https://www.zillow.com/homedetails/17462-N-92ND-Gln-Peoria-AZ-85382/95142094_zpid/,33.6425,-112.259,6638,2018-03-05
9031597,23914748,"9745 W Mcrae Way, Peoria, AZ 85382 ",85382,0.2429743856191635,0.7753442525863647,0.1883887934155215,246650,https://www.zillow.com/homedetails/9745-W-Mcrae-Way-Peoria-AZ-85382/7896606_zpid/,33.6529,-112.27,6647,2018-03-14
28079,23881418,"525 E Wescott Dr, Phoenix, AZ 85024 ",85024,0.24468592554330826,0.7695169448852539,0.18828996588050728,230000,https://www.zillow.com/homedetails/525-E-Wescott-Dr-Phoenix-AZ-85024/7972272_zpid/,33.6586,-112.06700000000001,6606,2018-02-01
450725,23873992,"8746 W Granada Rd, Phoenix, AZ 85037 ",85037,0.2429743856191635,0.7748754322528839,0.18827488208302823,199900,https://www.zillow.com/homedetails/8746-W-Granada-Rd-Phoenix-AZ-85037/7487519_zpid/,33.4683,-112.249,6611,2018-02-06
525211,23915067,"9201 W Cambridge Ave, Phoenix, AZ 85037 ",85037,0.2429743856191635,0.7747874855995178,0.18825351329895934,239000,https://www.zillow.com/homedetails/9201-W-Cambridge-Ave-Phoenix-AZ-85037/60974862_zpid/,33.4763,-112.257,6640,2018-03-07
445506,23891936,"4646 N 84TH Ln, Phoenix, AZ 85037 ",85037,0.2429743856191635,0.7746667265892029,0.1882241719526201,198000,https://www.zillow.com/homedetails/4646-N-84TH-Ln-Phoenix-AZ-85037/7481172_zpid/,33.505,-112.242,6627,2018-02-22
445075,23888238,"4620 N 92ND Dr, Phoenix, AZ 85037 ",85037,0.2429743856191635,0.7742176055908203,0.18811504705396942,241000,https://www.zillow.com/homedetails/4620-N-92ND-Dr-Phoenix-AZ-85037/7466545_zpid/,33.5049,-112.259,6622,2018-02-17
9029809,23904890,"17460 N 92ND Ave, Peoria, AZ 85382 ",85382,0.2429743856191635,0.7739859819412231,0.18805876844001368,226000,https://www.zillow.com/homedetails/17460-N-92ND-Ave-Peoria-AZ-85382/95103614_zpid/,33.6425,-112.258,6621,2018-02-16
9029954,23905639,"19056 N 96th Ave, Peoria, AZ 85382 ",85382,0.2429743856191635,0.7739679217338562,0.18805438027222454,249900,https://www.zillow.com/homedetails/19056-N-96th-Ave-Peoria-AZ-85382/7893092_zpid/,33.6559,-112.265,6604,2018-01-30
231680,23915293,"17618 N 28TH Dr, Phoenix, AZ 85053 ",85053,0.24468592554330826,0.7685404717922211,0.1880510366579704,199900,https://www.zillow.com/homedetails/17618-N-28TH-Dr-Phoenix-AZ-85053/7942393_zpid/,33.6461,-112.12100000000001,6642,2018-03-09
240163,23882082,"3107 W Country Gables Dr, Phoenix, AZ 85053 ",85053,0.24468592554330826,0.7683627605438232,0.18800755321667673,157900,https://www.zillow.com/homedetails/3107-W-Country-Gables-Dr-Phoenix-AZ-85053/7953053_zpid/,33.622,-112.126,6612,2018-02-07
9029597,23903877,"9147 W Minnezona Ave, Phoenix, AZ 85037 ",85037,0.2429743856191635,0.7737613916397095,0.18800419874948737,249990,https://www.zillow.com/homedetails/9147-W-Minnezona-Ave-Phoenix-AZ-85037/2091007381_zpid/,33.5024,-112.251,6622,2018-02-17
446025,23914909,"4721 N 91ST Ln, Phoenix, AZ 85037 ",85037,0.2429743856191635,0.7737587094306946,0.18800354704139988,179900,https://www.zillow.com/homedetails/4721-N-91ST-Ln-Phoenix-AZ-85037/7466510_zpid/,33.5063,-112.256,6643,2018-03-10
241469,23891806,"3136 W Woodridge Dr, Phoenix, AZ 85053 ",85053,0.24468592554330826,0.7682693302631378,0.18798469214197344,209900,https://www.zillow.com/homedetails/3136-W-Woodridge-Dr-Phoenix-AZ-85053/7941784_zpid/,33.6405,-112.126,6626,2018-02-21
9031428,23913803,"19526 N 84TH Ave, Peoria, AZ 85382 ",85382,0.2429743856191635,0.7736361026763916,0.18797375674060035,232000,https://www.zillow.com/homedetails/19526-N-84TH-Ave-Peoria-AZ-85382/8102086_zpid/,33.6619,-112.241,6644,2018-03-11
229029,23888305,"18611 N 22ND St LOT 23, Phoenix, AZ 85024 ",85024,0.24468592554330826,0.7681407332420349,0.18795322626084277,229900,https://www.zillow.com/homedetails/18611-N-22ND-St-LOT-23-Phoenix-AZ-85024/7995053_zpid/,33.6568,-112.03299999999999,6604,2018-01-30
1127341,23920612,"2909 W Curry St, Chandler, AZ 85224 ",85224,0.24468592554330826,0.7681178450584412,0.18794762584445612,238700,https://www.zillow.com/homedetails/2909-W-Curry-St-Chandler-AZ-85224/8197532_zpid/,33.3541,-111.89299999999999,6628,2018-02-23
9031576,23914627,"9130 W Topeka Dr, Peoria, AZ 85382 ",85382,0.2429743856191635,0.77347731590271,0.1879351756218206,228700,https://www.zillow.com/homedetails/9130-W-Topeka-Dr-Peoria-AZ-85382/67084737_zpid/,33.6583,-112.257,6649,2018-03-16
836918,23890072,"5609 N 38TH Dr, Phoenix, AZ 85019 ",85019,0.2429743856191635,0.7734480202198029,0.18792805752126496,195900,https://www.zillow.com/homedetails/5609-N-38TH-Dr-Phoenix-AZ-85019/7719599_zpid/,33.5183,-112.14200000000001,6625,2018-02-20
1466691,23869657,"17797 N 89TH Dr, Peoria, AZ 85382 ",85382,0.2429743856191635,0.7734338045120239,0.18792460346840123,241500,https://www.zillow.com/homedetails/17797-N-89TH-Dr-Peoria-AZ-85382/71616751_zpid/,33.6449,-112.251,6594,2018-01-20
1408259,23883188,"6919 N 73rd Dr, Glendale, AZ 85303 ",85303,0.2429743856191635,0.7734275162220001,0.1879230755749961,214000,https://www.zillow.com/homedetails/6919-N-73rd-Dr-Glendale-AZ-85303/7706959_zpid/,33.5365,-112.21600000000001,6608,2018-02-03
625056,23886884,"1508 W Capri Ave, Mesa, AZ 85202 ",85202,0.24468592554330826,0.7679504454135895,0.18790666550741997,239900,https://www.zillow.com/homedetails/1508-W-Capri-Ave-Mesa-AZ-85202/7604820_zpid/,33.4058,-111.86399999999999,6621,2018-02-16
1091759,23886133,"701 W Dublin St, Chandler, AZ 85225 ",85225,0.24468592554330826,0.7679355442523956,0.18790301940300158,225000,https://www.zillow.com/homedetails/701-W-Dublin-St-Chandler-AZ-85225/8189377_zpid/,33.3186,-111.853,6588,2018-01-14
9032285,23920247,"7579 W Wikieup Ln, Glendale, AZ 85308 ",85308,0.2429743856191635,0.7733259201049805,0.18789839032088196,249900,https://www.zillow.com/homedetails/7579-W-Wikieup-Ln-Glendale-AZ-85308/7892240_zpid/,33.6639,-112.221,6640,2018-03-07
450133,23873086,"8659 W Palm Ln, Phoenix, AZ 85037 ",85037,0.2429743856191635,0.7733239233493805,0.18789790516041682,179900,https://www.zillow.com/homedetails/8659-W-Palm-Ln-Phoenix-AZ-85037/7487502_zpid/,33.47,-112.244,6607,2018-02-02
15532,23914178,"7400 W Mission Ln, Peoria, AZ 85345 ",85345,0.2429743856191635,0.7733047604560852,0.18789324906819171,220000,https://www.zillow.com/homedetails/7400-W-Mission-Ln-Peoria-AZ-85345/7702217_zpid/,33.5703,-112.21799999999999,6650,2018-03-17
9030853,23909955,"3402 W Phelps Rd, Phoenix, AZ 85053 ",85053,0.24468592554330826,0.7678932845592499,0.18789267905087104,217900,https://www.zillow.com/homedetails/3402-W-Phelps-Rd-Phoenix-AZ-85053/7953388_zpid/,33.6382,-112.133,6618,2018-02-13
233894,23915420,"19214 N 2ND Ave, Phoenix, AZ 85027 ",85027,0.24468592554330826,0.7677677869796753,0.18786197155945938,218000,https://www.zillow.com/homedetails/19214-N-2ND-Ave-Phoenix-AZ-85027/7968750_zpid/,33.6609,-112.07600000000001,6650,2018-03-17
423474,23920179,"8651 N 57TH Dr, Glendale, AZ 85302 ",85302,0.2429743856191635,0.7731514275074005,0.18785599308918988,245000,https://www.zillow.com/homedetails/8651-N-57TH-Dr-Glendale-AZ-85302/55260816_zpid/,33.5631,-112.182,6639,2018-03-06
524624,23887143,"9123 W Cambridge Ave, Phoenix, AZ 85037 ",85037,0.2429743856191635,0.7730960547924042,0.18784253893778358,232000,https://www.zillow.com/homedetails/9123-W-Cambridge-Ave-Phoenix-AZ-85037/60974866_zpid/,33.4764,-112.257,6620,2018-02-15
9029872,23914718,"9832 W Kimberly Way, Peoria, AZ 85382 ",85382,0.2429743856191635,0.773075133562088,0.1878374556147011,239900,https://www.zillow.com/homedetails/9832-W-Kimberly-Way-Peoria-AZ-85382/7893256_zpid/,33.6555,-112.272,6641,2018-03-08
349688,23875696,"6325 W Whyman Ave, Phoenix, AZ 85043 ",85043,0.2429743856191635,0.7730618119239807,0.18783421879786655,225000,https://www.zillow.com/homedetails/6325-W-Whyman-Ave-Phoenix-AZ-85043/53206198_zpid/,33.4269,-112.197,6579,2018-01-05
341987,23888290,"16633 N 19th Pl, Phoenix, AZ 85022 ",85022,0.24468592554330826,0.7676275968551636,0.1878276690090912,244900,https://www.zillow.com/homedetails/16633-N-19th-Pl-Phoenix-AZ-85022/55267888_zpid/,33.6381,-112.04,6621,2018-02-16
629569,23853723,"1645 W Peralta Ave, Mesa, AZ 85202 ",85202,0.24468592554330826,0.7675079107284546,0.18779838349840272,222900,https://www.zillow.com/homedetails/1645-W-Peralta-Ave-Mesa-AZ-85202/8191627_zpid/,33.3572,-111.87,6553,2017-12-10
523764,23888833,"9034 W Avalon Dr, Phoenix, AZ 85037 ",85037,0.2429743856191635,0.7728524208068848,0.18778334211983605,180000,https://www.zillow.com/homedetails/9034-W-Avalon-Dr-Phoenix-AZ-85037/54948475_zpid/,33.4832,-112.25399999999999,6623,2018-02-18
234736,23915231,"15919 N 21ST Ln, Phoenix, AZ 85023 ",85023,0.24468592554330826,0.7674057483673096,0.18777338580651026,199000,https://www.zillow.com/homedetails/15919-N-21ST-Ln-Phoenix-AZ-85023/82823718_zpid/,33.6305,-112.105,6646,2018-03-13
448361,23888250,"8402 W Coolidge St, Phoenix, AZ 85037 ",85037,0.2429743856191635,0.7727919518947601,0.1877686497230635,183500,https://www.zillow.com/homedetails/8402-W-Coolidge-St-Phoenix-AZ-85037/7481009_zpid/,33.5049,-112.24,6622,2018-02-17
235711,23887043,"2881 W Muriel Dr, Phoenix, AZ 85053 ",85053,0.24468592554330826,0.7672834098339081,0.1877434512892353,222900,https://www.zillow.com/homedetails/2881-W-Muriel-Dr-Phoenix-AZ-85053/7942467_zpid/,33.646,-112.12100000000001,6613,2018-02-08
1122798,23892196,"256 S Dobson Rd, Chandler, AZ 85224 ",85224,0.24468592554330826,0.7672109007835388,0.18772570934513544,199000,https://www.zillow.com/homedetails/256-S-Dobson-Rd-Chandler-AZ-85224/8207976_zpid/,33.2994,-111.87700000000001,6627,2018-02-22
22091,23889710,"8335 W Lewis Ave, Phoenix, AZ 85037 ",85037,0.2429743856191635,0.7726029455661774,0.18772272602649798,184900,https://www.zillow.com/homedetails/8335-W-Lewis-Ave-Phoenix-AZ-85037/81996643_zpid/,33.4736,-112.23899999999999,6625,2018-02-20
9029763,23905774,"7055 W Lincoln St, Peoria, AZ 85345 ",85345,0.2429743856191635,0.7725504338741302,0.187709967030385,198000,https://www.zillow.com/homedetails/7055-W-Lincoln-St-Peoria-AZ-85345/63200896_zpid/,33.5844,-112.211,6620,2018-02-15
244592,23872363,"1941 W Faria Ln, Phoenix, AZ 85023 ",85023,0.24468592554330826,0.767142117023468,0.18770887892714017,194000,https://www.zillow.com/homedetails/1941-W-Faria-Ln-Phoenix-AZ-85023/81954546_zpid/,33.6312,-112.101,6605,2018-01-31
224881,23891793,"1326 W Topeka Dr, Phoenix, AZ 85027 ",85027,0.24468592554330826,0.7670955955982208,0.18769749578914596,170000,https://www.zillow.com/homedetails/1326-W-Topeka-Dr-Phoenix-AZ-85027/7971741_zpid/,33.6599,-112.089,6627,2018-02-22
2936,23920080,"6904 W Golden Ln, Peoria, AZ 85345 ",85345,0.2429743856191635,0.7724260091781616,0.18767973501632618,239900,https://www.zillow.com/homedetails/6904-W-Golden-Ln-Peoria-AZ-85345/50187959_zpid/,33.5653,-112.208,6641,2018-03-08
1373435,23873994,"8759 W Peppertree Ln, Glendale, AZ 85305 ",85305,0.2429743856191635,0.7723924815654755,0.18767158866523248,240000,https://www.zillow.com/homedetails/8759-W-Peppertree-Ln-Glendale-AZ-85305/95158696_zpid/,33.5368,-112.24700000000001,6612,2018-02-07
833043,23884776,"5211 N 41st Ave, Phoenix, AZ 85019 ",85019,0.2429743856191635,0.7723309099674225,0.18765662834402397,173000,https://www.zillow.com/homedetails/5211-N-41st-Ave-Phoenix-AZ-85019/7721526_zpid/,33.5132,-112.147,6606,2018-02-01
222670,23871974,"1018 W Anderson Dr, Phoenix, AZ 85023 ",85023,0.24468592554330826,0.766893744468689,0.1876481056586945,198000,https://www.zillow.com/homedetails/1018-W-Anderson-Dr-Phoenix-AZ-85023/7963545_zpid/,33.6432,-112.087,6603,2018-01-29
398139,23888411,"4133 W Bloomfield Rd, Phoenix, AZ 85029 ",85029,0.2429743856191635,0.7721714079380035,0.1876178734364209,230000,https://www.zillow.com/homedetails/4133-W-Bloomfield-Rd-Phoenix-AZ-85029/7742616_zpid/,33.5986,-112.148,6622,2018-02-17
9032281,23920178,"7006 W Kings Ave, Peoria, AZ 85382 ",85382,0.2429743856191635,0.7720407545566559,0.18758612801135888,225000,https://www.zillow.com/homedetails/7006-W-Kings-Ave-Peoria-AZ-85382/7903074_zpid/,33.6345,-112.21,6639,2018-03-06
445188,23891613,"4627 N 91ST Dr, Phoenix, AZ 85037 ",85037,0.2429743856191635,0.7719691395759583,0.18756872740542274,236900,https://www.zillow.com/homedetails/4627-N-91st-Dr-Phoenix-AZ-85037/7466477_zpid/,33.5051,-112.256,6626,2018-02-21
1413295,23920069,"7305 W Lamar Rd, Glendale, AZ 85303 ",85303,0.2429743856191635,0.771967738866806,0.18756838706897705,230000,https://www.zillow.com/homedetails/7305-W-Lamar-Rd-Glendale-AZ-85303/7706962_zpid/,33.535,-112.21600000000001,6645,2018-03-12
1118968,23920456,"2113 W Boston St, Chandler, AZ 85224 ",85224,0.24468592554330826,0.7665388882160187,0.18756127732807504,205000,https://www.zillow.com/homedetails/2113-W-Boston-St-Chandler-AZ-85224/8208049_zpid/,33.3016,-111.87799999999999,6642,2018-03-09
637717,23877260,"1942 W Portobello Ave, Mesa, AZ 85202 ",85202,0.24468592554330826,0.7665373086929321,0.1875608908410067,232500,https://www.zillow.com/homedetails/1942-W-Portobello-Ave-Mesa-AZ-85202/8191364_zpid/,33.3598,-111.876,6617,2018-02-12
559662,23912498,"1302 W 7TH Dr, Mesa, AZ 85202 ",85202,0.24468592554330826,0.7665370106697083,0.18756081791891832,177000,https://www.zillow.com/homedetails/1302-W-7TH-Dr-Mesa-AZ-85202/7604299_zpid/,33.4017,-111.859,6635,2018-03-02
232368,23889344,"17849 N 29th Dr, Phoenix, AZ 85053 ",85053,0.24468592554330826,0.7664134502410889,0.18753058442108106,215000,https://www.zillow.com/homedetails/17849-N-29th-Dr-Phoenix-AZ-85053/7940824_zpid/,33.6491,-112.12200000000001,6624,2018-02-19
1370616,23920014,"6750 N 89TH Ave, Glendale, AZ 85305 ",85305,0.2429743856191635,0.7717954814434052,0.18752653292735788,217700,https://www.zillow.com/homedetails/6750-N-89TH-Ave-Glendale-AZ-85305/7461686_zpid/,33.5333,-112.251,6630,2018-02-25
9029622,23904013,"5207 W Campo Bello Dr, Glendale, AZ 85308 ",85308,0.2429743856191635,0.7717849314212799,0.18752396954221373,230000,https://www.zillow.com/homedetails/5207-W-Campo-Bello-Dr-Glendale-AZ-85308/8100316_zpid/,33.6426,-112.17200000000001,6625,2018-02-20
9028736,23900205,"6736 W Kings Ave, Peoria, AZ 85382 ",85382,0.2429743856191635,0.7716977000236511,0.18750277454696818,200000,https://www.zillow.com/homedetails/6736-W-Kings-Ave-Peoria-AZ-85382/7902943_zpid/,33.6345,-112.205,6627,2018-02-22
251306,23891024,"533 E Taro Ln, Phoenix, AZ 85024 ",85024,0.24468592554330826,0.7662553489208221,0.18749189925320198,236000,https://www.zillow.com/homedetails/533-E-Taro-Ln-Phoenix-AZ-85024/7972372_zpid/,33.6591,-112.066,6617,2018-02-12
246157,23890434,"3361 W Phelps Rd, Phoenix, AZ 85053 ",85053,0.24468592554330826,0.766252875328064,0.18749129399986852,239900,https://www.zillow.com/homedetails/3361-W-Phelps-Rd-Phoenix-AZ-85053/7953482_zpid/,33.6379,-112.131,6626,2018-02-21
9029753,23907035,"2208 W Dahlia Dr, Phoenix, AZ 85029 ",85029,0.24468592554330826,0.7662069201469421,0.18748004941384222,239900,https://www.zillow.com/homedetails/2208-W-Dahlia-Dr-Phoenix-AZ-85029/2090952469_zpid/,33.6035,-112.10600000000001,6626,2018-02-21
561461,23912399,"1056 W Frito Ave, Mesa, AZ 85210 ",85210,0.24468592554330826,0.7661949694156647,0.18747712523809867,199900,https://www.zillow.com/homedetails/1056-W-Frito-Ave-Mesa-AZ-85210/7598718_zpid/,33.3955,-111.855,6638,2018-03-05
418443,23889532,"5127 W Mountain View Rd, Glendale, AZ 85302 ",85302,0.2429743856191635,0.7715301811695099,0.18746207175630358,175000,https://www.zillow.com/homedetails/5127-W-Mountain-View-Rd-Glendale-AZ-85302/7734363_zpid/,33.5744,-112.17,6624,2018-02-19
976364,23921519,"77 S Tercera Pl, Chandler, AZ 85226 ",85226,0.24468592554330826,0.7660723924636841,0.18744713238315303,224900,https://www.zillow.com/homedetails/77-S-Tercera-Pl-Chandler-AZ-85226/55273352_zpid/,33.3021,-111.90700000000001,6650,2018-03-17
519544,23891946,"8906 W Cypress St, Phoenix, AZ 85037 ",85037,0.2429743856191635,0.7713808119297028,0.18742577885703104,219000,https://www.zillow.com/homedetails/8906-W-Cypress-St-Phoenix-AZ-85037/7487715_zpid/,33.4719,-112.251,6627,2018-02-22
232873,23881209,"18026 N 34th Ave, Phoenix, AZ 85053 ",85053,0.24468592554330826,0.7659659683704376,0.1874210919053969,189000,https://www.zillow.com/homedetails/18026-N-34th-Ave-Phoenix-AZ-85053/7941300_zpid/,33.6501,-112.132,6616,2018-02-11
402846,23919717,"12115 N 66TH Ave, Glendale, AZ 85304 ",85304,0.2429743856191635,0.7712812721729279,0.18740159324578398,229990,https://www.zillow.com/homedetails/12115-N-66TH-Ave-Glendale-AZ-85304/67401338_zpid/,33.5959,-112.20100000000001,6646,2018-03-13
1375062,23920152,"9054 W Nicolet Ave, Glendale, AZ 85305 ",85305,0.2429743856191635,0.7712788581848145,0.18740100670850524,245000,https://www.zillow.com/homedetails/9054-W-Nicolet-Ave-Glendale-AZ-85305/95083641_zpid/,33.5409,-112.25399999999999,6642,2018-03-09
9031500,23914158,"7009 W Cherry Hills Dr, Peoria, AZ 85345 ",85345,0.2429743856191635,0.7712765038013458,0.18740043465362843,245000,https://www.zillow.com/homedetails/7009-W-Cherry-Hills-Dr-Peoria-AZ-85345/7699971_zpid/,33.5931,-112.21,6642,2018-03-09
423622,23892126,"8816 N 44TH Ln, Glendale, AZ 85302 ",85302,0.2429743856191635,0.7712425887584686,0.1873921941669221,209000,https://www.zillow.com/homedetails/8816-N-44TH-Ln-Glendale-AZ-85302/7731485_zpid/,33.565,-112.155,6627,2018-02-22
1113152,23930028,"1516 W Cheyenne Dr, Chandler, AZ 85224 ",85224,0.24468592554330826,0.765728086233139,0.18736288549446178,205000,https://www.zillow.com/homedetails/1516-W-Cheyenne-Dr-Chandler-AZ-85224/8176581_zpid/,33.3469,-111.869,6656,2018-03-23
379359,23879763,"11404 N 30th Ave, Phoenix, AZ 85029 ",85029,0.24468592554330826,0.7657155096530914,0.18735980818233267,210900,https://www.zillow.com/homedetails/11404-N-30th-Ave-Phoenix-AZ-85029/7739905_zpid/,33.5896,-112.124,6617,2018-02-12
483296,23891539,"2625 N 73RD Dr, Phoenix, AZ 85035 ",85035,0.2429743856191635,0.771055281162262,0.18734668321881198,205000,https://www.zillow.com/homedetails/2625-N-73rd-Dr-Phoenix-AZ-85035/95093273_zpid/,33.4771,-112.21600000000001,6623,2018-02-18
833315,23884788,"5610 N 38th Dr, Phoenix, AZ 85019 ",85019,0.2429743856191635,0.7710538804531097,0.1873463428823663,180000,https://www.zillow.com/homedetails/5610-N-38th-Dr-Phoenix-AZ-85019/7719600_zpid/,33.5183,-112.14200000000001,6613,2018-02-08
9030878,23910358,"1022 E Villa Theresa Dr, Phoenix, AZ 85022 ",85022,0.24468592554330826,0.7656413912773132,0.1873416724589556,249900,https://www.zillow.com/homedetails/1022-E-Villa-Theresa-Dr-Phoenix-AZ-85022/8002651_zpid/,33.6537,-112.059,6613,2018-02-08
413457,23882770,"6021 W Shangri La Rd, Glendale, AZ 85304 ",85304,0.2429743856191635,0.7710139453411102,0.18733663967306358,229000,https://www.zillow.com/homedetails/6021-W-Shangri-La-Rd-Glendale-AZ-85304/7698519_zpid/,33.586999999999996,-112.189,6616,2018-02-11
436257,23914816,"2352 N 84TH Dr, Phoenix, AZ 85037 ",85037,0.2429743856191635,0.7709956765174866,0.18733220081686763,190000,https://www.zillow.com/homedetails/2352-N-84TH-Dr-Phoenix-AZ-85037/82818698_zpid/,33.4735,-112.241,6640,2018-03-07
252070,23915737,"3728 W Carol Ann Way, Phoenix, AZ 85053 ",85053,0.2429743856191635,0.7709721624851227,0.1873264875093006,198900,https://www.zillow.com/homedetails/3728-W-Carol-Ann-Way-Phoenix-AZ-85053/7945963_zpid/,33.6283,-112.139,6627,2018-02-22
445581,23914884,"4654 N 84TH Ln, Phoenix, AZ 85037 ",85037,0.2429743856191635,0.7709617614746094,0.1873239603301613,199000,https://www.zillow.com/homedetails/4654-N-84TH-Ln-Phoenix-AZ-85037/7481170_zpid/,33.5052,-112.242,6647,2018-03-14
1409638,23920035,"7005 W Cactus Wren Dr, Glendale, AZ 85303 ",85303,0.2429743856191635,0.7709352374076843,0.18731751566129606,230000,https://www.zillow.com/homedetails/7005-W-Cactus-Wren-Dr-Glendale-AZ-85303/55260444_zpid/,33.5388,-112.21,6648,2018-03-15
249685,23929319,"421 E Kerry Ln, Phoenix, AZ 85024 ",85024,0.24468592554330826,0.765485018491745,0.18730341023918906,200000,https://www.zillow.com/homedetails/421-E-Kerry-Ln-Phoenix-AZ-85024/7972492_zpid/,33.6603,-112.069,6649,2018-03-16
353909,23881508,"2219 E Aire Libre Ave, Phoenix, AZ 85022 ",85022,0.24468592554330826,0.7654624879360199,0.18729789732930846,239900,https://www.zillow.com/homedetails/2219-E-Aire-Libre-Ave-Phoenix-AZ-85022/8005158_zpid/,33.637,-112.03399999999999,6620,2018-02-15
1665023,23923218,"17403 N Hitching Post Dr, Sun City, AZ 85373 ",85373,0.2429743856191635,0.7708183825016022,0.18728912291228417,229000,https://www.zillow.com/homedetails/17403-N-Hitching-Post-Dr-Sun-City-AZ-85373/7898070_zpid/,33.6412,-112.266,6646,2018-03-13
426687,23866512,"4834 N 81st Dr, Phoenix, AZ 85033 ",85033,0.2429743856191635,0.7708112001419067,0.18728737778284987,174900,https://www.zillow.com/homedetails/4834-N-81st-Dr-Phoenix-AZ-85033/7482505_zpid/,33.5079,-112.235,6586,2018-01-12
355451,23891815,"414 E Danbury Rd, Phoenix, AZ 85022 ",85022,0.24468592554330826,0.7653612494468689,0.18727312569588994,179900,https://www.zillow.com/homedetails/414-E-Danbury-Rd-Phoenix-AZ-85022/7959485_zpid/,33.6425,-112.068,6627,2018-02-22
400927,23919688,"11014 N 59TH Ln, Glendale, AZ 85304 ",85304,0.2429743856191635,0.7707306444644928,0.18726780481662209,235000,https://www.zillow.com/homedetails/11014-N-59TH-Ln-Glendale-AZ-85304/7698599_zpid/,33.5861,-112.18799999999999,6634,2018-03-01
426202,23889384,"4309 N 82nd Dr, Phoenix, AZ 85033 ",85033,0.2429743856191635,0.7707104384899139,0.18726289528236295,189900,https://www.zillow.com/homedetails/4309-N-82nd-Dr-Phoenix-AZ-85033/2091011523_zpid/,33.4983,-112.23700000000001,6624,2018-02-19
447841,23877841,"8329 W Mulberry Dr, Phoenix, AZ 85037 ",85037,0.2429743856191635,0.7705317437648773,0.1872194770413338,175000,https://www.zillow.com/homedetails/8329-W-Mulberry-Dr-Phoenix-AZ-85037/7470394_zpid/,33.486,-112.23899999999999,6597,2018-01-23
459358,23891941,"5643 W Earll Dr, Phoenix, AZ 85031 ",85031,0.2429743856191635,0.7705031037330627,0.18721251824719953,175900,https://www.zillow.com/homedetails/5643-W-Earll-Dr-Phoenix-AZ-85031/7497770_zpid/,33.4843,-112.182,6627,2018-02-22
1416563,23872427,"7608 W Peck Dr, Glendale, AZ 85303 ",85303,0.2429743856191635,0.7704333364963531,0.18719556659572367,249900,https://www.zillow.com/homedetails/7608-W-Peck-Dr-Glendale-AZ-85303/95094058_zpid/,33.5268,-112.22399999999999,6605,2018-01-31
450364,23891932,"8721 W Virginia Ave, Phoenix, AZ 85037 ",85037,0.2429743856191635,0.7704143524169922,0.1871909539507044,189000,https://www.zillow.com/homedetails/8721-W-Virginia-Ave-Phoenix-AZ-85037/7473685_zpid/,33.4763,-112.24799999999999,6627,2018-02-22
9031425,23913807,"19424 N 84TH Ave, Peoria, AZ 85382 ",85382,0.2429743856191635,0.7704140245914459,0.1871908742974937,235900,https://www.zillow.com/homedetails/19424-N-84TH-Ave-Peoria-AZ-85382/8102096_zpid/,33.6609,-112.24,6650,2018-03-17
9015636,23887124,"7118 W Sells Dr, Phoenix, AZ 85033 ",85033,0.2429743856191635,0.7703683972358704,0.1871797880188053,175000,https://www.zillow.com/homedetails/7118-W-Sells-Dr-Phoenix-AZ-85033/88889219_zpid/,33.5022,-112.213,6620,2018-02-15
466959,23884499,"3101 W Mclellan Blvd, Phoenix, AZ 85017 ",85017,0.24468592554330826,0.7649778425693512,0.18717931142920485,209000,https://www.zillow.com/homedetails/3101-W-Mclellan-Blvd-Phoenix-AZ-85017/7759409_zpid/,33.5325,-112.126,6617,2018-02-12
415221,23919702,"10031 N 65TH Ln, Glendale, AZ 85302 ",85302,0.2429743856191635,0.7703635394573212,0.18717860770304684,195000,https://www.zillow.com/homedetails/10031-N-65TH-Ln-Glendale-AZ-85302/7706565_zpid/,33.5772,-112.2,6633,2018-02-28
1414927,23883462,"7413 N 67TH Dr, Glendale, AZ 85303 ",85303,0.2429743856191635,0.7702995240688324,0.1871630536033586,235000,https://www.zillow.com/homedetails/7413-N-67TH-Dr-Glendale-AZ-85303/7705033_zpid/,33.5447,-112.20299999999999,6611,2018-02-06
1672223,23923282,"9506 W Appaloosa Dr, Sun City, AZ 85373 ",85373,0.2429743856191635,0.7702813744544983,0.18715864371196655,194900,https://www.zillow.com/homedetails/9506-W-Appaloosa-Dr-Sun-City-AZ-85373/8095180_zpid/,33.6452,-112.26700000000001,6649,2018-03-16
703769,23889330,"736 S Sycamore, Mesa, AZ 85202 ",85202,0.24468592554330826,0.7648802697658539,0.18715543673747326,239900,https://www.zillow.com/homedetails/736-S-Sycamore-Mesa-AZ-85202/7604484_zpid/,33.4012,-111.87,6624,2018-02-19
1414034,23890084,"7334 W Lamar Rd, Glendale, AZ 85303 ",85303,0.2429743856191635,0.7702428698539734,0.1871492880803105,226000,https://www.zillow.com/homedetails/7334-W-Lamar-Rd-Glendale-AZ-85303/50188064_zpid/,33.5354,-112.21799999999999,6625,2018-02-20
1406510,23868833,"6760 N 77th Ave, Glendale, AZ 85303 ",85303,0.2429743856191635,0.7702402472496033,0.18714865085462495,195000,https://www.zillow.com/homedetails/6760-N-77th-Ave-Glendale-AZ-85303/7463200_zpid/,33.5359,-112.225,6593,2018-01-19
225581,23892054,"14649 N 35TH Dr, Phoenix, AZ 85053 ",85053,0.24468592554330826,0.764843225479126,0.18714637252188915,235000,https://www.zillow.com/homedetails/14649-N-35TH-Dr-Phoenix-AZ-85053/7944244_zpid/,33.6202,-112.134,6627,2018-02-22
9020875,23879906,"319 W Utopia Rd, Phoenix, AZ 85027 ",85027,0.24468592554330826,0.7647191286087036,0.18711600776429282,229000,https://www.zillow.com/homedetails/319-W-Utopia-Rd-Phoenix-AZ-85027/7968688_zpid/,33.6617,-112.079,6619,2018-02-14
9030014,23905762,"7436 W Sanna St, Peoria, AZ 85345 ",85345,0.2429743856191635,0.7700843214988708,0.18711076489113854,214997,https://www.zillow.com/homedetails/7436-W-Sanna-St-Peoria-AZ-85345/7702407_zpid/,33.5693,-112.21600000000001,6596,2018-01-22
433137,23872612,"7225 W Catalina Dr, Phoenix, AZ 85033 ",85033,0.2429743856191635,0.7700549364089966,0.18710362506697997,180000,https://www.zillow.com/homedetails/7225-W-Catalina-Dr-Phoenix-AZ-85033/7468501_zpid/,33.4819,-112.215,6603,2018-01-29
9029913,23905293,"19019 N 83rd Ln, Peoria, AZ 85382 ",85382,0.2429743856191635,0.7697849273681641,0.18703801978617207,249900,https://www.zillow.com/homedetails/19019-N-83rd-Ln-Peoria-AZ-85382/8101939_zpid/,33.6584,-112.23899999999999,6605,2018-01-31
435409,23915054,"7910 W Catalina Dr, Phoenix, AZ 85033 ",85033,0.2429743856191635,0.7697288393974304,0.18702439184594244,217000,https://www.zillow.com/homedetails/7910-W-Catalina-Dr-Phoenix-AZ-85033/7469393_zpid/,33.4815,-112.228,6629,2018-02-24
562277,23912570,"1407 W 7TH Dr, Mesa, AZ 85202 ",85202,0.24468592554330826,0.7642777562141418,0.1870080101514202,199000,https://www.zillow.com/homedetails/1407-W-7TH-Dr-Mesa-AZ-85202/7604609_zpid/,33.4013,-111.86200000000001,6645,2018-03-12
833768,23884876,"6226 N 35th Dr, Phoenix, AZ 85019 ",85019,0.2429743856191635,0.7696461379528046,0.18700429751324465,139650,https://www.zillow.com/homedetails/6226-N-35th-Dr-Phoenix-AZ-85019/7761396_zpid/,33.5286,-112.135,6613,2018-02-08
460994,23890564,"2924 N 53RD Pkwy, Phoenix, AZ 85031 ",85031,0.2429743856191635,0.7696295976638794,0.1870002786467051,174500,https://www.zillow.com/homedetails/2924-N-53RD-Pkwy-Phoenix-AZ-85031/7497218_zpid/,33.4826,-112.176,6626,2018-02-21
7542144,23891819,"4205 W Rockwood Dr, Glendale, AZ 85308 ",85308,0.2429743856191635,0.7695957124233246,0.18699204540119974,219900,https://www.zillow.com/homedetails/4205-W-Rockwood-Dr-Glendale-AZ-85308/7935978_zpid/,33.6561,-112.149,6627,2018-02-22
9031587,23914701,"9318 W Brown St, Peoria, AZ 85345 ",85345,0.2429743856191635,0.7695918679237366,0.18699111128627433,219900,https://www.zillow.com/homedetails/9318-W-Brown-St-Peoria-AZ-85345/7697571_zpid/,33.5757,-112.26100000000001,6635,2018-03-02
9029592,23909195,"422 W Maryland Ave, Phoenix, AZ 85013 ",85013,0.24468592554330826,0.7641965448856354,0.18698813888234,179900,https://www.zillow.com/homedetails/422-W-Maryland-Ave-Phoenix-AZ-85013/2091142478_zpid/,33.5312,-112.08,6614,2018-02-09
9032286,23920168,"7114 N 72nd Ave, Glendale, AZ 85303 ",85303,0.2429743856191635,0.7695595622062683,0.1869832618244205,215000,https://www.zillow.com/homedetails/7114-N-72nd-Ave-Glendale-AZ-85303/2090897811_zpid/,33.5392,-112.214,6646,2018-03-13
9029976,23905541,"8769 W Grovers Ave, Peoria, AZ 85382 ",85382,0.2429743856191635,0.7695347368717194,0.18697722990401067,189900,https://www.zillow.com/homedetails/8769-W-Grovers-Ave-Peoria-AZ-85382/7898340_zpid/,33.6451,-112.24799999999999,6607,2018-02-02
254794,23872042,"306 W Kings Ave, Phoenix, AZ 85023 ",85023,0.24468592554330826,0.7641021907329559,0.18696505174916278,219900,https://www.zillow.com/homedetails/306-W-Kings-Ave-Phoenix-AZ-85023/7965343_zpid/,33.6358,-112.079,6603,2018-01-29
9033271,23930083,"1929 N Iowa St, Chandler, AZ 85225 ",85225,0.24468592554330826,0.7640805840492249,0.18695976489775612,223000,https://www.zillow.com/homedetails/1929-N-Iowa-St-Chandler-AZ-85225/8182706_zpid/,33.3324,-111.85,6654,2018-03-21
465377,23887474,"2933 W Citrus Way, Phoenix, AZ 85017 ",85017,0.24468592554330826,0.7640787959098816,0.1869593273652259,179900,https://www.zillow.com/homedetails/2933-W-Citrus-Way-Phoenix-AZ-85017/7761075_zpid/,33.5298,-112.12299999999999,6621,2018-02-16
1090009,23867209,"615 W Dublin St, Chandler, AZ 85225 ",85225,0.24468592554330826,0.7638963758945465,0.18691469175493602,247000,https://www.zillow.com/homedetails/615-W-Dublin-St-Chandler-AZ-85225/8189370_zpid/,33.3189,-111.851,6586,2018-01-12
451876,23881479,"8821 W Columbus Ave, Phoenix, AZ 85037 ",85037,0.2429743856191635,0.7692588269710541,0.18691019086541028,174000,https://www.zillow.com/homedetails/8821-W-Columbus-Ave-Phoenix-AZ-85037/7470735_zpid/,33.4888,-112.249,6620,2018-02-15
9031657,23915259,"1122 E Villa Theresa Dr, Phoenix, AZ 85022 ",85022,0.24468592554330826,0.7638538181781769,0.1869042784807171,247500,https://www.zillow.com/homedetails/1122-E-Villa-Theresa-Dr-Phoenix-AZ-85022/8002659_zpid/,33.6538,-112.057,6648,2018-03-15
139797,23885684,"9630 W Willowbrook Dr, Sun City, AZ 85373 ",85373,0.2429743856191635,0.7691958844661713,0.18689489744895704,185900,https://www.zillow.com/homedetails/9630-W-Willowbrook-Dr-Sun-City-AZ-85373/7897569_zpid/,33.6507,-112.26899999999999,6605,2018-01-31
9019297,23887452,"3343 W Seldon Ln, Phoenix, AZ 85051 ",85051,0.24468592554330826,0.7637580037117004,0.18688083402930689,194900,https://www.zillow.com/homedetails/3343-W-Seldon-Ln-Phoenix-AZ-85051/7753876_zpid/,33.5611,-112.132,6621,2018-02-16
443817,23887960,"4318 N 85TH Ave, Phoenix, AZ 85037 ",85037,0.2429743856191635,0.769065260887146,0.186863159265096,184900,https://www.zillow.com/homedetails/4318-N-85TH-Ave-Phoenix-AZ-85037/7466861_zpid/,33.4987,-112.243,6621,2018-02-16
7436448,23881415,"757 E Rosemonte Dr, Phoenix, AZ 85024 ",85024,0.24468592554330826,0.7636780738830566,0.18686127632520666,245900,https://www.zillow.com/homedetails/757-E-Rosemonte-Dr-Phoenix-AZ-85024/7997447_zpid/,33.6568,-112.06299999999999,6596,2018-01-22
9031551,23914472,"8539 W Shaw Butte Dr, Peoria, AZ 85345 ",85345,0.2429743856191635,0.7690557241439819,0.1868608420807849,248000,https://www.zillow.com/homedetails/8539-W-Shaw-Butte-Dr-Peoria-AZ-85345/7685410_zpid/,33.5947,-112.243,6631,2018-02-26
337551,23882064,"2301 W Orchid Ln, Phoenix, AZ 85021 ",85021,0.24468592554330826,0.7636433243751526,0.18685277360970298,199000,https://www.zillow.com/homedetails/2301-W-Orchid-Ln-Phoenix-AZ-85021/7782329_zpid/,33.5623,-112.109,6616,2018-02-11
415739,23919682,"10452 N 63RD Dr, Glendale, AZ 85302 ",85302,0.2429743856191635,0.7689907252788544,0.1868450490214646,189900,https://www.zillow.com/homedetails/10452-N-63RD-Dr-Glendale-AZ-85302/7705971_zpid/,33.5815,-112.196,6635,2018-03-02
9021871,23872703,"12120 N 89th Dr, Peoria, AZ 85345 ",85345,0.2429743856191635,0.7689261734485626,0.18682936458015886,239900,https://www.zillow.com/homedetails/12120-N-89th-Dr-Peoria-AZ-85345/7685583_zpid/,33.5947,-112.25200000000001,6606,2018-02-01
500715,23888248,"7341 W Cypress St, Phoenix, AZ 85035 ",85035,0.2429743856191635,0.7687585055828094,0.1867886255834894,172000,https://www.zillow.com/homedetails/7341-W-Cypress-St-Phoenix-AZ-85035/7474860_zpid/,33.472,-112.21799999999999,6622,2018-02-17
232639,23915245,"18011 N 33RD Dr, Phoenix, AZ 85053 ",85053,0.24468592554330826,0.7633779644966125,0.18678784378222035,199000,https://www.zillow.com/homedetails/18011-N-33RD-Dr-Phoenix-AZ-85053/7941273_zpid/,33.6496,-112.131,6628,2018-02-23
9029821,23904953,"8011 N 87th Dr, Peoria, AZ 85345 ",85345,0.2429743856191635,0.768691211938858,0.18677227495169424,214900,https://www.zillow.com/homedetails/8011-N-87th-Dr-Peoria-AZ-85345/50187488_zpid/,33.5525,-112.24700000000001,6614,2018-02-09
1410407,23890694,"7080 W Glenn Dr, Glendale, AZ 85303 ",85303,0.2429743856191635,0.7686604559421539,0.18676480203229096,234650,https://www.zillow.com/homedetails/7080-W-Glenn-Dr-Glendale-AZ-85303/55173602_zpid/,33.5399,-112.211,6626,2018-02-21
9023485,23885685,"9509 W Greenway Rd, Sun City, AZ 85351 ",85351,0.2429743856191635,0.7686501145362854,0.1867622893355536,224900,https://www.zillow.com/homedetails/9509-W-Greenway-Rd-Sun-City-AZ-85351/7921752_zpid/,33.6226,-112.264,6614,2018-02-09
258336,23929325,"520 W Oraibi Dr, Phoenix, AZ 85027 ",85027,0.24468592554330826,0.7632308900356293,0.18675185673161088,204500,https://www.zillow.com/homedetails/520-W-Oraibi-Dr-Phoenix-AZ-85027/7968150_zpid/,33.6637,-112.08200000000001,6646,2018-03-13
9030011,23905769,"9138 W Kimberly Way, Peoria, AZ 85382 ",85382,0.2429743856191635,0.7686018347740173,0.1867505585899787,239900,https://www.zillow.com/homedetails/9138-W-Kimberly-Way-Peoria-AZ-85382/7896528_zpid/,33.6559,-112.257,6600,2018-01-26
9031395,23913606,"11812 N 76TH Ln, Peoria, AZ 85345 ",85345,0.2429743856191635,0.7685792148113251,0.1867450625184408,195000,https://www.zillow.com/homedetails/11812-N-76TH-Ln-Peoria-AZ-85345/7680546_zpid/,33.5924,-112.22399999999999,6647,2018-03-14
448086,23915005,"8340 W Glenrosa Ave, Phoenix, AZ 85037 ",85037,0.2429743856191635,0.7685466408729553,0.18673714788577822,178000,https://www.zillow.com/homedetails/8340-W-Glenrosa-Ave-Phoenix-AZ-85037/7466807_zpid/,33.4982,-112.24,6648,2018-03-15
9029584,23903830,"6226 N 35TH Ave, Phoenix, AZ 85017 ",85017,0.2429743856191635,0.7685368955135345,0.18673478001306032,139650,https://www.zillow.com/homedetails/6226-N-35TH-Ave-Phoenix-AZ-85017/7761396_zpid/,33.5286,-112.135,6613,2018-02-08
1419842,23883468,"7842 W Fleetwood Ln, Glendale, AZ 85303 ",85303,0.2429743856191635,0.7685285806655884,0.18673275971798908,217500,https://www.zillow.com/homedetails/7842-W-Fleetwood-Ln-Glendale-AZ-85303/7462815_zpid/,33.5367,-112.228,6617,2018-02-12
325822,23890673,"1724 W Citrus Way, Phoenix, AZ 85015 ",85015,0.24468592554330826,0.7631340026855469,0.18672814976068253,232900,https://www.zillow.com/homedetails/1724-W-Citrus-Way-Phoenix-AZ-85015/7774020_zpid/,33.5308,-112.096,6626,2018-02-21
222384,23888203,"1010 W Anderson Dr, Phoenix, AZ 85023 ",85023,0.24468592554330826,0.7631048262119293,0.18672101068823133,200000,https://www.zillow.com/homedetails/1010-W-Anderson-Dr-Phoenix-AZ-85023/7963547_zpid/,33.6432,-112.087,6621,2018-02-16
390332,23890671,"4015 W Harmont Dr, Phoenix, AZ 85051 ",85051,0.2429743856191635,0.7684654891490936,0.186717430095531,188000,https://www.zillow.com/homedetails/4015-W-Harmont-Dr-Phoenix-AZ-85051/7753081_zpid/,33.5542,-112.146,6626,2018-02-21
9030034,23905759,"7410 W Sierra St, Peoria, AZ 85345 ",85345,0.2429743856191635,0.7684647440910339,0.18671724906550669,249777,https://www.zillow.com/homedetails/7410-W-Sierra-St-Peoria-AZ-85345/7700341_zpid/,33.5901,-112.219,6599,2018-01-25
9030029,23905726,"8997 W Alda Way, Peoria, AZ 85382 ",85382,0.2429743856191635,0.7684604227542877,0.18671619909136572,249900,https://www.zillow.com/homedetails/8997-W-Alda-Way-Peoria-AZ-85382/61629760_zpid/,33.6511,-112.25299999999999,6603,2018-01-29
452001,23881474,"8826 W Wilshire Dr, Phoenix, AZ 85037 ",85037,0.2429743856191635,0.7684575021266937,0.18671548945367045,187000,https://www.zillow.com/homedetails/8826-W-Wilshire-Dr-Phoenix-AZ-85037/7473924_zpid/,33.475,-112.25,6620,2018-02-15
1672722,23923292,"9625 W Calico Dr, Sun City, AZ 85373 ",85373,0.2429743856191635,0.7684574723243713,0.18671548221246947,210000,https://www.zillow.com/homedetails/9625-W-Calico-Dr-Sun-City-AZ-85373/8095133_zpid/,33.6462,-112.26899999999999,6628,2018-02-23
1960784,23873070,"7424 W Minnezona Ave, Phoenix, AZ 85033 ",85033,0.2429743856191635,0.7684478759765625,0.18671315054575643,170000,https://www.zillow.com/homedetails/7424-W-Minnezona-Ave-Phoenix-AZ-85033/7710976_zpid/,33.5028,-112.219,6607,2018-02-02
423926,23883680,"8921 N 65th Dr, Glendale, AZ 85302 ",85302,0.2429743856191635,0.7684409618377686,0.1867114705871309,228800,https://www.zillow.com/homedetails/8921-N-65th-Dr-Glendale-AZ-85302/50187782_zpid/,33.5665,-112.2,6614,2018-02-09
256906,23870517,"609 W Beverly Ln, Phoenix, AZ 85023 ",85023,0.24468592554330826,0.7630131840705872,0.18669858714605825,219900,https://www.zillow.com/homedetails/609-W-Beverly-Ln-Phoenix-AZ-85023/7965493_zpid/,33.6333,-112.08200000000001,6598,2018-01-24
559473,23891456,"1248 W 6TH Ave, Mesa, AZ 85202 ",85202,0.24468592554330826,0.7630119025707245,0.18669827358107827,169900,https://www.zillow.com/homedetails/1248-W-6th-Ave-Mesa-AZ-85202/7604264_zpid/,33.4037,-111.85799999999999,6618,2018-02-13
9027929,23897509,"3756 E Surrey Ave, Phoenix, AZ 85032 ",85032,0.24468592554330826,0.7629857063293457,0.18669186372951074,234500,https://www.zillow.com/homedetails/3756-E-Surrey-Ave-Phoenix-AZ-85032/7814169_zpid/,33.6058,-112.0,6630,2018-02-25
384329,23890041,"13442 N 16TH Ave, Phoenix, AZ 85029 ",85029,0.24468592554330826,0.7629847824573517,0.1866916376710368,225000,https://www.zillow.com/homedetails/13442-N-16TH-Ave-Phoenix-AZ-85029/7784159_zpid/,33.6098,-112.094,6625,2018-02-20
350516,23914941,"3920 W Lewis Ave, Phoenix, AZ 85009 ",85009,0.2429743856191635,0.7683016955852509,0.18667763245498792,174900,https://www.zillow.com/homedetails/3920-W-Lewis-Ave-Phoenix-AZ-85009/7512548_zpid/,33.4749,-112.14399999999999,6638,2018-03-05
832308,23877784,"4147 W Pinchot Ave, Phoenix, AZ 85019 ",85019,0.2429743856191635,0.7682992815971375,0.18667704591770917,175000,https://www.zillow.com/homedetails/4147-W-Pinchot-Ave-Phoenix-AZ-85019/7509015_zpid/,33.482,-112.149,6604,2018-01-30
423213,23920166,"8553 N 63RD Dr, Glendale, AZ 85302 ",85302,0.2429743856191635,0.7682830691337585,0.1866731067043803,222000,https://www.zillow.com/homedetails/8553-N-63RD-Dr-Glendale-AZ-85302/81980207_zpid/,33.5622,-112.195,6646,2018-03-13
485999,23881464,"4650 W Hubbell St, Phoenix, AZ 85035 ",85035,0.2429743856191635,0.7682550549507141,0.18666629997546647,173000,https://www.zillow.com/homedetails/4650-W-Hubbell-St-Phoenix-AZ-85035/7494965_zpid/,33.4703,-112.16,6620,2018-02-15
248255,23888413,"3449 W Crocus Dr, Phoenix, AZ 85053 ",85053,0.24468592554330826,0.7628297209739685,0.18665369630845907,239000,https://www.zillow.com/homedetails/3449-W-Crocus-Dr-Phoenix-AZ-85053/7943454_zpid/,33.615,-112.133,6621,2018-02-16
9028443,23899268,"3147 N Bentrup Cir, Chandler, AZ 85224 ",85224,0.24468592554330826,0.762814849615097,0.18665005749624952,249900,https://www.zillow.com/homedetails/3147-N-Bentrup-Cir-Chandler-AZ-85224/8171571_zpid/,33.3509,-111.891,6633,2018-02-28
460884,23891543,"2908 N 53RD Pkwy, Phoenix, AZ 85031 ",85031,0.2429743856191635,0.768188089132309,0.186650028996882,171900,https://www.zillow.com/homedetails/2908-N-53rd-Pkwy-Phoenix-AZ-85031/7497221_zpid/,33.4825,-112.177,6621,2018-02-16
9024755,23914845,"3026 N 75TH Dr, Phoenix, AZ 85033 ",85033,0.2429743856191635,0.7681872546672821,0.18664982624325477,174000,https://www.zillow.com/homedetails/3026-N-75TH-Dr-Phoenix-AZ-85033/7469531_zpid/,33.4832,-112.221,6629,2018-02-24
1414408,23870613,"7359 N 70th Ave, Glendale, AZ 85303 ",85303,0.2429743856191635,0.7681580483913422,0.18664272986630204,174900,https://www.zillow.com/homedetails/7359-N-70th-Ave-Glendale-AZ-85303/7704942_zpid/,33.5441,-112.21,6598,2018-01-24
1348426,23873785,"5406 W Sands Rd, Glendale, AZ 85301 ",85301,0.2429743856191635,0.7681465446949005,0.18663993476272678,205000,https://www.zillow.com/homedetails/5406-W-Sands-Rd-Glendale-AZ-85301/7726252_zpid/,33.5525,-112.17399999999999,6607,2018-02-02
9029588,23903860,"2206 W Dahlia Dr, Phoenix, AZ 85029 ",85029,0.24468592554330826,0.7627436518669128,0.18663263640933847,239900,https://www.zillow.com/homedetails/2206-W-Dahlia-Dr-Phoenix-AZ-85029/7738947_zpid/,33.6035,-112.10600000000001,6622,2018-02-17
477598,23914855,"1641 N 72ND Ln, Phoenix, AZ 85035 ",85035,0.2429743856191635,0.7681140303611755,0.18663203461246614,173000,https://www.zillow.com/homedetails/1641-N-72ND-Ln-Phoenix-AZ-85035/7475213_zpid/,33.4673,-112.215,6642,2018-03-09
434384,23888835,"7629 W Flower St, Phoenix, AZ 85033 ",85033,0.2429743856191635,0.7680486142635345,0.1866161401763322,175900,https://www.zillow.com/homedetails/7629-W-Flower-St-Phoenix-AZ-85033/7469131_zpid/,33.4849,-112.22399999999999,6623,2018-02-18
418482,23919845,"5133 W Purdue Ave, Glendale, AZ 85302 ",85302,0.2429743856191635,0.7679658234119415,0.1865960241200315,229900,https://www.zillow.com/homedetails/5133-W-Purdue-Ave-Glendale-AZ-85302/7734426_zpid/,33.5739,-112.171,6644,2018-03-11
261169,23890427,"4527 W Oraibi Dr, Glendale, AZ 85308 ",85308,0.2429743856191635,0.7679505050182343,0.18659230214273181,249000,https://www.zillow.com/homedetails/4527-W-Oraibi-Dr-Glendale-AZ-85308/7937923_zpid/,33.6626,-112.15799999999999,6626,2018-02-21
425872,23889873,"4041 N 80TH Dr, Phoenix, AZ 85033 ",85033,0.2429743856191635,0.7679102420806885,0.1865825192802184,180000,https://www.zillow.com/homedetails/4041-N-80TH-Dr-Phoenix-AZ-85033/7478679_zpid/,33.4931,-112.23200000000001,6625,2018-02-20
440692,23880113,"2509 N 90th Ln, Phoenix, AZ 85037 ",85037,0.2429743856191635,0.7678930163383484,0.1865783338660565,205000,https://www.zillow.com/homedetails/2509-N-90th-Ln-Phoenix-AZ-85037/7473832_zpid/,33.4751,-112.25399999999999,6620,2018-02-15
233032,23915285,"18202 N 29TH Ave, Phoenix, AZ 85053 ",85053,0.24468592554330826,0.7625120282173157,0.18657596136225907,209900,https://www.zillow.com/homedetails/18202-N-29TH-Ave-Phoenix-AZ-85053/7941101_zpid/,33.6512,-112.12100000000001,6641,2018-03-08
9026617,23892844,"9537 W Briarwood Cir N, Sun City, AZ 85351 ",85351,0.2429743856191635,0.7678665518760681,0.1865719036795932,249000,https://www.zillow.com/homedetails/9537-W-Briarwood-Cir-N-Sun-City-AZ-85351/7904972_zpid/,33.6373,-112.265,6607,2018-02-02
224890,23881220,"1207 W Rose Marie Ln, Phoenix, AZ 85023 ",85023,0.24468592554330826,0.7624683678150177,0.1865652782763132,247500,https://www.zillow.com/homedetails/1207-W-Rose-Marie-Ln-Phoenix-AZ-85023/7957073_zpid/,33.6521,-112.089,6613,2018-02-08
420581,23882618,"5810 W Alice Ave, Glendale, AZ 85302 ",85302,0.2429743856191635,0.7677845060825348,0.1865519686533168,234500,https://www.zillow.com/homedetails/5810-W-Alice-Ave-Glendale-AZ-85302/7733216_zpid/,33.5645,-112.185,6590,2018-01-16
423604,23883734,"8812 N 57TH Dr, Glendale, AZ 85302 ",85302,0.2429743856191635,0.7677200138568878,0.18653629869441302,239000,https://www.zillow.com/homedetails/8812-N-57TH-Dr-Glendale-AZ-85302/7733242_zpid/,33.5658,-112.18299999999999,6603,2018-01-29
247401,23887027,"2126 W Le Marche Ave, Phoenix, AZ 85023 ",85023,0.24468592554330826,0.7623320817947388,0.18653193100530263,237000,https://www.zillow.com/homedetails/2126-W-Le-Marche-Ave-Phoenix-AZ-85023/89220582_zpid/,33.632,-112.105,6607,2018-02-02
233975,23881266,"18437 N 33rd Ave, Phoenix, AZ 85053 ",85053,0.24468592554330826,0.7623313963413239,0.18653176328449939,200000,https://www.zillow.com/homedetails/18437-N-33rd-Ave-Phoenix-AZ-85053/7941768_zpid/,33.6542,-112.13,6619,2018-02-14
441376,23881465,"3101 N 89th Ln, Phoenix, AZ 85037 ",85037,0.2429743856191635,0.7676472663879395,0.18651862292283994,189900,https://www.zillow.com/homedetails/3101-N-89th-Ln-Phoenix-AZ-85037/7470193_zpid/,33.4843,-112.25200000000001,6619,2018-02-14
465882,23884480,"3009 W Claremont St, Phoenix, AZ 85017 ",85017,0.24468592554330826,0.7622733414173126,0.18651755806168535,160000,https://www.zillow.com/homedetails/3009-W-Claremont-St-Phoenix-AZ-85017/7761133_zpid/,33.5282,-112.124,6604,2018-01-30
1370392,23883185,"6654 N 84TH Ln, Glendale, AZ 85305 ",85305,0.2429743856191635,0.7676352858543396,0.18651571196004912,220000,https://www.zillow.com/homedetails/6654-N-84TH-Ln-Glendale-AZ-85305/7461308_zpid/,33.5331,-112.24,6604,2018-01-30
9024363,23888231,"3147 N 77TH Ln, Phoenix, AZ 85033 ",85033,0.2429743856191635,0.7675885558128357,0.18650435775692475,197900,https://www.zillow.com/homedetails/3147-N-77TH-Ln-Phoenix-AZ-85033/7469330_zpid/,33.4853,-112.226,6621,2018-02-16
9032613,23923301,"9432 W Newport Dr, Sun City, AZ 85351 ",85351,0.2429743856191635,0.767570972442627,0.18650008544835117,189900,https://www.zillow.com/homedetails/9432-W-Newport-Dr-Sun-City-AZ-85351/7921887_zpid/,33.6202,-112.262,6647,2018-03-14
238572,23915526,"3021 W Bluefield Ave, Phoenix, AZ 85053 ",85053,0.24468592554330826,0.7621641457080841,0.18649083940850741,214900,https://www.zillow.com/homedetails/3021-W-Bluefield-Ave-Phoenix-AZ-85053/7940618_zpid/,33.6523,-112.125,6645,2018-03-12
441928,23877749,"4010 N 89th Ave, Phoenix, AZ 85037 ",85037,0.2429743856191635,0.7675248384475708,0.18648887606924625,200000,https://www.zillow.com/homedetails/4010-N-89th-Ave-Phoenix-AZ-85037/7470903_zpid/,33.4927,-112.251,6608,2018-02-03
9025872,23872342,"15168 N 90TH Ln, Peoria, AZ 85381 ",85381,0.2429743856191635,0.7674939036369324,0.18648135970263713,213700,https://www.zillow.com/homedetails/15168-N-90th-Ln-Peoria-AZ-85381/7908827_zpid/,33.6229,-112.25399999999999,6605,2018-01-31
441758,23877763,"3636 N 86th Ln, Phoenix, AZ 85037 ",85037,0.2429743856191635,0.767474889755249,0.18647673981641688,189800,https://www.zillow.com/homedetails/3636-N-86th-Ln-Phoenix-AZ-85037/7469813_zpid/,33.4903,-112.24600000000001,6618,2018-02-13
415150,23919739,"10021 N 53RD Ave, Glendale, AZ 85302 ",85302,0.2429743856191635,0.7674282193183899,0.18646540009569446,238900,https://www.zillow.com/homedetails/10021-N-53RD-Ave-Glendale-AZ-85302/7735790_zpid/,33.5774,-112.17299999999999,6631,2018-02-26
9032295,23920220,"8810 N 69TH Dr, Peoria, AZ 85345 ",85345,0.2429743856191635,0.767418384552002,0.18646301049937364,229900,https://www.zillow.com/homedetails/8810-N-69TH-Dr-Peoria-AZ-85345/50187886_zpid/,33.5654,-112.208,6649,2018-03-16
9032611,23923305,"9319 W Arrowhead Dr, Sun City, AZ 85351 ",85351,0.2429743856191635,0.7673732340335846,0.1864520400799008,163000,https://www.zillow.com/homedetails/9319-W-Arrowhead-Dr-Sun-City-AZ-85351/7908165_zpid/,33.6099,-112.26,6638,2018-03-05
448895,23877911,"8453 W Piccadilly Rd, Phoenix, AZ 85037 ",85037,0.2429743856191635,0.7673501968383789,0.1864464426315493,187000,https://www.zillow.com/homedetails/8453-W-Piccadilly-Rd-Phoenix-AZ-85037/7469708_zpid/,33.4921,-112.242,6604,2018-01-30
8989493,23890965,"3646 N 79TH Dr, Phoenix, AZ 85033 ",85033,0.2429743856191635,0.7673279345035553,0.1864410334544231,169900,https://www.zillow.com/homedetails/3646-N-79th-Dr-Phoenix-AZ-85033/7478627_zpid/,33.4902,-112.23100000000001,6625,2018-02-20
398745,23882226,"4235 W Mescal St, Phoenix, AZ 85029 ",85029,0.2429743856191635,0.7673235535621643,0.18643996899788018,178000,https://www.zillow.com/homedetails/4235-W-Mescal-St-Phoenix-AZ-85029/7744613_zpid/,33.5861,-112.15100000000001,6614,2018-02-09
9029087,23901717,"6915 W Jenan Dr, Peoria, AZ 85345 ",85345,0.2429743856191635,0.7673172056674957,0.1864384266220731,203000,https://www.zillow.com/homedetails/6915-W-Jenan-Dr-Peoria-AZ-85345/7699796_zpid/,33.5918,-112.208,6620,2018-02-15
1666111,23885649,"17610 N Palo Verde Dr, Sun City, AZ 85373 ",85373,0.2429743856191635,0.7672742009162903,0.18642797756907026,210000,https://www.zillow.com/homedetails/17610-N-Palo-Verde-Dr-Sun-City-AZ-85373/8095261_zpid/,33.6443,-112.273,6613,2018-02-08
9032612,23923307,"9410 W Raintree Dr, Sun City, AZ 85351 ",85351,0.2429743856191635,0.7672460675239563,0.18642114187535253,194500,https://www.zillow.com/homedetails/9410-W-Raintree-Dr-Sun-City-AZ-85351/7922067_zpid/,33.6169,-112.26100000000001,6648,2018-03-15
445830,23877779,"4710 N 84th Ln, Phoenix, AZ 85037 ",85037,0.2429743856191635,0.7671869397163391,0.18640677533262373,175000,https://www.zillow.com/homedetails/4710-N-84th-Ln-Phoenix-AZ-85037/7481167_zpid/,33.5057,-112.242,6594,2018-01-20
837022,23871277,"5743 N 38th Dr, Phoenix, AZ 85019 ",85019,0.2429743856191635,0.7671824097633362,0.18640567467007596,187900,https://www.zillow.com/homedetails/5743-N-38th-Dr-Phoenix-AZ-85019/7719105_zpid/,33.5219,-112.141,6601,2018-01-27
9029776,23905062,"7441 W Eva St, Peoria, AZ 85345 ",85345,0.2429743856191635,0.7671050727367401,0.18638688375355317,246800,https://www.zillow.com/homedetails/7441-W-Eva-St-Peoria-AZ-85345/7702466_zpid/,33.5683,-112.219,6615,2018-02-10
452004,23877894,"8827 W Columbus Ave, Phoenix, AZ 85037 ",85037,0.2429743856191635,0.7670149207115173,0.18636497912061234,215000,https://www.zillow.com/homedetails/8827-W-Columbus-Ave-Phoenix-AZ-85037/7470617_zpid/,33.4888,-112.25,6619,2018-02-14
351665,23889721,"6616 W Johnson St, Phoenix, AZ 85043 ",85043,0.2429743856191635,0.7669703662395477,0.18635415352515894,180000,https://www.zillow.com/homedetails/6616-W-Johnson-St-Phoenix-AZ-85043/67788378_zpid/,33.4544,-112.20200000000001,6625,2018-02-20
9025669,23888926,"3607 W Mclellan Blvd, Phoenix, AZ 85019 ",85019,0.2429743856191635,0.7669646143913269,0.1863527559733713,174000,https://www.zillow.com/homedetails/3607-W-Mclellan-Blvd-Phoenix-AZ-85019/7761699_zpid/,33.5325,-112.137,6617,2018-02-12
9031429,23913826,"19833 N 90TH Ave, Peoria, AZ 85382 ",85382,0.2429743856191635,0.7669351398944855,0.18634559442560983,229000,https://www.zillow.com/homedetails/19833-N-90TH-Ave-Peoria-AZ-85382/8101637_zpid/,33.6645,-112.251,6633,2018-02-28
1958850,23885690,"9924 W Camden Ave, Sun City, AZ 85351 ",85351,0.2429743856191635,0.766934335231781,0.18634539891318358,200000,https://www.zillow.com/homedetails/9924-W-Camden-Ave-Sun-City-AZ-85351/7688651_zpid/,33.5766,-112.274,6616,2018-02-11
523366,23877920,"9026 W Windsor Ave, Phoenix, AZ 85037 ",85037,0.2429743856191635,0.7669204771518707,0.18634203175473152,191000,https://www.zillow.com/homedetails/9026-W-Windsor-Ave-Phoenix-AZ-85037/7474171_zpid/,33.4766,-112.255,6606,2018-02-01
450213,23877909,"8705 W Palm Ln, Phoenix, AZ 85037 ",85037,0.2429743856191635,0.7669191062450409,0.1863416986594868,199900,https://www.zillow.com/homedetails/8705-W-Palm-Ln-Phoenix-AZ-85037/7487495_zpid/,33.4682,-112.24799999999999,6593,2018-01-19
417983,23889534,"4933 W Golden Ln, Glendale, AZ 85302 ",85302,0.2429743856191635,0.7669149041175842,0.18634067765014972,200000,https://www.zillow.com/homedetails/4933-W-Golden-Ln-Glendale-AZ-85302/7730593_zpid/,33.5645,-112.166,6623,2018-02-18
9030778,23911308,"4941 W Townley Ave, Glendale, AZ 85302 ",85302,0.2429743856191635,0.7668860256671906,0.18633366092640768,200000,https://www.zillow.com/homedetails/4941-W-Townley-Ave-Glendale-AZ-85302/7730613_zpid/,33.5647,-112.167,6613,2018-02-08
9026847,23923191,"13806 N 98TH Ave, Sun City, AZ 85351 ",85351,0.2429743856191635,0.7668613195419312,0.18632765797080175,225000,https://www.zillow.com/homedetails/13806-N-98TH-Ave-Sun-City-AZ-85351/7908094_zpid/,33.6102,-112.265,6632,2018-02-27
623384,23877222,"1441 S Revere, Mesa, AZ 85210 ",85210,0.24468592554330826,0.7614937126636505,0.18632679387851536,175000,https://www.zillow.com/homedetails/1441-S-Revere-Mesa-AZ-85210/7599342_zpid/,33.3886,-111.84700000000001,6618,2018-02-13
232284,23891805,"17842 N 34TH Dr, Phoenix, AZ 85053 ",85053,0.24468592554330826,0.7614664137363434,0.18632011421522088,145000,https://www.zillow.com/homedetails/17842-N-34TH-Dr-Phoenix-AZ-85053/7941332_zpid/,33.6488,-112.133,6627,2018-02-22
9026159,23915759,"4349 W Morrow Dr, Glendale, AZ 85308 ",85308,0.2429743856191635,0.7668061554431915,0.18631425450780226,244900,https://www.zillow.com/homedetails/4349-W-Morrow-Dr-Glendale-AZ-85308/7938792_zpid/,33.6569,-112.154,6641,2018-03-08
9030024,23905709,"7267 W Charter Oak Rd, Peoria, AZ 85381 ",85381,0.2429743856191635,0.7667889297008514,0.18631006909364034,248000,https://www.zillow.com/homedetails/7267-W-Charter-Oak-Rd-Peoria-AZ-85381/7912731_zpid/,33.5972,-112.21600000000001,6614,2018-02-09
242834,23891799,"18213 N 11TH Ave, Phoenix, AZ 85023 ",85023,0.24468592554330826,0.7614117562770844,0.18630674030421424,224900,https://www.zillow.com/homedetails/18213-N-11TH-Ave-Phoenix-AZ-85023/7956722_zpid/,33.6516,-112.087,6627,2018-02-22
9029957,23905476,"6803 W Jenan Dr, Peoria, AZ 85345 ",85345,0.2429743856191635,0.7667679786682129,0.1863049785293569,216000,https://www.zillow.com/homedetails/6803-W-Jenan-Dr-Peoria-AZ-85345/7699810_zpid/,33.5919,-112.205,6605,2018-01-31
242624,23915588,"3202 W Grovers Ave, Phoenix, AZ 85053 ",85053,0.24468592554330826,0.7613934278488159,0.18630225559577962,219900,https://www.zillow.com/homedetails/3202-W-Grovers-Ave-Phoenix-AZ-85053/7941583_zpid/,33.6476,-112.12799999999999,6645,2018-03-12
8966830,23923294,"9525 W Oakstone Dr, Sun City, AZ 85351 ",85351,0.2429743856191635,0.7667413949966431,0.18629851937808972,236500,https://www.zillow.com/homedetails/9525-W-Oakstone-Dr-Sun-City-AZ-85351/7922241_zpid/,33.6159,-112.264,6641,2018-03-08
9029861,23905103,"8642 W Echo Ln, Peoria, AZ 85345 ",85345,0.2429743856191635,0.7667012214660645,0.18628875823917923,185000,https://www.zillow.com/homedetails/8642-W-Echo-Ln-Peoria-AZ-85345/50187500_zpid/,33.5583,-112.24600000000001,6617,2018-02-12
9028885,23901304,"9922 W Desert Rock Dr, Sun City, AZ 85351 ",85351,0.2429743856191635,0.7666109502315521,0.18626682464143451,225000,https://www.zillow.com/homedetails/9922-W-Desert-Rock-Dr-Sun-City-AZ-85351/7923906_zpid/,33.6283,-112.273,6627,2018-02-22
1357833,23920153,"7783 N 58TH Ave, Glendale, AZ 85301 ",85301,0.2429743856191635,0.7665735483169556,0.18625773693421444,219800,https://www.zillow.com/homedetails/7783-N-58TH-Ave-Glendale-AZ-85301/62728699_zpid/,33.5502,-112.18299999999999,6645,2018-03-12
1121899,23885878,"2404 W Chilton St, Chandler, AZ 85224 ",85224,0.24468592554330826,0.7611863911151886,0.18625159662099056,209000,https://www.zillow.com/homedetails/2404-W-Chilton-St-Chandler-AZ-85224/8196978_zpid/,33.3522,-111.884,6608,2018-02-03
9030927,23910921,"2344 W Echo Ln, Phoenix, AZ 85021 ",85021,0.24468592554330826,0.7611444592475891,0.18624133648315722,205000,https://www.zillow.com/homedetails/2344-W-Echo-Ln-Phoenix-AZ-85021/7782743_zpid/,33.5598,-112.11,6608,2018-02-03
520419,23877901,"8922 W Fairmount Ave, Phoenix, AZ 85037 ",85037,0.2429743856191635,0.7664746046066284,0.18623369614698682,190000,https://www.zillow.com/homedetails/8922-W-Fairmount-Ave-Phoenix-AZ-85037/7470814_zpid/,33.4919,-112.25200000000001,6603,2018-01-29
450573,23877887,"8734 W Granada Rd, Phoenix, AZ 85037 ",85037,0.2429743856191635,0.7664545178413391,0.18622881557753157,195000,https://www.zillow.com/homedetails/8734-W-Granada-Rd-Phoenix-AZ-85037/7487516_zpid/,33.4682,-112.249,6597,2018-01-23
9029979,23905545,"6851 W Jenan Dr, Peoria, AZ 85345 ",85345,0.2429743856191635,0.7664446830749512,0.18622642598121075,194900,https://www.zillow.com/homedetails/6851-W-Jenan-Dr-Peoria-AZ-85345/7699802_zpid/,33.5918,-112.20700000000001,6612,2018-02-07
1937199,23887132,"7142 W Westview Dr, Phoenix, AZ 85033 ",85033,0.2429743856191635,0.7664369642734528,0.18622455051015896,174000,https://www.zillow.com/homedetails/7142-W-Westview-Dr-Phoenix-AZ-85033/7711546_zpid/,33.4979,-112.213,6621,2018-02-16
233618,23887001,"18243 N 31st Ave, Phoenix, AZ 85053 ",85053,0.24468592554330826,0.7610468864440918,0.18621746179142562,201592,https://www.zillow.com/homedetails/18243-N-31st-Ave-Phoenix-AZ-85053/7940528_zpid/,33.6526,-112.126,6621,2018-02-16
1415178,23920260,"7431 W Mclellan Rd, Glendale, AZ 85303 ",85303,0.2429743856191635,0.7663868069648743,0.1862123635689228,185000,https://www.zillow.com/homedetails/7431-W-Mclellan-Rd-Glendale-AZ-85303/7706647_zpid/,33.5321,-112.219,6642,2018-03-09
9023070,23870107,"2024 E Villa Theresa Dr, Phoenix, AZ 85022 ",85022,0.24468592554330826,0.7609835863113403,0.1862019731398563,235000,https://www.zillow.com/homedetails/2024-E-Villa-Theresa-Dr-Phoenix-AZ-85022/8000570_zpid/,33.6544,-112.039,6597,2018-01-23
9029804,23904860,"6849 W Yucca St, Peoria, AZ 85345 ",85345,0.2429743856191635,0.7662842571735382,0.18618744659637754,225000,https://www.zillow.com/homedetails/6849-W-Yucca-St-Peoria-AZ-85345/7699653_zpid/,33.5881,-112.20700000000001,6620,2018-02-15
431177,23887130,"6717 W Earll Dr, Phoenix, AZ 85033 ",85033,0.2429743856191635,0.7662675678730011,0.18618339152383312,199900,https://www.zillow.com/homedetails/6717-W-Earll-Dr-Phoenix-AZ-85033/7468542_zpid/,33.4834,-112.204,6621,2018-02-16
1933748,23915060,"7145 W Mulberry Dr, Phoenix, AZ 85033 ",85033,0.2429743856191635,0.7662094533443451,0.18616927118193738,185000,https://www.zillow.com/homedetails/7145-W-Mulberry-Dr-Phoenix-AZ-85033/7485834_zpid/,33.4866,-112.214,6628,2018-02-23
9029938,23905383,"8872 W Cameron Dr, Peoria, AZ 85345 ",85345,0.2429743856191635,0.7662059366703033,0.18616841672022266,249999,https://www.zillow.com/homedetails/8872-W-Cameron-Dr-Peoria-AZ-85345/95166649_zpid/,33.5898,-112.249,6613,2018-02-08
228186,23886962,"15806 N 37TH Dr, Phoenix, AZ 85053 ",85053,0.2429743856191635,0.7661948800086975,0.18616573023466199,234999,https://www.zillow.com/homedetails/15806-N-37TH-Dr-Phoenix-AZ-85053/7945936_zpid/,33.6292,-112.139,6617,2018-02-12
9029736,23904559,"14462 N Lakeforest Dr, Sun City, AZ 85351 ",85351,0.2429743856191635,0.7661691904067993,0.18615948831942397,170000,https://www.zillow.com/homedetails/14462-N-Lakeforest-Dr-Sun-City-AZ-85351/7922311_zpid/,33.6164,-112.26700000000001,6625,2018-02-20
478050,23914790,"1807 N 77TH Dr, Phoenix, AZ 85035 ",85035,0.2429743856191635,0.766144722700119,0.18615354329342582,189900,https://www.zillow.com/homedetails/1807-N-77TH-Dr-Phoenix-AZ-85035/95087672_zpid/,33.4676,-112.225,6646,2018-03-13
9031552,23914473,"8540 W Shaw Butte Dr, Peoria, AZ 85345 ",85345,0.2429743856191635,0.7660911977291107,0.1861405380964798,235000,https://www.zillow.com/homedetails/8540-W-Shaw-Butte-Dr-Peoria-AZ-85345/7685370_zpid/,33.5951,-112.243,6641,2018-03-08
391862,23884713,"4128 W Solar Dr, Phoenix, AZ 85051 ",85051,0.2429743856191635,0.7660160660743713,0.18612228302882894,195000,https://www.zillow.com/homedetails/4128-W-Solar-Dr-Phoenix-AZ-85051/7756636_zpid/,33.54,-112.148,6612,2018-02-07
9004887,23914562,"8900 W Cameron Dr, Peoria, AZ 85345 ",85345,0.2429743856191635,0.7659840285778046,0.18611449873778385,244500,https://www.zillow.com/homedetails/8900-W-Cameron-Dr-Peoria-AZ-85345/95133083_zpid/,33.5906,-112.25,6642,2018-03-09
9031628,23915097,"6608 W Wolf St, Phoenix, AZ 85033 ",85033,0.2429743856191635,0.765899121761322,0.18609386855621413,199000,https://www.zillow.com/homedetails/6608-W-Wolf-St-Phoenix-AZ-85033/7712485_zpid/,33.5077,-112.20200000000001,6639,2018-03-06
413432,23882762,"6016 W Desert Cove Ave, Glendale, AZ 85304 ",85304,0.2429743856191635,0.7658825516700745,0.1860898424484736,206000,https://www.zillow.com/homedetails/6016-W-Desert-Cove-Ave-Glendale-AZ-85304/7698491_zpid/,33.5861,-112.189,6613,2018-02-08
561282,23877184,"1050 W Farmdale Ave, Mesa, AZ 85210 ",85210,0.24468592554330826,0.7605123817920685,0.1860866760259381,195000,https://www.zillow.com/homedetails/1050-W-Farmdale-Ave-Mesa-AZ-85210/7598750_zpid/,33.3962,-111.854,6619,2018-02-14
415173,23882334,"10024 N 65th Ln, Glendale, AZ 85302 ",85302,0.2429743856191635,0.765723466873169,0.18605118891768413,175000,https://www.zillow.com/homedetails/10024-N-65th-Ln-Glendale-AZ-85302/92346658_zpid/,33.577,-112.2,6603,2018-01-29
400129,23873890,"13807 N 52nd Ave, Glendale, AZ 85306 ",85306,0.2429743856191635,0.7656885981559753,0.18604271671254669,214900,https://www.zillow.com/homedetails/13807-N-52nd-Ave-Glendale-AZ-85306/8097449_zpid/,33.6112,-112.171,6612,2018-02-07
9027960,23897448,"2739 E Schiliro Cir, Phoenix, AZ 85032 ",85032,0.24468592554330826,0.7602975368499756,0.1860341064924338,230000,https://www.zillow.com/homedetails/2739-E-Schiliro-Cir-Phoenix-AZ-85032/88787626_zpid/,33.641999999999996,-112.024,6612,2018-02-07
9023484,23885682,"9501 W Hidden Valley Cir N, Sun City, AZ 85351 ",85351,0.2429743856191635,0.7656360268592834,0.18602994323403177,186000,https://www.zillow.com/homedetails/9501-W-Hidden-Valley-Cir-N-Sun-City-AZ-85351/7904887_zpid/,33.6359,-112.264,6620,2018-02-15
1472398,23914717,"9845 W Oraibi Dr, Peoria, AZ 85382 ",85382,0.2429743856191635,0.7656352818012238,0.18602976220400746,249000,https://www.zillow.com/homedetails/9845-W-Oraibi-Dr-Peoria-AZ-85382/7893585_zpid/,33.6613,-112.272,6655,2018-03-22
9026589,23892776,"9818 W Pinecrest Dr, Sun City, AZ 85351 ",85351,0.2429743856191635,0.7655206024646759,0.18600189806266654,184900,https://www.zillow.com/homedetails/9818-W-Pinecrest-Dr-Sun-City-AZ-85351/7923143_zpid/,33.6328,-112.271,6596,2018-01-22
521626,23877921,"8966 W Monterey Way, Phoenix, AZ 85037 ",85037,0.2429743856191635,0.7655043005943298,0.18599793712573476,231900,https://www.zillow.com/homedetails/8966-W-Monterey-Way-Phoenix-AZ-85037/7470170_zpid/,33.485,-112.25399999999999,6607,2018-02-02
440506,23914803,"2405 N 83RD Dr, Phoenix, AZ 85037 ",85037,0.2429743856191635,0.7654842138290405,0.1859930565562795,169900,https://www.zillow.com/homedetails/2405-N-83RD-Dr-Phoenix-AZ-85037/81976574_zpid/,33.4739,-112.238,6643,2018-03-10
9031515,23914288,"7601 W Cheryl Dr, Peoria, AZ 85345 ",85345,0.2429743856191635,0.7654837071895599,0.18599293345586299,217500,https://www.zillow.com/homedetails/7601-W-Cheryl-Dr-Peoria-AZ-85345/7682109_zpid/,33.5774,-112.223,6641,2018-03-08
503933,23877682,"2048 N 74th Ln, Phoenix, AZ 85035 ",85035,0.2429743856191635,0.7654761075973511,0.18599108694961508,184000,https://www.zillow.com/homedetails/2048-N-74th-Ln-Phoenix-AZ-85035/7474844_zpid/,33.4711,-112.22,6615,2018-02-10
9031745,23915938,"754 E Rosemonte Dr, Phoenix, AZ 85024 ",85024,0.24468592554330826,0.7601078152656555,0.1859876842909789,249999,https://www.zillow.com/homedetails/754-E-Rosemonte-Dr-Phoenix-AZ-85024/7997468_zpid/,33.6572,-112.064,6656,2018-03-23
9026823,23923215,"15021 N Bolivar Dr, Sun City, AZ 85351 ",85351,0.2429743856191635,0.7654596567153931,0.18598708980667844,239900,https://www.zillow.com/homedetails/15021-N-Bolivar-Dr-Sun-City-AZ-85351/7908295_zpid/,33.6188,-112.257,6628,2018-02-23
402261,23882349,"14814 N 62nd Ave, Glendale, AZ 85306 ",85306,0.2429743856191635,0.765439361333847,0.1859821585488164,190000,https://www.zillow.com/homedetails/14814-N-62nd-Ave-Glendale-AZ-85306/8098781_zpid/,33.6185,-112.191,6617,2018-02-12
9025869,23913573,"11848 N 79th Dr, Peoria, AZ 85345 ",85345,0.2429743856191635,0.7653992772102356,0.18597241913350882,215000,https://www.zillow.com/homedetails/11848-N-79th-Dr-Peoria-AZ-85345/146039846_zpid/,33.5928,-112.23,6632,2018-02-27
422018,23920001,"6459 W Golden Ln, Glendale, AZ 85302 ",85302,0.2429743856191635,0.7653936445713043,0.18597105054652507,194000,https://www.zillow.com/homedetails/6459-W-Golden-Ln-Glendale-AZ-85302/7704509_zpid/,33.5652,-112.199,6641,2018-03-08
248302,23882154,"3449 W Port Au Prince Ln, Phoenix, AZ 85053 ",85053,0.24468592554330826,0.7600206136703491,0.1859663472879225,169000,https://www.zillow.com/homedetails/3449-W-Port-Au-Prince-Ln-Phoenix-AZ-85053/7943679_zpid/,33.6228,-112.133,6610,2018-02-05
976127,23846057,"734 N Tangerine Dr, Chandler, AZ 85226 ",85226,0.24468592554330826,0.7600186467170715,0.18596586600213927,204900,https://www.zillow.com/homedetails/734-N-Tangerine-Dr-Chandler-AZ-85226/8156625_zpid/,33.3162,-111.928,6544,2017-12-01
389317,23890682,"3910 W Northview Ave, Phoenix, AZ 85051 ",85051,0.2429743856191635,0.7653027176856995,0.18594895764235897,229900,https://www.zillow.com/homedetails/3910-W-Northview-Ave-Phoenix-AZ-85051/7757820_zpid/,33.544000000000004,-112.14299999999999,6626,2018-02-21
9029927,23905344,"11212 N 76th Dr, Peoria, AZ 85345 ",85345,0.2429743856191635,0.7652970850467682,0.18594758905537523,180000,https://www.zillow.com/homedetails/11212-N-76th-Dr-Peoria-AZ-85345/7681911_zpid/,33.5861,-112.22399999999999,6620,2018-02-15
9022517,23872117,"9918 W Oakstone Dr, Sun City, AZ 85351 ",85351,0.2429743856191635,0.7652890086174011,0.18594562668991177,205000,https://www.zillow.com/homedetails/9918-W-Oakstone-Dr-Sun-City-AZ-85351/7907984_zpid/,33.6152,-112.26899999999999,6603,2018-01-29
259107,23915301,"18839 N 45TH Ave, Glendale, AZ 85308 ",85308,0.2429743856191635,0.765272706747055,0.18594166575298,198000,https://www.zillow.com/homedetails/18839-N-45TH-Ave-Glendale-AZ-85308/7938698_zpid/,33.6576,-112.15700000000001,6628,2018-02-23
389835,23892101,"3938 W Northview Ave, Phoenix, AZ 85051 ",85051,0.2429743856191635,0.7652296721935272,0.18593120945877617,214000,https://www.zillow.com/homedetails/3938-W-Northview-Ave-Phoenix-AZ-85051/7757823_zpid/,33.5443,-112.14399999999999,6627,2018-02-22
483772,23877702,"2643 N 45TH Dr, Phoenix, AZ 85035 ",85035,0.2429743856191635,0.7652234435081482,0.18592969604777299,170000,https://www.zillow.com/homedetails/2643-N-45TH-Dr-Phoenix-AZ-85035/7499311_zpid/,33.4785,-112.15700000000001,6604,2018-01-30
9029042,23901527,"10834 N Balboa Dr, Sun City, AZ 85351 ",85351,0.2429743856191635,0.765211433172226,0.1859267778437812,174900,https://www.zillow.com/homedetails/10834-N-Balboa-Dr-Sun-City-AZ-85351/7689600_zpid/,33.584,-112.274,6621,2018-02-16
250890,23915379,"2318 W Hartford Ave, Phoenix, AZ 85023 ",85023,0.24468592554330826,0.7598557472229004,0.18592600678863747,219900,https://www.zillow.com/homedetails/2318-W-Hartford-Ave-Phoenix-AZ-85023/7958213_zpid/,33.6422,-112.11,6642,2018-03-09
830365,23884601,"3807 W Rose Ln, Phoenix, AZ 85019 ",85019,0.2429743856191635,0.7651031613349915,0.1859004705606493,189900,https://www.zillow.com/homedetails/3807-W-Rose-Ln-Phoenix-AZ-85019/7758888_zpid/,33.5274,-112.141,6605,2018-01-31
415051,23919687,"10007 N 48TH Dr, Glendale, AZ 85302 ",85302,0.2429743856191635,0.7650903761386871,0.18589736408543223,233000,https://www.zillow.com/homedetails/10007-N-48TH-Dr-Glendale-AZ-85302/7728794_zpid/,33.5766,-112.162,6630,2018-02-25
8975236,23887133,"3643 N 73rd Ave, Phoenix, AZ 85033 ",85033,0.2429743856191635,0.7650770843029022,0.18589413450979864,184000,https://www.zillow.com/homedetails/3643-N-73rd-Ave-Phoenix-AZ-85033/7468824_zpid/,33.4911,-112.21600000000001,6621,2018-02-16
830424,23884627,"3812 W Lamar Rd, Phoenix, AZ 85019 ",85019,0.2429743856191635,0.765049934387207,0.18588753777571299,204000,https://www.zillow.com/homedetails/3812-W-Lamar-Rd-Phoenix-AZ-85019/7758401_zpid/,33.5365,-112.141,6615,2018-02-10
254023,23882202,"3843 W Country Gables Dr, Phoenix, AZ 85053 ",85053,0.2429743856191635,0.7649910748004913,0.18587323640379294,219900,https://www.zillow.com/homedetails/3843-W-Country-Gables-Dr-Phoenix-AZ-85053/7944124_zpid/,33.622,-112.141,6613,2018-02-08
351880,23929813,"6625 W Polk St, Phoenix, AZ 85043 ",85043,0.2429743856191635,0.7649739384651184,0.18586907271323394,178000,https://www.zillow.com/homedetails/6625-W-Polk-St-Phoenix-AZ-85043/67788414_zpid/,33.453,-112.20200000000001,6651,2018-03-18
9031391,23913583,"11213 N 69TH Ave, Peoria, AZ 85345 ",85345,0.2429743856191635,0.7649559676647186,0.18586470626904772,199900,https://www.zillow.com/homedetails/11213-N-69TH-Ave-Peoria-AZ-85345/7699594_zpid/,33.5872,-112.20700000000001,6640,2018-03-07
9026498,23870725,"3243 N 77th Dr, Phoenix, AZ 85033 ",85033,0.2429743856191635,0.7649500370025635,0.18586326527005426,172500,https://www.zillow.com/homedetails/3243-N-77th-Dr-Phoenix-AZ-85033/7469201_zpid/,33.4857,-112.225,6599,2018-01-25
9028602,23899875,"8136 W Monterey Way, Phoenix, AZ 85033 ",85033,0.2429743856191635,0.7649453282356262,0.18586212116030065,179000,https://www.zillow.com/homedetails/8136-W-Monterey-Way-Phoenix-AZ-85033/7479180_zpid/,33.4844,-112.236,6621,2018-02-16
833199,23888418,"5269 N 42ND Ln, Phoenix, AZ 85019 ",85019,0.2429743856191635,0.7649190723896027,0.18585574166224417,209900,https://www.zillow.com/homedetails/5269-N-42ND-Ln-Phoenix-AZ-85019/55260747_zpid/,33.5158,-112.15,6622,2018-02-17
2056408,23914192,"7328 W Carol Ave, Peoria, AZ 85345 ",85345,0.2429743856191635,0.7648952603340149,0.1858499559426674,193900,https://www.zillow.com/homedetails/7328-W-Carol-Ave-Peoria-AZ-85345/7702125_zpid/,33.5724,-112.21600000000001,6649,2018-03-16
418906,23882456,"5241 W Barbara Ave, Glendale, AZ 85302 ",85302,0.2429743856191635,0.76487597823143,0.1858452708856384,241995,https://www.zillow.com/homedetails/5241-W-Barbara-Ave-Glendale-AZ-85302/7733970_zpid/,33.5639,-112.17299999999999,6620,2018-02-15
393418,23882107,"3408 W Sunnyside Dr, Phoenix, AZ 85029 ",85029,0.24468592554330826,0.7594506740570068,0.18582689108612804,169900,https://www.zillow.com/homedetails/3408-W-Sunnyside-Dr-Phoenix-AZ-85029/7748673_zpid/,33.5932,-112.125,6607,2018-02-02
8988863,23920237,"8622 N 69TH Dr, Peoria, AZ 85345 ",85345,0.2429743856191635,0.7647847533226013,0.18582310556946258,226900,https://www.zillow.com/homedetails/8622-N-69TH-Dr-Peoria-AZ-85345/50187892_zpid/,33.5645,-112.208,6650,2018-03-17
9031613,23914878,"3312 N 61ST Ave, Phoenix, AZ 85033 ",85033,0.2429743856191635,0.7647769451141357,0.18582120837480787,178000,https://www.zillow.com/homedetails/3312-N-61ST-Ave-Phoenix-AZ-85033/7498313_zpid/,33.4852,-112.191,6628,2018-02-23
429235,23914962,"6338 W Thomas Rd, Phoenix, AZ 85033 ",85033,0.2429743856191635,0.7647697031497955,0.18581944876297163,224900,https://www.zillow.com/homedetails/6338-W-Thomas-Rd-Phoenix-AZ-85033/7498752_zpid/,33.4807,-112.197,6636,2018-03-03
9026282,23865594,"9621 N 82nd Ln, Peoria, AZ 85345 ",85345,0.2429743856191635,0.7647676169872284,0.18581894187890358,205000,https://www.zillow.com/homedetails/9621-N-82nd-Ln-Peoria-AZ-85345/67710601_zpid/,33.5723,-112.236,6585,2018-01-11
337751,23867585,"14407 N 23RD St, Phoenix, AZ 85022 ",85022,0.24468592554330826,0.7594059407711029,0.18581594548066405,219000,https://www.zillow.com/homedetails/14407-N-23rd-St-Phoenix-AZ-85022/8010507_zpid/,33.618,-112.03399999999999,6590,2018-01-16
9026100,23873397,"8885 W Hollywood Ave, Peoria, AZ 85345 ",85345,0.2429743856191635,0.7647311091423035,0.18581007140771266,239000,https://www.zillow.com/homedetails/8885-W-Hollywood-Ave-Peoria-AZ-85345/95133596_zpid/,33.5895,-112.25,6610,2018-02-05
389802,23882092,"2715 W Mercer Ln, Phoenix, AZ 85029 ",85029,0.24468592554330826,0.7593591213226318,0.18580448942058148,169900,https://www.zillow.com/homedetails/2715-W-Mercer-Ln-Phoenix-AZ-85029/7740252_zpid/,33.5851,-112.12100000000001,6618,2018-02-13
9030025,23905718,"7026 W Brown St, Peoria, AZ 85345 ",85345,0.2429743856191635,0.7647039890289307,0.18580348191482798,224900,https://www.zillow.com/homedetails/7026-W-Brown-St-Peoria-AZ-85345/7701724_zpid/,33.5772,-112.21,6606,2018-02-01
9026758,23893954,"8538 W Las Palmaritas Dr, Peoria, AZ 85345 ",85345,0.2429743856191635,0.7646572589874268,0.18579212771170361,198000,https://www.zillow.com/homedetails/8538-W-Las-Palmaritas-Dr-Peoria-AZ-85345/7683390_zpid/,33.5569,-112.243,6613,2018-02-08
248862,23915551,"306 E Piute Ave, Phoenix, AZ 85024 ",85024,0.24468592554330826,0.7592574656009674,0.18577961569623924,199900,https://www.zillow.com/homedetails/306-E-Piute-Ave-Phoenix-AZ-85024/7967866_zpid/,33.6635,-112.07,6656,2018-03-23
9033206,23929346,"18649 N 42ND Ave, Glendale, AZ 85308 ",85308,0.2429743856191635,0.7646057307720184,0.18577960767522272,234900,https://www.zillow.com/homedetails/18649-N-42ND-Ave-Glendale-AZ-85308/7935950_zpid/,33.656,-112.149,6646,2018-03-13
8967048,23877859,"8213 W Osborn Rd, Phoenix, AZ 85033 ",85033,0.2429743856191635,0.764562577009201,0.18576912241621502,209900,https://www.zillow.com/homedetails/8213-W-Osborn-Rd-Phoenix-AZ-85033/7479277_zpid/,33.4871,-112.236,6606,2018-02-01
419255,23890686,"5351 W Onyx Ave, Glendale, AZ 85302 ",85302,0.2429743856191635,0.7645425796508789,0.1857642635703627,235000,https://www.zillow.com/homedetails/5351-W-Onyx-Ave-Glendale-AZ-85302/7736018_zpid/,33.5768,-112.176,6626,2018-02-21
9020198,23867892,"17950 N 88th Ave, Peoria, AZ 85382 ",85382,0.2429743856191635,0.7645071744918823,0.18575566102360774,249000,https://www.zillow.com/homedetails/17950-N-88th-Ave-Peoria-AZ-85382/7898435_zpid/,33.6467,-112.24799999999999,6590,2018-01-16
9026771,23893522,"9508 W Shiprock Dr, Sun City, AZ 85351 ",85351,0.2429743856191635,0.76449915766716,0.18575371314054623,180000,https://www.zillow.com/homedetails/9508-W-Shiprock-Dr-Sun-City-AZ-85351/7922181_zpid/,33.6141,-112.264,6611,2018-02-06
389115,23882078,"2508 W Eugie Ave, Phoenix, AZ 85029 ",85029,0.24468592554330826,0.7591310143470764,0.1857486748541448,133900,https://www.zillow.com/homedetails/2508-W-Eugie-Ave-Phoenix-AZ-85029/7738262_zpid/,33.6094,-112.113,6618,2018-02-13
1413599,23870195,"7315 W Midway Ave, Glendale, AZ 85303 ",85303,0.2429743856191635,0.764472246170044,0.18574717433606835,203000,https://www.zillow.com/homedetails/7315-W-Midway-Ave-Glendale-AZ-85303/95160837_zpid/,33.541,-112.21600000000001,6597,2018-01-23
253163,23888405,"3809 W Redfield Rd, Phoenix, AZ 85053 ",85053,0.2429743856191635,0.7644585371017456,0.18574384338362115,208000,https://www.zillow.com/homedetails/3809-W-Redfield-Rd-Phoenix-AZ-85053/7944743_zpid/,33.613,-112.141,6622,2018-02-17
246622,23872818,"3408 W Port Au Prince Ln, Phoenix, AZ 85053 ",85053,0.24468592554330826,0.7590836584568024,0.18573708753430318,199000,https://www.zillow.com/homedetails/3408-W-Port-Au-Prince-Ln-Phoenix-AZ-85053/7943618_zpid/,33.6233,-112.132,6606,2018-02-01
225985,23915214,"1505 E Taro Ln, Phoenix, AZ 85024 ",85024,0.24468592554330826,0.7590662837028503,0.18573283617655134,200000,https://www.zillow.com/homedetails/1505-E-Taro-Ln-Phoenix-AZ-85024/7995787_zpid/,33.6591,-112.04899999999999,6638,2018-03-05
400374,23882336,"10637 N 65th Ave, Glendale, AZ 85304 ",85304,0.2429743856191635,0.7643776834011078,0.18572419800538364,175000,https://www.zillow.com/homedetails/10637-N-65th-Ave-Glendale-AZ-85304/7698648_zpid/,33.5832,-112.199,6604,2018-01-30
414666,23919968,"6513 W Mescal St, Glendale, AZ 85304 ",85304,0.2429743856191635,0.7643609046936035,0.1857201212092363,204900,https://www.zillow.com/homedetails/6513-W-Mescal-St-Glendale-AZ-85304/7699113_zpid/,33.586,-112.199,6648,2018-03-15
449536,23875547,"8542 W Lewis Ave, Phoenix, AZ 85037 ",85037,0.2429743856191635,0.7642609775066376,0.1856958414623766,246000,https://www.zillow.com/homedetails/8542-W-Lewis-Ave-Phoenix-AZ-85037/7487365_zpid/,33.4742,-112.244,6617,2018-02-12
9029830,23904987,"9503 N 82nd Ln, Peoria, AZ 85345 ",85345,0.2429743856191635,0.7642292678356171,0.18568813682454222,189900,https://www.zillow.com/homedetails/9503-N-82nd-Ln-Peoria-AZ-85345/67765087_zpid/,33.571,-112.236,6621,2018-02-16
336388,23891504,"2012 W Alice Ave, Phoenix, AZ 85021 ",85021,0.24468592554330826,0.7588686645030975,0.1856844815397547,244900,https://www.zillow.com/homedetails/2012-W-Alice-Ave-Phoenix-AZ-85021/7779747_zpid/,33.5641,-112.103,6614,2018-02-09
8985192,23888637,"13250 N 79TH Ave, Peoria, AZ 85381 ",85381,0.2429743856191635,0.764196127653122,0.18568008460906116,249900,https://www.zillow.com/homedetails/13250-N-79TH-Ave-Peoria-AZ-85381/8100968_zpid/,33.6054,-112.229,6620,2018-02-15
828943,23890684,"3619 W Krall St, Phoenix, AZ 85019 ",85019,0.2429743856191635,0.7641732692718506,0.1856745306079155,179990,https://www.zillow.com/homedetails/3619-W-Krall-St-Phoenix-AZ-85019/7761766_zpid/,33.5341,-112.137,6626,2018-02-21
