property_id,transaction_id,address,zipcode,ypred,list,url,lat,long,date_listed,transaction_date
7478106,22647635,"4939 W Apollo Rd, Laveen, AZ 85339 ",85339,0.6218481659889221,249990,https://www.zillow.com/homedetails/4939-W-Apollo-Rd-Laveen-AZ-85339/67788904_zpid/,33.3859,-112.166,2017-09-10,2017-09-10
1094924,22722527,"824 E Jacob St, Chandler, AZ 85225 ",85225,0.6197413802146912,268500,https://www.zillow.com/homedetails/824-E-Jacob-St-Chandler-AZ-85225/92692629_zpid/,33.3156,-111.82799999999999,2017-09-25,2017-09-25
9003593,22621199,"6227 S 41ST Dr, Phoenix, AZ 85041 ",85041,0.609572172164917,219900,https://www.zillow.com/homedetails/6227-S-41ST-Dr-Phoenix-AZ-85041/95071055_zpid/,33.3891,-112.147,2017-09-04,2017-09-04
9013121,22688030,"6887 W Darrel Rd, Laveen, AZ 85339 ",85339,0.6090895533561707,249000,https://www.zillow.com/homedetails/6887-W-Darrel-Rd-Laveen-AZ-85339/71604827_zpid/,33.3856,-112.208,2017-09-13,2017-09-13
181208,22707288,"131 W Mountain Sage Dr, Phoenix, AZ 85045 ",85045,0.6012253165245056,267500,https://www.zillow.com/homedetails/131-W-Mountain-Sage-Dr-Phoenix-AZ-85045/8285303_zpid/,33.3112,-112.07700000000001,2017-09-22,2017-09-22
195296,22633410,"3132 W Saint Anne Ave, Phoenix, AZ 85041 ",85041,0.5990913510322571,237000,https://www.zillow.com/homedetails/3132-W-Saint-Anne-Ave-Phoenix-AZ-85041/67764934_zpid/,33.3872,-112.12700000000001,2017-09-06,2017-09-06
9002555,22687982,"6926 S 50th Gln, Laveen, AZ 85339 ",85339,0.5965327024459839,207500,https://www.zillow.com/homedetails/6926-S-50th-Gln-Laveen-AZ-85339/71599799_zpid/,33.3829,-112.16799999999999,2017-09-15,2017-09-15
8989901,22508627,"4514 W Hasan Dr, Laveen, AZ 85339 ",85339,0.595443606376648,249000,https://www.zillow.com/homedetails/4514-W-Hasan-Dr-Laveen-AZ-85339/67773494_zpid/,33.3909,-112.156,2017-08-15,2017-08-15
533217,22508620,"6821 S 43rd Dr, Laveen, AZ 85339 ",85339,0.5953561663627625,199800,https://www.zillow.com/homedetails/6821-S-43rd-Dr-Laveen-AZ-85339/67773899_zpid/,33.384,-112.15100000000001,2017-08-15,2017-08-15
9013135,22687971,"5227 W Beverly Rd, Laveen, AZ 85339 ",85339,0.5953148007392883,199000,https://www.zillow.com/homedetails/5227-W-Beverly-Rd-Laveen-AZ-85339/71613966_zpid/,33.3739,-112.17299999999999,2017-09-14,2017-09-14
975705,22722525,"704 N Country Club Way, Chandler, AZ 85226 ",85226,0.594928503036499,259900,https://www.zillow.com/homedetails/704-N-Country-Club-Way-Chandler-AZ-85226/8155320_zpid/,33.315,-111.904,2017-09-22,2017-09-22
9019270,23527895,"615 E Los Arboles Pl, Chandler, AZ 85225 ",85225,0.594454824924469,257400,https://www.zillow.com/homedetails/615-E-Los-Arboles-Pl-Chandler-AZ-85225/52430713_zpid/,33.3355,-111.83200000000001,2017-10-11,2017-10-11
9013150,22688245,"7503 S 12th Ave, Phoenix, AZ 85041 ",85041,0.5906684994697571,219525,https://www.zillow.com/homedetails/7503-S-12th-Ave-Phoenix-AZ-85041/95154957_zpid/,33.3785,-112.087,2017-09-15,2017-09-15
1108571,22710090,"1148 N Bullmoose Dr, Chandler, AZ 85224 ",85224,0.5898120403289795,264900,https://www.zillow.com/homedetails/1148-N-Bullmoose-Dr-Chandler-AZ-85224/8201809_zpid/,33.3229,-111.885,2017-09-21,2017-09-21
192866,22697877,"2314 W Beverly Rd, Phoenix, AZ 85041 ",85041,0.5894233584403992,253900,https://www.zillow.com/homedetails/2314-W-Beverly-Rd-Phoenix-AZ-85041/81988107_zpid/,33.3748,-112.11,2017-09-11,2017-09-11
9005752,22731992,"6420 W Beverly Rd, Laveen, AZ 85339 ",85339,0.5890898704528809,174900,https://www.zillow.com/homedetails/6420-W-Beverly-Rd-Laveen-AZ-85339/81951423_zpid/,33.3737,-112.198,2017-09-29,2017-09-29
49436,22739439,"16710 S 23rd St, Phoenix, AZ 85048 ",85048,0.5885829925537109,220000,https://www.zillow.com/homedetails/16710-S-23rd-St-Phoenix-AZ-85048/88788855_zpid/,33.295,-112.03399999999999,2017-10-05,2017-10-05
237701,22707300,"3620 E South Fork Dr, Phoenix, AZ 85044 ",85044,0.5884734392166138,255000,https://www.zillow.com/homedetails/3620-E-South-Fork-Dr-Phoenix-AZ-85044/8161477_zpid/,33.3061,-112.007,2017-09-21,2017-09-21
250722,22610174,"4826 E Pearce Rd, Phoenix, AZ 85044 ",85044,0.5855581760406494,249000,https://www.zillow.com/homedetails/4826-E-Pearce-Rd-Phoenix-AZ-85044/8142634_zpid/,33.3545,-111.977,2017-08-30,2017-08-30
195789,22642934,"3313 W Nancy Ln, Phoenix, AZ 85041 ",85041,0.5849606394767761,229900,https://www.zillow.com/homedetails/3313-W-Nancy-Ln-Phoenix-AZ-85041/67789656_zpid/,33.3897,-112.13,2017-09-07,2017-09-07
8674,22687963,"5415 W Pollack St, Laveen, AZ 85339 ",85339,0.5848096609115601,217900,https://www.zillow.com/homedetails/5415-W-Pollack-St-Laveen-AZ-85339/71627983_zpid/,33.3791,-112.176,2017-09-15,2017-09-15
532539,22545925,"6519 S 49th Dr, Laveen, AZ 85339 ",85339,0.5842132568359375,259000,https://www.zillow.com/homedetails/6519-S-49th-Dr-Laveen-AZ-85339/67788895_zpid/,33.3869,-112.164,2017-08-21,2017-08-21
8947221,22746443,"5409 W Beautiful Ln, Laveen, AZ 85339 ",85339,0.5831350684165955,215000,https://www.zillow.com/homedetails/5409-W-Beautiful-Ln-Laveen-AZ-85339/82799681_zpid/,33.3752,-112.176,2017-10-06,2017-10-06
243600,22712655,"4338 E South Fork Dr, Phoenix, AZ 85044 ",85044,0.5829775929450989,259900,https://www.zillow.com/homedetails/4338-E-South-Fork-Dr-Phoenix-AZ-85044/8261236_zpid/,33.3066,-111.99,2017-09-23,2017-09-23
183947,22741256,"1726 W Amberwood Dr, Phoenix, AZ 85045 ",85045,0.5826081037521362,240000,https://www.zillow.com/homedetails/1726-W-Amberwood-Dr-Phoenix-AZ-85045/10987867_zpid/,33.3001,-112.09700000000001,2017-10-06,2017-10-06
8998545,22608594,"4828 W Lydia Ln, Laveen, AZ 85339 ",85339,0.5816924571990967,234995,https://www.zillow.com/homedetails/4828-W-Lydia-Ln-Laveen-AZ-85339/95157878_zpid/,33.3872,-112.163,2017-09-01,2017-09-01
7447915,22576292,"8216 S 6th Ln, Phoenix, AZ 85041 ",85041,0.5794522762298584,234900,https://www.zillow.com/homedetails/8216-S-6th-Ln-Phoenix-AZ-85041/95089441_zpid/,33.3716,-112.083,2017-08-23,2017-08-23
7447909,22576290,"8225 S 5th Ln, Phoenix, AZ 85041 ",85041,0.5794522762298584,234900,https://www.zillow.com/homedetails/8225-S-5th-Ln-Phoenix-AZ-85041/95083688_zpid/,33.3714,-112.08200000000001,2017-08-23,2017-08-23
1094347,22710242,"805 W Nopal Pl, Chandler, AZ 85225 ",85225,0.5784949064254761,225000,https://www.zillow.com/homedetails/805-W-Nopal-Pl-Chandler-AZ-85225/8177761_zpid/,33.3419,-111.85600000000001,2017-09-21,2017-09-21
9013122,22746459,"7027 W St Charles Ave, Laveen, AZ 85339 ",85339,0.5784653425216675,203500,https://www.zillow.com/homedetails/7027-W-St-Charles-Ave-Laveen-AZ-85339/71604988_zpid/,33.3869,-112.211,2017-10-08,2017-10-08
9008357,22688016,"7921 S 71st Dr, Laveen, AZ 85339 ",85339,0.5784592032432556,239000,https://www.zillow.com/homedetails/7921-S-71st-Dr-Laveen-AZ-85339/81966415_zpid/,33.3737,-112.212,2017-09-15,2017-09-15
232508,22583552,"14438 S 42nd St, Phoenix, AZ 85044 ",85044,0.5783292651176453,257500,https://www.zillow.com/homedetails/14438-S-42nd-St-Phoenix-AZ-85044/8164500_zpid/,33.315,-111.994,2017-08-26,2017-08-26
8992536,22713262,"6410 W Constance Way, Laveen, AZ 85339 ",85339,0.5781558156013489,205000,https://www.zillow.com/homedetails/6410-W-Constance-Way-Laveen-AZ-85339/71607731_zpid/,33.3753,-112.197,2017-09-23,2017-09-23
1115381,22681408,"1710 N Comanche Dr, Chandler, AZ 85224 ",85224,0.5781440734863281,249900,https://www.zillow.com/homedetails/1710-N-Comanche-Dr-Chandler-AZ-85224/8194464_zpid/,33.330999999999996,-111.863,2017-09-15,2017-09-15
184853,22515692,"32 W Mountain Sage Dr, Phoenix, AZ 85045 ",85045,0.5780742764472961,267000,https://www.zillow.com/homedetails/32-W-Mountain-Sage-Dr-Phoenix-AZ-85045/8285289_zpid/,33.312,-112.07600000000001,2017-08-17,2017-08-17
1112897,22727768,"1500 W Mission Dr, Chandler, AZ 85224 ",85224,0.5779731869697571,239900,https://www.zillow.com/homedetails/1500-W-Mission-Dr-Chandler-AZ-85224/8199237_zpid/,33.3445,-111.867,2017-09-28,2017-09-28
1115236,22604543,"1704 W Temple St, Chandler, AZ 85224 ",85224,0.5779340863227844,235000,https://www.zillow.com/homedetails/1704-W-Temple-St-Chandler-AZ-85224/8193766_zpid/,33.3334,-111.87100000000001,2017-08-31,2017-08-31
184834,22747311,"312 W Mountain Sage Dr, Phoenix, AZ 85045 ",85045,0.5775966048240662,246000,https://www.zillow.com/homedetails/312-W-Mountain-Sage-Dr-Phoenix-AZ-85045/8285261_zpid/,33.3111,-112.07799999999999,2017-10-05,2017-10-05
8980472,22433173,"7748 W Minnezona Ave, Phoenix, AZ 85033 ",85033,0.5762202143669128,64900,https://www.zillow.com/homedetails/7748-W-Minnezona-Ave-Phoenix-AZ-85033/7482425_zpid/,33.5021,-112.227,2017-07-28,2017-07-28
8975159,22713263,"4814 W Darrel Rd, Laveen, AZ 85339 ",85339,0.5752350687980652,247500,https://www.zillow.com/homedetails/4814-W-Darrel-Rd-Laveen-AZ-85339/71599723_zpid/,33.384,-112.163,2017-09-23,2017-09-23
200562,22687977,"6710 S 37th Ln, Phoenix, AZ 85041 ",85041,0.575124204158783,235000,https://www.zillow.com/homedetails/6710-S-37th-Ln-Phoenix-AZ-85041/71619498_zpid/,33.385999999999996,-112.14,2017-09-14,2017-09-14
186413,22622837,"2022 E Windsong Dr, Phoenix, AZ 85048 ",85048,0.574207603931427,249999,https://www.zillow.com/homedetails/2022-E-Windsong-Dr-Phoenix-AZ-85048/8162851_zpid/,33.2926,-112.04,2017-09-03,2017-09-03
1123873,22707436,"2718 W Brooks St, Chandler, AZ 85224 ",85224,0.574009120464325,215000,https://www.zillow.com/homedetails/2718-W-Brooks-St-Chandler-AZ-85224/8193248_zpid/,33.3346,-111.889,2017-09-22,2017-09-22
533391,22720285,"6837 S 43rd Dr, Laveen, AZ 85339 ",85339,0.5738583207130432,205000,https://www.zillow.com/homedetails/6837-S-43rd-Dr-Laveen-AZ-85339/67773903_zpid/,33.3835,-112.15100000000001,2017-09-25,2017-09-25
9019132,22732031,"4653 W Carson Rd, Laveen, AZ 85339 ",85339,0.5733184218406677,193900,https://www.zillow.com/homedetails/4653-W-Carson-Rd-Laveen-AZ-85339/95017616_zpid/,33.3817,-112.15899999999999,2017-09-29,2017-09-29
975231,23527889,"6732 W Ivanhoe St, Chandler, AZ 85226 ",85226,0.573208212852478,209900,https://www.zillow.com/homedetails/6732-W-Ivanhoe-St-Chandler-AZ-85226/8268795_zpid/,33.3165,-111.959,2017-10-12,2017-10-12
7440604,22740521,"3620 W Tulsa St, Chandler, AZ 85226 ",85226,0.573039710521698,265000,https://www.zillow.com/homedetails/3620-W-Tulsa-St-Chandler-AZ-85226/8155070_zpid/,33.3107,-111.90799999999999,2017-10-04,2017-10-04
8961998,22613784,"4357 E Darrel Rd, Phoenix, AZ 85042 ",85042,0.5730087757110596,229900,https://www.zillow.com/homedetails/4357-E-Darrel-Rd-Phoenix-AZ-85042/7551965_zpid/,33.3852,-111.98700000000001,2017-08-31,2017-08-31
9016499,22733017,"5221 W Fawn Dr, Laveen, AZ 85339 ",85339,0.5728805661201477,224800,https://www.zillow.com/homedetails/5221-W-Fawn-Dr-Laveen-AZ-85339/71613944_zpid/,33.3747,-112.17200000000001,2017-10-01,2017-10-01
531880,22732004,"6106 S 46th Ln, Laveen, AZ 85339 ",85339,0.5727365016937256,259900,https://www.zillow.com/homedetails/6106-S-46th-Ln-Laveen-AZ-85339/67773452_zpid/,33.391,-112.15899999999999,2017-09-29,2017-09-29
9013115,22747331,"3423 W Saint Kateri Dr, Phoenix, AZ 85041 ",85041,0.5727164149284363,234995,https://www.zillow.com/homedetails/3423-W-Saint-Kateri-Dr-Phoenix-AZ-85041/95154981_zpid/,33.3852,-112.132,2017-10-04,2017-10-04
182893,22622889,"16214 S 17th Dr, Phoenix, AZ 85045 ",85045,0.5720406174659729,250000,https://www.zillow.com/homedetails/16214-S-17th-Dr-Phoenix-AZ-85045/50201164_zpid/,33.2993,-112.098,2017-09-02,2017-09-02
9019467,22735309,"569 W Mariposa St, Chandler, AZ 85225 ",85225,0.5714678168296814,205000,https://www.zillow.com/homedetails/569-W-Mariposa-St-Chandler-AZ-85225/50194470_zpid/,33.3364,-111.84899999999999,2017-10-03,2017-10-03
9016496,22710840,"5209 W Melody Ln, Laveen, AZ 85339 ",85339,0.571344792842865,257000,https://www.zillow.com/homedetails/5209-W-Melody-Ln-Laveen-AZ-85339/67760259_zpid/,33.3731,-112.171,2017-09-20,2017-09-20
195437,22710779,"3202 W Saint Catherine Ave, Phoenix, AZ 85041 ",85041,0.5713111162185669,235000,https://www.zillow.com/homedetails/3202-W-Saint-Catherine-Ave-Phoenix-AZ-85041/67764960_zpid/,33.388000000000005,-112.12700000000001,2017-09-21,2017-09-21
8973916,22716662,"3944 E White Aster St, Phoenix, AZ 85044 ",85044,0.5709617733955383,241000,https://www.zillow.com/homedetails/3944-E-White-Aster-St-Phoenix-AZ-85044/8161306_zpid/,33.3079,-112.001,2017-09-18,2017-09-18
8990529,22513339,"4615 W Dunbar Dr, Laveen, AZ 85339 ",85339,0.5708200335502625,250000,https://www.zillow.com/homedetails/4615-W-Dunbar-Dr-Laveen-AZ-85339/71605121_zpid/,33.3788,-112.15799999999999,2017-08-16,2017-08-16
7447911,22576289,"8204 S 6th Ln, Phoenix, AZ 85041 ",85041,0.570517897605896,236900,https://www.zillow.com/homedetails/8204-S-6th-Ln-Phoenix-AZ-85041/95127702_zpid/,33.372,-112.083,2017-08-23,2017-08-23
191577,22688185,"1926 W Burgess Ln, Phoenix, AZ 85041 ",85041,0.5704903602600098,236500,https://www.zillow.com/homedetails/1926-W-Burgess-Ln-Phoenix-AZ-85041/67781758_zpid/,33.3897,-112.101,2017-09-13,2017-09-13
1088725,22710184,"519 W Palomino Dr, Chandler, AZ 85225 ",85225,0.5699905753135681,239900,https://www.zillow.com/homedetails/519-W-Palomino-Dr-Chandler-AZ-85225/8177645_zpid/,33.3411,-111.85,2017-09-22,2017-09-22
531200,22731981,"5427 W Pollack St, Laveen, AZ 85339 ",85339,0.5693809986114502,215000,https://www.zillow.com/homedetails/5427-W-Pollack-St-Laveen-AZ-85339/71627986_zpid/,33.3793,-112.176,2017-09-29,2017-09-29
532697,23450810,"6608 S 45th Ln, Laveen, AZ 85339 ",85339,0.5690150856971741,220000,https://www.zillow.com/homedetails/6608-S-45th-Ln-Laveen-AZ-85339/67773868_zpid/,33.3864,-112.15700000000001,2017-10-07,2017-10-07
249007,22746860,"4731 E Mountain Sage Dr, Phoenix, AZ 85044 ",85044,0.5687673687934875,255000,https://www.zillow.com/homedetails/4731-E-Mountain-Sage-Dr-Phoenix-AZ-85044/8261181_zpid/,33.3165,-111.98299999999999,2017-10-10,2017-10-10
8966825,22731966,"4201 W Samantha Way, Laveen, AZ 85339 ",85339,0.5683201551437378,249990,https://www.zillow.com/homedetails/4201-W-Samantha-Way-Laveen-AZ-85339/95137857_zpid/,33.367,-112.15,2017-09-29,2017-09-29
202681,22604488,"8311 S 23rd Dr, Phoenix, AZ 85041 ",85041,0.5682438015937805,212000,https://www.zillow.com/homedetails/8311-S-23rd-Dr-Phoenix-AZ-85041/95111121_zpid/,33.3714,-112.109,2017-08-29,2017-08-29
1113315,22681387,"1527 W Kesler Ln, Chandler, AZ 85224 ",85224,0.5682156682014465,239900,https://www.zillow.com/homedetails/1527-W-Kesler-Ln-Chandler-AZ-85224/8226108_zpid/,33.2949,-111.865,2017-09-14,2017-09-14
532412,22387563,"6430 W Valencia Dr, Laveen, AZ 85339 ",85339,0.5677808523178101,175000,https://www.zillow.com/homedetails/6430-W-Valencia-Dr-Laveen-AZ-85339/71607699_zpid/,33.3764,-112.198,2017-07-26,2017-07-26
1091549,22687287,"691 E Kent Ave, Chandler, AZ 85225 ",85225,0.5672236680984497,250000,https://www.zillow.com/homedetails/691-E-Kent-Ave-Chandler-AZ-85225/8182480_zpid/,33.3272,-111.831,2017-09-17,2017-09-17
1113680,22735268,"1581 W Butler Dr, Chandler, AZ 85224 ",85224,0.5670139193534851,259000,https://www.zillow.com/homedetails/1581-W-Butler-Dr-Chandler-AZ-85224/8207664_zpid/,33.301,-111.869,2017-10-02,2017-10-02
195185,22747312,"3121 W Dunbar Dr, Phoenix, AZ 85041 ",85041,0.5669932961463928,219150,https://www.zillow.com/homedetails/3121-W-Dunbar-Dr-Phoenix-AZ-85041/71598495_zpid/,33.3791,-112.126,2017-10-10,2017-10-10
7388416,23527717,"6876 W Darrel Rd, Laveen, AZ 85339 ",85339,0.5669932961463928,228500,https://www.zillow.com/homedetails/6876-W-Darrel-Rd-Laveen-AZ-85339/71604816_zpid/,33.3858,-112.208,2017-10-12,2017-10-12
1069213,22647451,"1203 N Velero St, Chandler, AZ 85225 ",85225,0.5669035315513611,259000,https://www.zillow.com/homedetails/1203-N-Velero-St-Chandler-AZ-85225/8180860_zpid/,33.3248,-111.81299999999999,2017-09-01,2017-09-01
9016385,22747434,"637 E Gary Dr, Chandler, AZ 85225 ",85225,0.5668835639953613,259900,https://www.zillow.com/homedetails/637-E-Gary-Dr-Chandler-AZ-85225/8182592_zpid/,33.3212,-111.83200000000001,2017-10-09,2017-10-09
8955864,22433062,"5611 W Maldonado Rd, Laveen, AZ 85339 ",85339,0.5663664937019348,259000,https://www.zillow.com/homedetails/5611-W-Maldonado-Rd-Laveen-AZ-85339/67764799_zpid/,33.3828,-112.18,2017-07-28,2017-07-28
698560,22716173,"2444 W Kiowa Ave, Mesa, AZ 85202 ",85202,0.5663251876831055,269000,https://www.zillow.com/homedetails/2444-W-Kiowa-Ave-Mesa-AZ-85202/8253510_zpid/,33.376,-111.887,2017-09-22,2017-09-22
8963808,22513325,"5543 W Winston Dr, Laveen, AZ 85339 ",85339,0.5661981701850891,265000,https://www.zillow.com/homedetails/5543-W-Winston-Dr-Laveen-AZ-85339/81956458_zpid/,33.3686,-112.18,2017-08-16,2017-08-16
9005036,22632278,"4339 E Nancy Ln, Phoenix, AZ 85042 ",85042,0.5660302042961121,165000,https://www.zillow.com/homedetails/4339-E-Nancy-Ln-Phoenix-AZ-85042/7551119_zpid/,33.3909,-111.988,2017-09-06,2017-09-06
44803,22638113,"1503 E South Fork Dr, Phoenix, AZ 85048 ",85048,0.5660264492034912,269500,https://www.zillow.com/homedetails/1503-E-South-Fork-Dr-Phoenix-AZ-85048/8135574_zpid/,33.3056,-112.05,2017-09-07,2017-09-07
532724,22713264,"6618 S 45th Dr, Laveen, AZ 85339 ",85339,0.5658789873123169,255000,https://www.zillow.com/homedetails/6618-S-45th-Dr-Laveen-AZ-85339/67773838_zpid/,33.3859,-112.156,2017-09-23,2017-09-23
195895,22720286,"3328 W Burgess Ln, Phoenix, AZ 85041 ",85041,0.5656598806381226,260000,https://www.zillow.com/homedetails/3328-W-Burgess-Ln-Phoenix-AZ-85041/67789660_zpid/,33.3894,-112.131,2017-09-25,2017-09-25
9016497,22746441,"5251 W Maldonado Rd, Laveen, AZ 85339 ",85339,0.5647355318069458,201900,https://www.zillow.com/homedetails/5251-W-Maldonado-Rd-Laveen-AZ-85339/67789178_zpid/,33.3828,-112.17200000000001,2017-10-06,2017-10-06
9013117,22746437,"4636 W Burgess Ln, Laveen, AZ 85339 ",85339,0.5647053122520447,249000,https://www.zillow.com/homedetails/4636-W-Burgess-Ln-Laveen-AZ-85339/67773542_zpid/,33.3894,-112.15899999999999,2017-10-04,2017-10-04
182928,22707310,"16218 S 17th Dr, Phoenix, AZ 85045 ",85045,0.5646459460258484,224000,https://www.zillow.com/homedetails/16218-S-17th-Dr-Phoenix-AZ-85045/50201163_zpid/,33.2992,-112.098,2017-09-22,2017-09-22
1130750,22682713,"791 N Comanche Dr, Chandler, AZ 85224 ",85224,0.5639933347702026,264900,https://www.zillow.com/homedetails/791-N-Comanche-Dr-Chandler-AZ-85224/8185734_zpid/,33.3168,-111.86200000000001,2017-09-15,2017-09-15
249983,22684474,"433 E Taro Ln, Phoenix, AZ 85024 ",85024,0.5639645457267761,230000,https://www.zillow.com/homedetails/433-E-Taro-Ln-Phoenix-AZ-85024/7972359_zpid/,33.6591,-112.068,2017-09-14,2017-09-14
8973242,22731985,"5251 W Novak Way, Laveen, AZ 85339 ",85339,0.5634263157844543,225000,https://www.zillow.com/homedetails/5251-W-Novak-Way-Laveen-AZ-85339/71612258_zpid/,33.3886,-112.17200000000001,2017-09-29,2017-09-29
9019145,22732058,"9214 S 35th Gln, Laveen, AZ 85339 ",85339,0.5632846355438232,215000,https://www.zillow.com/homedetails/9214-S-35th-Gln-Laveen-AZ-85339/67792482_zpid/,33.3622,-112.137,2017-09-30,2017-09-30
200810,22694521,"6826 S 38th Ln, Phoenix, AZ 85041 ",85041,0.5630224943161011,204900,https://www.zillow.com/homedetails/6826-S-38th-Ln-Phoenix-AZ-85041/67789778_zpid/,33.384,-112.14200000000001,2017-09-19,2017-09-19
1088587,22727085,"512 E Jasper Dr, Chandler, AZ 85225 ",85225,0.5630050897598267,279900,https://www.zillow.com/homedetails/512-E-Jasper-Dr-Chandler-AZ-85225/71616984_zpid/,33.3268,-111.834,2017-09-25,2017-09-25
9016379,22710160,"1411 E Gary Dr, Chandler, AZ 85225 ",85225,0.56275475025177,249900,https://www.zillow.com/homedetails/1411-E-Gary-Dr-Chandler-AZ-85225/8204321_zpid/,33.3214,-111.81700000000001,2017-09-22,2017-09-22
9019431,22735004,"4827 W St Catherine Ave, Laveen, AZ 85339 ",85339,0.5626602172851562,224995,https://www.zillow.com/homedetails/4827-W-St-Catherine-Ave-Laveen-AZ-85339/95160567_zpid/,33.3874,-112.163,2017-10-03,2017-10-03
196218,22738574,"3448 W Saint Kateri Dr, Phoenix, AZ 85041 ",85041,0.5626602172851562,210000,https://www.zillow.com/homedetails/3448-W-Saint-Kateri-Dr-Phoenix-AZ-85041/82819934_zpid/,33.3856,-112.133,2017-10-04,2017-10-04
196048,23527660,"3410 W Leodra Ln, Phoenix, AZ 85041 ",85041,0.5626602172851562,225000,https://www.zillow.com/homedetails/3410-W-Leodra-Ln-Phoenix-AZ-85041/81994553_zpid/,33.3884,-112.132,2017-10-11,2017-10-11
1074603,22727805,"1727 E Tara Dr, Chandler, AZ 85225 ",85225,0.5623216032981873,215000,https://www.zillow.com/homedetails/1727-E-Tara-Dr-Chandler-AZ-85225/8222882_zpid/,33.2934,-111.81299999999999,2017-09-28,2017-09-28
8984370,22486817,"7018 S 70th Dr, Laveen, AZ 85339 ",85339,0.5619521141052246,249900,https://www.zillow.com/homedetails/7018-S-70th-Dr-Laveen-AZ-85339/81973518_zpid/,33.383,-112.211,2017-08-03,2017-08-03
9020269,22745518,"18028 N 19th St, Phoenix, AZ 85022 ",85022,0.5615300536155701,144990,https://www.zillow.com/homedetails/18028-N-19th-St-Phoenix-AZ-85022/8001127_zpid/,33.6505,-112.042,2017-10-06,2017-10-06
9019141,22732041,"4520 W Fremont Rd, Laveen, AZ 85339 ",85339,0.5614903569221497,209000,https://www.zillow.com/homedetails/4520-W-Fremont-Rd-Laveen-AZ-85339/71605146_zpid/,33.3814,-112.15700000000001,2017-09-28,2017-09-28
1128286,23527835,"3225 N Sean Dr, Chandler, AZ 85224 ",85224,0.5612332224845886,268811,https://www.zillow.com/homedetails/3225-N-Sean-Dr-Chandler-AZ-85224/8172346_zpid/,33.3532,-111.866,2017-10-11,2017-10-11
986752,22740486,"1208 S Cholla Ct, Chandler, AZ 85286 ",85286,0.5610741972923279,259780,https://www.zillow.com/homedetails/1208-S-Cholla-Ct-Chandler-AZ-85286/8208824_zpid/,33.2883,-111.87299999999999,2017-10-05,2017-10-05
1844393,22933969,"8217 S 23rd Pl, Phoenix, AZ 85042 ",85042,0.5610612034797668,230000,https://www.zillow.com/homedetails/8217-S-23rd-Pl-Phoenix-AZ-85042/67776609_zpid/,33.3716,-112.03200000000001,2017-10-10,2017-10-10
1094399,23527921,"808 E Calle Del Norte, Chandler, AZ 85225 ",85225,0.5606143474578857,238000,https://www.zillow.com/homedetails/808-E-Calle-Del-Norte-Chandler-AZ-85225/8182115_zpid/,33.3294,-111.829,2017-10-10,2017-10-10
632133,22735012,"7233 S 45th Ave, Laveen, AZ 85339 ",85339,0.560230553150177,245000,https://www.zillow.com/homedetails/7233-S-45th-Ave-Laveen-AZ-85339/67789315_zpid/,33.3805,-112.156,2017-10-03,2017-10-03
1173765,22739731,"1018 W Redondo Dr, Gilbert, AZ 85233 ",85233,0.5599959492683411,255000,https://www.zillow.com/homedetails/1018-W-Redondo-Dr-Gilbert-AZ-85233/8181094_zpid/,33.3351,-111.81200000000001,2017-10-05,2017-10-05
9006842,22645627,"6809 W Alta Vista Rd, Laveen, AZ 85339 ",85339,0.5597318410873413,232900,https://www.zillow.com/homedetails/6809-W-Alta-Vista-Rd-Laveen-AZ-85339/64788738_zpid/,33.388000000000005,-112.205,2017-09-09,2017-09-09
9016505,22710876,"8117 S 73rd Dr, Laveen, AZ 85339 ",85339,0.5594226717948914,194500,https://www.zillow.com/homedetails/8117-S-73rd-Dr-Laveen-AZ-85339/81976891_zpid/,33.3728,-112.214,2017-09-22,2017-09-22
9005210,22707293,"4816 E Western Star Blvd, Phoenix, AZ 85044 ",85044,0.5593312978744507,265000,https://www.zillow.com/homedetails/4816-E-Western-Star-Blvd-Phoenix-AZ-85044/8142497_zpid/,33.3524,-111.979,2017-09-22,2017-09-22
9013147,22688242,"514 E Milada Dr, Phoenix, AZ 85042 ",85042,0.5588979125022888,239000,https://www.zillow.com/homedetails/514-E-Milada-Dr-Phoenix-AZ-85042/59265902_zpid/,33.3641,-112.06700000000001,2017-09-15,2017-09-15
9011928,22678345,"7411 W Wolf St, Phoenix, AZ 85033 ",85033,0.5586825013160706,219900,https://www.zillow.com/homedetails/7411-W-Wolf-St-Phoenix-AZ-85033/95184996_zpid/,33.5059,-112.219,2017-09-14,2017-09-14
1085968,22710222,"361 S Williams Pl, Chandler, AZ 85225 ",85225,0.5583273768424988,242900,https://www.zillow.com/homedetails/361-S-Williams-Pl-Chandler-AZ-85225/8205921_zpid/,33.2985,-111.825,2017-09-22,2017-09-22
984618,22746059,"1042 S Wagon Wheel Dr, Chandler, AZ 85286 ",85286,0.5576130747795105,227900,https://www.zillow.com/homedetails/1042-S-Wagon-Wheel-Dr-Chandler-AZ-85286/59262292_zpid/,33.2909,-111.83,2017-10-07,2017-10-07
9002543,22608602,"4639 W Burgess Ln, Laveen, AZ 85339 ",85339,0.5574023127555847,234900,https://www.zillow.com/homedetails/4639-W-Burgess-Ln-Laveen-AZ-85339/62727471_zpid/,33.3891,-112.15899999999999,2017-08-29,2017-08-29
8986684,22622054,"3926 E Pollack St, Phoenix, AZ 85042 ",85042,0.5573061108589172,199000,https://www.zillow.com/homedetails/3926-E-Pollack-St-Phoenix-AZ-85042/67774379_zpid/,33.3808,-111.99700000000001,2017-09-03,2017-09-03
8992372,22736381,"4506 E Cheyenne Dr, Phoenix, AZ 85044 ",85044,0.5565482378005981,225000,https://www.zillow.com/homedetails/4506-E-Cheyenne-Dr-Phoenix-AZ-85044/8258146_zpid/,33.3483,-111.98700000000001,2017-09-26,2017-09-26
8963817,22687968,"5812 W Ardmore Rd, Laveen, AZ 85339 ",85339,0.5559931993484497,214900,https://www.zillow.com/homedetails/5812-W-Ardmore-Rd-Laveen-AZ-85339/81956478_zpid/,33.3686,-112.184,2017-09-17,2017-09-17
1088340,22740532,"501 N Vine St, Chandler, AZ 85225 ",85225,0.5558289885520935,185000,https://www.zillow.com/homedetails/501-N-Vine-St-Chandler-AZ-85225/8187012_zpid/,33.3123,-111.851,2017-10-04,2017-10-04
195523,22746416,"3218 W Alta Vista Rd, Phoenix, AZ 85041 ",85041,0.5557902455329895,189000,https://www.zillow.com/homedetails/3218-W-Alta-Vista-Rd-Phoenix-AZ-85041/67781789_zpid/,33.3889,-112.12700000000001,2017-10-09,2017-10-09
9019428,22734993,"4726 W St Anne Ave, Laveen, AZ 85339 ",85339,0.5553476810455322,234995,https://www.zillow.com/homedetails/4726-W-St-Anne-Ave-Laveen-AZ-85339/95091574_zpid/,33.3866,-112.162,2017-10-03,2017-10-03
9019430,22734996,"4802 W St Anne Ave, Laveen, AZ 85339 ",85339,0.5553476810455322,234995,https://www.zillow.com/homedetails/4802-W-St-Anne-Ave-Laveen-AZ-85339/95095483_zpid/,33.3866,-112.162,2017-10-03,2017-10-03
1087995,22747378,"480 E Bart Dr, Chandler, AZ 85225 ",85225,0.5549399852752686,235800,https://www.zillow.com/homedetails/480-E-Bart-Dr-Chandler-AZ-85225/8188152_zpid/,33.3146,-111.835,2017-10-08,2017-10-08
1118279,22710124,"2045 W Rockwell Dr, Chandler, AZ 85224 ",85224,0.554790198802948,235000,https://www.zillow.com/homedetails/2045-W-Rockwell-Dr-Chandler-AZ-85224/8201369_zpid/,33.3307,-111.87899999999999,2017-09-22,2017-09-22
196217,23527666,"3448 W Apollo Rd, Phoenix, AZ 85041 ",85041,0.5545790195465088,239900,https://www.zillow.com/homedetails/3448-W-Apollo-Rd-Phoenix-AZ-85041/82819918_zpid/,33.3863,-112.133,2017-10-11,2017-10-11
9020589,23527198,"1822 W Muirwood Dr, Phoenix, AZ 85045 ",85045,0.5541606545448303,269000,https://www.zillow.com/homedetails/1822-W-Muirwood-Dr-Phoenix-AZ-85045/8284870_zpid/,33.3019,-112.09899999999999,2017-10-11,2017-10-11
1109059,22740485,"1180 W Linda Ln, Chandler, AZ 85224 ",85224,0.5541211366653442,268000,https://www.zillow.com/homedetails/1180-W-Linda-Ln-Chandler-AZ-85224/8185825_zpid/,33.3179,-111.863,2017-10-05,2017-10-05
964842,23527867,"4626 W Butler Dr, Chandler, AZ 85226 ",85226,0.5540708899497986,267500,https://www.zillow.com/homedetails/4626-W-Butler-Dr-Chandler-AZ-85226/8166664_zpid/,33.3003,-111.92299999999999,2017-10-07,2017-10-07
702194,22484623,"3018 S El Dorado, Mesa, AZ 85202 ",85202,0.5538215637207031,244900,https://www.zillow.com/homedetails/3018-S-El-Dorado-Mesa-AZ-85202/8170933_zpid/,33.3599,-111.885,2017-08-07,2017-08-07
987130,23527770,"1240 S Crossbow Pl, Chandler, AZ 85286 ",85286,0.5537210702896118,265000,https://www.zillow.com/homedetails/1240-S-Crossbow-Pl-Chandler-AZ-85286/8209245_zpid/,33.2874,-111.829,2017-10-12,2017-10-12
2022640,23527872,"497 E Tulsa St, Chandler, AZ 85225 ",85225,0.5536155700683594,219900,https://www.zillow.com/homedetails/497-E-Tulsa-St-Chandler-AZ-85225/8187900_zpid/,33.3121,-111.834,2017-10-12,2017-10-12
241321,22658346,"4102 E La Puente Ave, Phoenix, AZ 85044 ",85044,0.5535115599632263,233900,https://www.zillow.com/homedetails/4102-E-La-Puente-Ave-Phoenix-AZ-85044/8258814_zpid/,33.3493,-111.995,2017-09-08,2017-09-08
532344,22486795,"6411 S 49th Gln, Laveen, AZ 85339 ",85339,0.5530704855918884,264700,https://www.zillow.com/homedetails/6411-S-49th-Gln-Laveen-AZ-85339/71604661_zpid/,33.3879,-112.165,2017-08-04,2017-08-04
476051,22657205,"3012 N 46th Ave, Phoenix, AZ 85031 ",85031,0.5528106689453125,169900,https://www.zillow.com/homedetails/3012-N-46th-Ave-Phoenix-AZ-85031/7509531_zpid/,33.4837,-112.15700000000001,2017-09-05,2017-09-05
409680,23404906,"4507 W Aster Dr, Glendale, AZ 85304 ",85304,0.552510678768158,124900,http://www.zillow.com/homedetails/4507-W-Aster-Dr-Glendale-AZ-85304/7955211_zpid,33.6016,-112.156,2017-09-24,2017-09-24
1111602,22713968,"1343 W Glenmere Dr, Chandler, AZ 85224 ",85224,0.5518247485160828,265000,https://www.zillow.com/homedetails/1343-W-Glenmere-Dr-Chandler-AZ-85224/8207346_zpid/,33.2953,-111.865,2017-09-24,2017-09-24
1128588,22727792,"3306 N Coronado St, Chandler, AZ 85224 ",85224,0.5517923831939697,259300,https://www.zillow.com/homedetails/3306-N-Coronado-St-Chandler-AZ-85224/8197516_zpid/,33.3534,-111.89,2017-09-28,2017-09-28
1115786,22735270,"1723 N Longmore St, Chandler, AZ 85224 ",85224,0.5517740249633789,233900,https://www.zillow.com/homedetails/1723-N-Longmore-St-Chandler-AZ-85224/8193731_zpid/,33.3324,-111.868,2017-10-02,2017-10-02
9002977,22615338,"1005 E Beth Dr, Phoenix, AZ 85042 ",85042,0.5516888499259949,247000,https://www.zillow.com/homedetails/1005-E-Beth-Dr-Phoenix-AZ-85042/55273126_zpid/,33.3646,-112.061,2017-08-31,2017-08-31
9006841,22731979,"5025 W Novak Way, Laveen, AZ 85339 ",85339,0.5516137480735779,210000,https://www.zillow.com/homedetails/5025-W-Novak-Way-Laveen-AZ-85339/67770631_zpid/,33.3885,-112.167,2017-09-30,2017-09-30
532534,22691516,"6519 S 43rd Ln, Laveen, AZ 85339 ",85339,0.5515220165252686,180000,https://www.zillow.com/homedetails/6519-S-43rd-Ln-Laveen-AZ-85339/67773735_zpid/,33.3875,-112.152,2017-09-19,2017-09-19
8969494,22697388,"2017 E Villa Theresa Dr, Phoenix, AZ 85022 ",85022,0.5510536432266235,259900,https://www.zillow.com/homedetails/2017-E-Villa-Theresa-Dr-Phoenix-AZ-85022/8000565_zpid/,33.6541,-112.039,2017-09-14,2017-09-14
1107574,22695448,"1050 W Estrella Dr, Chandler, AZ 85224 ",85224,0.5504807829856873,252500,https://www.zillow.com/homedetails/1050-W-Estrella-Dr-Chandler-AZ-85224/8194446_zpid/,33.3311,-111.861,2017-09-12,2017-09-12
1108964,22735248,"1169 W Boston St, Chandler, AZ 85224 ",85224,0.5504448413848877,260000,https://www.zillow.com/homedetails/1169-W-Boston-St-Chandler-AZ-85224/8207448_zpid/,33.3018,-111.86200000000001,2017-10-03,2017-10-03
197253,22528899,"4010 W Vineyard Rd, Phoenix, AZ 85041 ",85041,0.5504412651062012,263500,https://www.zillow.com/homedetails/4010-W-Vineyard-Rd-Phoenix-AZ-85041/55199367_zpid/,33.3844,-112.145,2017-08-17,2017-08-17
8989239,22649473,"7449 W Mountain View Rd, Peoria, AZ 85345 ",85345,0.5504202842712402,230000,https://www.zillow.com/homedetails/7449-W-Mountain-View-Rd-Peoria-AZ-85345/7702060_zpid/,33.5741,-112.219,2017-09-10,2017-09-10
1199585,22731289,"945 W Cantebria Dr, Gilbert, AZ 85233 ",85233,0.5497636795043945,249900,https://www.zillow.com/homedetails/945-W-Cantebria-Dr-Gilbert-AZ-85233/8181022_zpid/,33.3336,-111.811,2017-09-28,2017-09-28
1129148,22633248,"3408 N Apache Cir, Chandler, AZ 85224 ",85224,0.5496941208839417,220000,https://www.zillow.com/homedetails/3408-N-Apache-Cir-Chandler-AZ-85224/8172495_zpid/,33.3548,-111.86200000000001,2017-09-06,2017-09-06
1093461,22700884,"771 W Ivanhoe St, Chandler, AZ 85225 ",85225,0.5495842099189758,265000,https://www.zillow.com/homedetails/771-W-Ivanhoe-St-Chandler-AZ-85225/8189354_zpid/,33.3174,-111.854,2017-09-18,2017-09-18
9013934,22693998,"6216 S 21st St, Phoenix, AZ 85042 ",85042,0.5491430163383484,135000,https://www.zillow.com/homedetails/6216-S-21st-St-Phoenix-AZ-85042/7548779_zpid/,33.3902,-112.036,2017-09-19,2017-09-19
8958999,22580969,"4510 E Sandra Ter, Phoenix, AZ 85032 ",85032,0.549044668674469,399750,https://www.zillow.com/homedetails/4510-E-Sandra-Ter-Phoenix-AZ-85032/8019665_zpid/,33.6349,-111.984,2017-08-23,2017-08-23
987121,22681345,"1238 S Cholla Ct, Chandler, AZ 85286 ",85286,0.5487421154975891,259950,https://www.zillow.com/homedetails/1238-S-Cholla-Ct-Chandler-AZ-85286/8208827_zpid/,33.2878,-111.87299999999999,2017-09-13,2017-09-13
200239,22646763,"6509 S 11th Dr, Phoenix, AZ 85041 ",85041,0.5487310886383057,165000,https://www.zillow.com/homedetails/6509-S-11th-Dr-Phoenix-AZ-85041/55258221_zpid/,33.3876,-112.086,2017-09-09,2017-09-09
196550,22714145,"3717 W Nancy Ln, Phoenix, AZ 85041 ",85041,0.5484524965286255,209000,https://www.zillow.com/homedetails/3717-W-Nancy-Ln-Phoenix-AZ-85041/67774261_zpid/,33.3894,-112.139,2017-09-25,2017-09-25
202287,22735598,"7816 S 20th Ln, Phoenix, AZ 85041 ",85041,0.5482630133628845,260000,https://www.zillow.com/homedetails/7816-S-20th-Ln-Phoenix-AZ-85041/60984123_zpid/,33.3751,-112.104,2017-10-03,2017-10-03
1107842,22737147,"1098 W Whitten St, Chandler, AZ 85224 ",85224,0.5480973720550537,249900,https://www.zillow.com/homedetails/1098-W-Whitten-St-Chandler-AZ-85224/8207893_zpid/,33.2966,-111.86200000000001,2017-10-04,2017-10-04
1091909,23527907,"706 W Cheyenne Dr, Chandler, AZ 85225 ",85225,0.5480467677116394,245000,https://www.zillow.com/homedetails/706-W-Cheyenne-Dr-Chandler-AZ-85225/92348924_zpid/,33.3475,-111.852,2017-10-06,2017-10-06
973844,22740538,"628 N Dustin Ln, Chandler, AZ 85226 ",85226,0.5479893088340759,239900,https://www.zillow.com/homedetails/628-N-Dustin-Ln-Chandler-AZ-85226/8157254_zpid/,33.3139,-111.95200000000001,2017-10-05,2017-10-05
1119842,22644949,"2204 W Morino Ct, Chandler, AZ 85224 ",85224,0.5475752353668213,257500,https://www.zillow.com/homedetails/2204-W-Morino-Ct-Chandler-AZ-85224/8197242_zpid/,33.3551,-111.881,2017-09-08,2017-09-08
9019268,22733024,"6421 S 47th Dr, Laveen, AZ 85339 ",85339,0.5474490523338318,245000,https://www.zillow.com/homedetails/6421-S-47th-Dr-Laveen-AZ-85339/2092550593_zpid/,33.3714,-112.16,2017-10-01,2017-10-01
13624,22644691,"2526 W Beverly Rd, Phoenix, AZ 85041 ",85041,0.5469525456428528,207000,https://www.zillow.com/homedetails/2526-W-Beverly-Rd-Phoenix-AZ-85041/92425316_zpid/,33.3747,-112.11399999999999,2017-09-08,2017-09-08
532405,22735008,"6424 S 47th Ln, Laveen, AZ 85339 ",85339,0.5465694665908813,219000,https://www.zillow.com/homedetails/6424-S-47th-Ln-Laveen-AZ-85339/89220304_zpid/,33.3766,-112.161,2017-10-02,2017-10-02
1119055,22747260,"2118 N Verano Way, Chandler, AZ 85224 ",85224,0.5464786291122437,244900,https://www.zillow.com/homedetails/2118-N-Verano-Way-Chandler-AZ-85224/8176209_zpid/,33.3384,-111.863,2017-10-09,2017-10-09
197471,22508622,"4048 W Alta Vista Rd, Phoenix, AZ 85041 ",85041,0.5462748408317566,145000,https://www.zillow.com/homedetails/4048-W-Alta-Vista-Rd-Phoenix-AZ-85041/7504657_zpid/,33.3882,-112.146,2017-08-15,2017-08-15
483971,22688771,"2734 N 73rd Gln, Phoenix, AZ 85035 ",85035,0.5461928248405457,209900,https://www.zillow.com/homedetails/2734-N-73rd-Gln-Phoenix-AZ-85035/95167972_zpid/,33.4783,-112.21799999999999,2017-09-18,2017-09-18
197482,22583505,"4050 W Nancy Ln, Phoenix, AZ 85041 ",85041,0.5459877252578735,141000,https://www.zillow.com/homedetails/4050-W-Nancy-Ln-Phoenix-AZ-85041/7504586_zpid/,33.3895,-112.146,2017-08-26,2017-08-26
9004332,22629482,"7237 N 77th Dr, Glendale, AZ 85303 ",85303,0.5459781289100647,237141,https://www.zillow.com/homedetails/7237-N-77th-Dr-Glendale-AZ-85303/2092886329_zpid/,33.5401,-112.225,2017-09-05,2017-09-05
1110284,22710162,"1251 W Gail Dr, Chandler, AZ 85224 ",85224,0.5458184480667114,245000,https://www.zillow.com/homedetails/1251-W-Gail-Dr-Chandler-AZ-85224/8203688_zpid/,33.3227,-111.863,2017-09-22,2017-09-22
345142,22682980,"1739 E Bluefield Ave, Phoenix, AZ 85022 ",85022,0.545750617980957,237000,https://www.zillow.com/homedetails/1739-E-Bluefield-Ave-Phoenix-AZ-85022/8001407_zpid/,33.6526,-112.044,2017-09-13,2017-09-13
1111276,22710093,"1317 W Boxelder Ct, Chandler, AZ 85224 ",85224,0.5454127788543701,195000,https://www.zillow.com/homedetails/1317-W-Boxelder-Ct-Chandler-AZ-85224/8172408_zpid/,33.3542,-111.865,2017-09-22,2017-09-22
52401,22726817,"2974 E Glenhaven Dr, Phoenix, AZ 85048 ",85048,0.5453469157218933,365000,https://www.zillow.com/homedetails/2974-E-Glenhaven-Dr-Phoenix-AZ-85048/119919979_zpid/,33.2952,-112.021,2017-09-27,2017-09-27
9012405,22683247,"7326 W Sierra St, Peoria, AZ 85345 ",85345,0.5447568893432617,228000,https://www.zillow.com/homedetails/7326-W-Sierra-St-Peoria-AZ-85345/7700347_zpid/,33.5903,-112.21700000000001,2017-09-15,2017-09-15
957251,22735288,"3211 W Golden Ln, Chandler, AZ 85226 ",85226,0.5446233749389648,250000,https://www.zillow.com/homedetails/3211-W-Golden-Ln-Chandler-AZ-85226/8263630_zpid/,33.3246,-111.898,2017-10-02,2017-10-02
8986445,22486834,"6927 W Alta Vista Rd, Laveen, AZ 85339 ",85339,0.5445234179496765,217500,https://www.zillow.com/homedetails/6927-W-Alta-Vista-Rd-Laveen-AZ-85339/64661067_zpid/,33.3883,-112.209,2017-08-07,2017-08-07
9012403,22710599,"7144 W Yucca St, Peoria, AZ 85345 ",85345,0.5445224046707153,235000,https://www.zillow.com/homedetails/7144-W-Yucca-St-Peoria-AZ-85345/7701197_zpid/,33.5879,-112.213,2017-09-22,2017-09-22
9006564,22655891,"16612 N 28th Way, Phoenix, AZ 85032 ",85032,0.5442935228347778,199000,https://www.zillow.com/homedetails/16612-N-28th-Way-Phoenix-AZ-85032/8005824_zpid/,33.6376,-112.021,2017-09-11,2017-09-11
3857,22698340,"2670 W Mcnair St, Chandler, AZ 85224 ",85224,0.5441167950630188,250000,https://www.zillow.com/homedetails/2670-W-Mcnair-St-Chandler-AZ-85224/8171583_zpid/,33.3509,-111.889,2017-08-30,2017-08-30
1110100,22681363,"1240 W Straford Dr, Chandler, AZ 85224 ",85224,0.5439320206642151,205777,https://www.zillow.com/homedetails/1240-W-Straford-Dr-Chandler-AZ-85224/8172385_zpid/,33.3532,-111.863,2017-09-12,2017-09-12
8997631,22573142,"4511 E Saint Catherine Ave, Phoenix, AZ 85042 ",85042,0.5437731742858887,165000,https://www.zillow.com/homedetails/4511-E-Saint-Catherine-Ave-Phoenix-AZ-85042/7555639_zpid/,33.3885,-111.985,2017-08-24,2017-08-24
9005581,22636537,"611 N 63rd Ln, Phoenix, AZ 85043 ",85043,0.5437310338020325,176900,https://www.zillow.com/homedetails/611-N-63rd-Ln-Phoenix-AZ-85043/2092857360_zpid/,33.4555,-112.195,2017-09-07,2017-09-07
201390,22494850,"709 W Saint Charles Ave, Phoenix, AZ 85041 ",85041,0.5433306694030762,174900,https://www.zillow.com/homedetails/709-W-Saint-Charles-Ave-Phoenix-AZ-85041/60976439_zpid/,33.3859,-112.083,2017-08-02,2017-08-02
9019188,22732337,"7507 S 12th Ave, Phoenix, AZ 85041 ",85041,0.5432172417640686,235732,https://www.zillow.com/homedetails/7507-S-12th-Ave-Phoenix-AZ-85041/95161575_zpid/,33.3783,-112.087,2017-09-30,2017-09-30
421329,22604017,"6313 W Onyx Ave, Glendale, AZ 85302 ",85302,0.5428446531295776,220000,https://www.zillow.com/homedetails/6313-W-Onyx-Ave-Glendale-AZ-85302/7706173_zpid/,33.5767,-112.196,2017-09-01,2017-09-01
9012379,22682953,"928 N Central Dr, Chandler, AZ 85224 ",85224,0.542838990688324,249000,https://www.zillow.com/homedetails/928-N-Central-Dr-Chandler-AZ-85224/8186076_zpid/,33.3193,-111.863,2017-09-15,2017-09-15
414806,22647037,"6601 W Poinsettia Dr, Glendale, AZ 85304 ",85304,0.5425419807434082,195000,https://www.zillow.com/homedetails/6601-W-Poinsettia-Dr-Glendale-AZ-85304/7699545_zpid/,33.5934,-112.20100000000001,2017-09-09,2017-09-09
1111878,22746069,"1380 W Whitten St, Chandler, AZ 85224 ",85224,0.5423426628112793,245000,https://www.zillow.com/homedetails/1380-W-Whitten-St-Chandler-AZ-85224/8207259_zpid/,33.2962,-111.866,2017-10-09,2017-10-09
1096699,22740549,"884 E Morelos St, Chandler, AZ 85225 ",85225,0.5423426628112793,245000,https://www.zillow.com/homedetails/884-E-Morelos-St-Chandler-AZ-85225/8206332_zpid/,33.2944,-111.82700000000001,2017-10-03,2017-10-03
257689,22737016,"916 W Villa Theresa Dr, Phoenix, AZ 85023 ",85023,0.5416858792304993,239995,https://www.zillow.com/homedetails/916-W-Villa-Theresa-Dr-Phoenix-AZ-85023/7956803_zpid/,33.6543,-112.086,2017-09-15,2017-09-15
1117795,22605591,"2009 W Erie St, Chandler, AZ 85224 ",85224,0.5415897369384766,259000,https://www.zillow.com/homedetails/2009-W-Erie-St-Chandler-AZ-85224/8185112_zpid/,33.3097,-111.87700000000001,2017-09-02,2017-09-02
196590,22746433,"3721 W Saint Anne Ave, Phoenix, AZ 85041 ",85041,0.5415034890174866,234900,https://www.zillow.com/homedetails/3721-W-Saint-Anne-Ave-Phoenix-AZ-85041/81983084_zpid/,33.3869,-112.139,2017-10-04,2017-10-04
8979550,22567935,"6607 S 17th Pl, Phoenix, AZ 85042 ",85042,0.5414084792137146,228000,https://www.zillow.com/homedetails/6607-S-17th-Pl-Phoenix-AZ-85042/7549253_zpid/,33.3865,-112.04299999999999,2017-08-23,2017-08-23
8958779,22717454,"7426 S 46th St, Phoenix, AZ 85042 ",85042,0.5414084792137146,235000,https://www.zillow.com/homedetails/7426-S-46th-St-Phoenix-AZ-85042/7552545_zpid/,33.3792,-111.98200000000001,2017-09-08,2017-09-08
199575,22576273,"6032 S 20th Ave, Phoenix, AZ 85041 ",85041,0.5412923693656921,204900,https://www.zillow.com/homedetails/6032-S-20th-Ave-Phoenix-AZ-85041/67781701_zpid/,33.3915,-112.102,2017-08-24,2017-08-24
196517,22710785,"3714 W Burgess Ln, Phoenix, AZ 85041 ",85041,0.5412312150001526,229000,https://www.zillow.com/homedetails/3714-W-Burgess-Ln-Phoenix-AZ-85041/67774286_zpid/,33.3891,-112.139,2017-09-21,2017-09-21
1096718,22727814,"884 W Dublin St, Chandler, AZ 85225 ",85225,0.5411279797554016,259000,https://www.zillow.com/homedetails/884-W-Dublin-St-Chandler-AZ-85225/8186411_zpid/,33.3188,-111.85799999999999,2017-09-28,2017-09-28
9013151,22688250,"7812 S 38th St, Phoenix, AZ 85042 ",85042,0.5409801006317139,247900,https://www.zillow.com/homedetails/7812-S-38th-St-Phoenix-AZ-85042/82386563_zpid/,33.3759,-112.001,2017-09-13,2017-09-13
407091,22644243,"5513 W Boca Raton Rd, Glendale, AZ 85306 ",85306,0.5408071279525757,214000,https://www.zillow.com/homedetails/5513-W-Boca-Raton-Rd-Glendale-AZ-85306/7911121_zpid/,33.611,-112.178,2017-09-08,2017-09-08
8982888,23512017,"1122 E Beth Dr, Phoenix, AZ 85042 ",85042,0.5407149195671082,224400,https://www.zillow.com/homedetails/1122-E-Beth-Dr-Phoenix-AZ-85042/55273116_zpid/,33.3646,-112.059,2017-10-10,2017-10-10
7419198,22716818,"4412 E Villa Theresa Dr, Phoenix, AZ 85032 ",85032,0.5403196811676025,267500,https://www.zillow.com/homedetails/4412-E-Villa-Theresa-Dr-Phoenix-AZ-85032/8017213_zpid/,33.655,-111.985,2017-09-23,2017-09-23
256320,22745705,"4221 W Redfield Rd, Phoenix, AZ 85053 ",85053,0.5400794744491577,220000,https://www.zillow.com/homedetails/4221-W-Redfield-Rd-Phoenix-AZ-85053/7945153_zpid/,33.6138,-112.148,2017-10-07,2017-10-07
195942,22528869,"3334 W Fraktur Rd, Phoenix, AZ 85041 ",85041,0.539642870426178,219900,https://www.zillow.com/homedetails/3334-W-Fraktur-Rd-Phoenix-AZ-85041/67781582_zpid/,33.3954,-112.13,2017-08-17,2017-08-17
559806,22747210,"1320 W Pecos Ave, Mesa, AZ 85202 ",85202,0.5393790006637573,243900,https://www.zillow.com/homedetails/1320-W-Pecos-Ave-Mesa-AZ-85202/8171833_zpid/,33.36,-111.861,2017-10-06,2017-10-06
9013123,22731993,"7321 W Darrel Rd, Laveen, AZ 85339 ",85339,0.539050281047821,217000,https://www.zillow.com/homedetails/7321-W-Darrel-Rd-Laveen-AZ-85339/81954198_zpid/,33.3837,-112.21600000000001,2017-09-28,2017-09-28
9019932,22747216,"1431 E Winston Dr, Phoenix, AZ 85042 ",85042,0.5389928221702576,159900,https://www.zillow.com/homedetails/1431-E-Winston-Dr-Phoenix-AZ-85042/8131471_zpid/,33.3692,-112.052,2017-10-08,2017-10-08
648429,22737253,"2326 W Plata Ave, Mesa, AZ 85202 ",85202,0.5389658808708191,160000,https://www.zillow.com/homedetails/2326-W-Plata-Ave-Mesa-AZ-85202/8170883_zpid/,33.3605,-111.884,2017-10-04,2017-10-04
369367,22737314,"3750 E Kristal Way, Phoenix, AZ 85050 ",85050,0.5387354493141174,262000,https://www.zillow.com/homedetails/3750-E-Kristal-Way-Phoenix-AZ-85050/81956367_zpid/,33.6619,-112.00200000000001,2017-09-30,2017-09-30
182772,22714422,"1026 E Hiddenview Dr, Phoenix, AZ 85048 ",85048,0.5386351943016052,330000,https://www.zillow.com/homedetails/1026-E-Hiddenview-Dr-Phoenix-AZ-85048/8135252_zpid/,33.3018,-112.06,2017-09-19,2017-09-19
52409,22621376,"2977 E Nighthawk Way, Phoenix, AZ 85048 ",85048,0.5384706258773804,358998,https://www.zillow.com/homedetails/2977-E-Nighthawk-Way-Phoenix-AZ-85048/121423758_zpid/,33.2969,-112.021,2017-08-31,2017-08-31
424819,22663108,"9632 N 53rd Ave, Glendale, AZ 85302 ",85302,0.5384603142738342,205000,https://www.zillow.com/homedetails/9632-N-53rd-Ave-Glendale-AZ-85302/7734288_zpid/,33.5739,-112.17399999999999,2017-09-12,2017-09-12
202983,22736991,"9216 S 7th Ave, Phoenix, AZ 85041 ",85041,0.5383539199829102,193750,https://www.zillow.com/homedetails/9216-S-7th-Ave-Phoenix-AZ-85041/8132490_zpid/,33.3626,-112.084,2017-09-05,2017-09-05
40062,22593662,"2430 S 82nd Ln, Phoenix, AZ 85043 ",85043,0.5383114814758301,195500,https://www.zillow.com/homedetails/2430-S-82nd-Ln-Phoenix-AZ-85043/52423829_zpid/,33.4256,-112.238,2017-08-28,2017-08-28
9020029,22741443,"4625 N 78th Ave, Phoenix, AZ 85033 ",85033,0.5381765365600586,159900,https://www.zillow.com/homedetails/4625-N-78th-Ave-Phoenix-AZ-85033/7468218_zpid/,33.5048,-112.227,2017-10-06,2017-10-06
9011925,22678292,"3625 N 72nd Ln, Phoenix, AZ 85033 ",85033,0.5379745960235596,129000,https://www.zillow.com/homedetails/3625-N-72nd-Ln-Phoenix-AZ-85033/7468954_zpid/,33.4906,-112.215,2017-09-14,2017-09-14
8993176,22540806,"607 N 63rd Ln, Phoenix, AZ 85043 ",85043,0.5379672050476074,179900,https://www.zillow.com/homedetails/607-N-63rd-Ln-Phoenix-AZ-85043/2093082380_zpid/,33.4554,-112.195,2017-08-17,2017-08-17
531811,23527697,"5820 W Gwen St, Laveen, AZ 85339 ",85339,0.5377596616744995,205000,https://www.zillow.com/homedetails/5820-W-Gwen-St-Laveen-AZ-85339/81956525_zpid/,33.3654,-112.184,2017-10-11,2017-10-11
1921077,22746462,"6937 W Sophie Ln, Laveen, AZ 85339 ",85339,0.5377500057220459,269000,https://www.zillow.com/homedetails/6937-W-Sophie-Ln-Laveen-AZ-85339/71613692_zpid/,33.3764,-112.208,2017-10-05,2017-10-05
193416,22726087,"2420 W Beverly Rd, Phoenix, AZ 85041 ",85041,0.5376721620559692,269000,https://www.zillow.com/homedetails/2420-W-Beverly-Rd-Phoenix-AZ-85041/95143075_zpid/,33.3755,-112.11200000000001,2017-09-27,2017-09-27
9017689,22731984,"4808 W Desert Ln, Laveen, AZ 85339 ",85339,0.5376197695732117,266500,https://www.zillow.com/homedetails/4808-W-Desert-Ln-Laveen-AZ-85339/60984448_zpid/,33.372,-112.163,2017-09-30,2017-09-30
1373837,22708249,"8783 W Augusta Ave, Glendale, AZ 85305 ",85305,0.5373532176017761,259900,https://www.zillow.com/homedetails/8783-W-Augusta-Ave-Glendale-AZ-85305/67770841_zpid/,33.5503,-112.24799999999999,2017-09-22,2017-09-22
202179,22747496,"7707 S 25th Ave, Phoenix, AZ 85041 ",85041,0.5372575521469116,234800,https://www.zillow.com/homedetails/7707-S-25th-Ave-Phoenix-AZ-85041/81984354_zpid/,33.3768,-112.113,2017-09-28,2017-09-28
193092,23512160,"2336 W Fawn Dr, Phoenix, AZ 85041 ",85041,0.5372575521469116,246900,https://www.zillow.com/homedetails/2336-W-Fawn-Dr-Phoenix-AZ-85041/81997525_zpid/,33.3757,-112.111,2017-09-28,2017-09-28
1408938,22494674,"6956 W Northview Ave, Glendale, AZ 85303 ",85303,0.5372167229652405,138000,https://www.zillow.com/homedetails/6956-W-Northview-Ave-Glendale-AZ-85303/7704861_zpid/,33.543,-112.21,2017-08-01,2017-08-01
405858,22677905,"4921 W Acoma Dr, Glendale, AZ 85306 ",85306,0.536938488483429,265000,https://www.zillow.com/homedetails/4921-W-Acoma-Dr-Glendale-AZ-85306/7952329_zpid/,33.6177,-112.165,2017-09-15,2017-09-15
622903,22575333,"1328 S Revere, Mesa, AZ 85210 ",85210,0.5369340777397156,205000,https://www.zillow.com/homedetails/1328-S-Revere-Mesa-AZ-85210/7599275_zpid/,33.3906,-111.848,2017-08-24,2017-08-24
9016482,22710639,"7522 W Turquoise Ave, Peoria, AZ 85345 ",85345,0.5368495583534241,222000,https://www.zillow.com/homedetails/7522-W-Turquoise-Ave-Peoria-AZ-85345/7682171_zpid/,33.5747,-112.221,2017-09-22,2017-09-22
8978947,22739778,"7434 W Carter Rd, Laveen, AZ 85339 ",85339,0.5368401408195496,222850,https://www.zillow.com/homedetails/7434-W-Carter-Rd-Laveen-AZ-85339/88791130_zpid/,33.3816,-112.219,2017-10-05,2017-10-05
8950733,22746483,"7306 S 72nd Ln, Laveen, AZ 85339 ",85339,0.5365182161331177,264999,https://www.zillow.com/homedetails/7306-S-72nd-Ln-Laveen-AZ-85339/67800150_zpid/,33.3798,-112.215,2017-10-05,2017-10-05
401637,22597402,"11239 N 49th Ln, Glendale, AZ 85304 ",85304,0.5364715456962585,209900,https://www.zillow.com/homedetails/11239-N-49th-Ln-Glendale-AZ-85304/7728433_zpid/,33.5885,-112.166,2017-08-28,2017-08-28
8985653,22747530,"9005 S 11th Pl, Phoenix, AZ 85042 ",85042,0.5362369418144226,225000,https://www.zillow.com/homedetails/9005-S-11th-Pl-Phoenix-AZ-85042/55273051_zpid/,33.3644,-112.05799999999999,2017-10-07,2017-10-07
202263,23527083,"7810 S 20th Dr, Phoenix, AZ 85041 ",85041,0.5361548066139221,260000,https://www.zillow.com/homedetails/7810-S-20th-Dr-Phoenix-AZ-85041/60984151_zpid/,33.3755,-112.103,2017-10-11,2017-10-11
222617,22606562,"1010 W Renee Dr, Phoenix, AZ 85027 ",85027,0.5361309051513672,245000,https://www.zillow.com/homedetails/1010-W-Renee-Dr-Phoenix-AZ-85027/7971269_zpid/,33.6551,-112.085,2017-08-30,2017-08-30
194918,22687936,"3014 W Fremont Rd, Phoenix, AZ 85041 ",85041,0.5361098647117615,195000,https://www.zillow.com/homedetails/3014-W-Fremont-Rd-Phoenix-AZ-85041/60977236_zpid/,33.3814,-112.124,2017-09-14,2017-09-14
39875,22624998,"1906 S 80th Ave, Phoenix, AZ 85043 ",85043,0.5360890030860901,187900,https://www.zillow.com/homedetails/1906-S-80th-Ave-Phoenix-AZ-85043/59271739_zpid/,33.431,-112.23200000000001,2017-09-04,2017-09-04
639551,22747428,"604 W Kiva Ave, Mesa, AZ 85210 ",85210,0.5360358953475952,245000,https://www.zillow.com/homedetails/604-W-Kiva-Ave-Mesa-AZ-85210/8170162_zpid/,33.3769,-111.84700000000001,2017-10-05,2017-10-05
8963828,23527721,"7351 W Sophie Ln, Laveen, AZ 85339 ",85339,0.5357627868652344,227900,https://www.zillow.com/homedetails/7351-W-Sophie-Ln-Laveen-AZ-85339/71613850_zpid/,33.3764,-112.21799999999999,2017-10-12,2017-10-12
219954,22601866,"825 E Ruth Ave, Phoenix, AZ 85020 ",85020,0.5357524156570435,249900,https://www.zillow.com/homedetails/825-E-Ruth-Ave-Phoenix-AZ-85020/7789613_zpid/,33.5632,-112.06299999999999,2017-09-01,2017-09-01
381397,22493733,"3001 W Royal Palm Rd, Phoenix, AZ 85051 ",85051,0.5357522964477539,113000,https://www.zillow.com/homedetails/3001-W-Royal-Palm-Rd-Phoenix-AZ-85051/7751222_zpid/,33.5557,-112.124,2017-08-10,2017-08-10
9019432,22735020,"7313 W Gary Way, Laveen, AZ 85339 ",85339,0.5353792905807495,200000,https://www.zillow.com/homedetails/7313-W-Gary-Way-Laveen-AZ-85339/81968705_zpid/,33.3738,-112.215,2017-10-01,2017-10-01
485006,22743992,"2841 N 71st Ave, Phoenix, AZ 85035 ",85035,0.5353680849075317,90000,https://www.zillow.com/homedetails/2841-N-71st-Ave-Phoenix-AZ-85035/7476072_zpid/,33.4799,-112.212,2017-10-06,2017-10-06
187807,22707289,"3418 E Woodland Dr, Phoenix, AZ 85048 ",85048,0.5349681973457336,309900,https://www.zillow.com/homedetails/3418-E-Woodland-Dr-Phoenix-AZ-85048/8255393_zpid/,33.301,-112.009,2017-09-22,2017-09-22
832330,22693219,"4148 W Maryland Ave, Phoenix, AZ 85019 ",85019,0.5347883701324463,186500,https://www.zillow.com/homedetails/4148-W-Maryland-Ave-Phoenix-AZ-85019/7762142_zpid/,33.5312,-112.149,2017-09-19,2017-09-19
255186,23512236,"4022 W Dailey St, Phoenix, AZ 85053 ",85053,0.5346757769584656,239000,https://www.zillow.com/homedetails/4022-W-Dailey-St-Phoenix-AZ-85053/7945098_zpid/,33.6135,-112.146,2017-10-11,2017-10-11
9011933,22678376,"7934 W Mitchell Dr, Phoenix, AZ 85033 ",85033,0.5344469547271729,155000,https://www.zillow.com/homedetails/7934-W-Mitchell-Dr-Phoenix-AZ-85033/7478637_zpid/,33.4893,-112.23,2017-09-12,2017-09-12
9005641,22637113,"4132 W Angela Dr, Glendale, AZ 85308 ",85308,0.5341901779174805,259900,https://www.zillow.com/homedetails/4132-W-Angela-Dr-Glendale-AZ-85308/7947149_zpid/,33.6449,-112.149,2017-09-07,2017-09-07
643119,22677281,"636 W Lindner Ave, Mesa, AZ 85210 ",85210,0.5340008735656738,227000,https://www.zillow.com/homedetails/636-W-Lindner-Ave-Mesa-AZ-85210/8170188_zpid/,33.3762,-111.848,2017-09-12,2017-09-12
34953,22615383,"2421 E Tamarisk Ave, Phoenix, AZ 85040 ",85040,0.5337931513786316,199000,https://www.zillow.com/homedetails/2421-E-Tamarisk-Ave-Phoenix-AZ-85040/81967106_zpid/,33.4039,-112.029,2017-08-30,2017-08-30
831985,22626043,"4114 W Berridge Ln, Phoenix, AZ 85019 ",85019,0.5336773991584778,175000,https://www.zillow.com/homedetails/4114-W-Berridge-Ln-Phoenix-AZ-85019/7760500_zpid/,33.5256,-112.148,2017-09-05,2017-09-05
195703,22746425,"3256 W Huntington Dr, Phoenix, AZ 85041 ",85041,0.5334580540657043,217900,https://www.zillow.com/homedetails/3256-W-Huntington-Dr-Phoenix-AZ-85041/71601711_zpid/,33.393,-112.12899999999999,2017-10-06,2017-10-06
828736,22708030,"3602 W Pasadena Ave, Phoenix, AZ 85019 ",85019,0.5332921743392944,197500,https://www.zillow.com/homedetails/3602-W-Pasadena-Ave-Phoenix-AZ-85019/7719981_zpid/,33.5109,-112.137,2017-09-20,2017-09-20
198200,22613787,"4831 S 4th Ave, Phoenix, AZ 85041 ",85041,0.5331728458404541,219999,https://www.zillow.com/homedetails/4831-S-4th-Ave-Phoenix-AZ-85041/95134932_zpid/,33.402,-112.07799999999999,2017-09-01,2017-09-01
631421,22746464,"7111 S 75th Dr, Laveen, AZ 85339 ",85339,0.5330939888954163,180000,https://www.zillow.com/homedetails/7111-S-75th-Dr-Laveen-AZ-85339/95126681_zpid/,33.3821,-112.22,2017-10-07,2017-10-07
8945113,22686054,"7920 W Sweetwater Ave, Peoria, AZ 85381 ",85381,0.5328254699707031,237900,https://www.zillow.com/homedetails/7920-W-Sweetwater-Ave-Peoria-AZ-85381/8100881_zpid/,33.6029,-112.23,2017-09-17,2017-09-17
9005161,22742586,"7814 S 74th Ln, Laveen, AZ 85339 ",85339,0.5327980518341064,247500,https://www.zillow.com/homedetails/7814-S-74th-Ln-Laveen-AZ-85339/71613803_zpid/,33.3754,-112.22,2017-10-05,2017-10-05
197173,22710790,"4001 W Irwin Ave, Phoenix, AZ 85041 ",85041,0.5326970815658569,208000,https://www.zillow.com/homedetails/4001-W-Irwin-Ave-Phoenix-AZ-85041/55258549_zpid/,33.3823,-112.145,2017-09-21,2017-09-21
786220,22436119,"1412 S Fraser Cir, Mesa, AZ 85204 ",85204,0.5324095487594604,219000,https://www.zillow.com/homedetails/1412-S-Fraser-Cir-Mesa-AZ-85204/7629331_zpid/,33.3894,-111.81200000000001,2017-07-29,2017-07-29
8987452,22714094,"13360 N 79th Ave, Peoria, AZ 85381 ",85381,0.5323873162269592,239999,https://www.zillow.com/homedetails/13360-N-79th-Ave-Peoria-AZ-85381/8100973_zpid/,33.6063,-112.229,2017-09-23,2017-09-23
1410625,22693095,"7112 W Mclellan Rd, Glendale, AZ 85303 ",85303,0.5322046875953674,186000,https://www.zillow.com/homedetails/7112-W-Mclellan-Rd-Glendale-AZ-85303/7706816_zpid/,33.5323,-112.213,2017-09-19,2017-09-19
648290,22716096,"2323 W Osage Ave, Mesa, AZ 85202 ",85202,0.5316015481948853,265000,https://www.zillow.com/homedetails/2323-W-Osage-Ave-Mesa-AZ-85202/8171717_zpid/,33.3624,-111.884,2017-09-20,2017-09-20
827683,22544155,"3017 N 40th Dr, Phoenix, AZ 85019 ",85019,0.531504213809967,140000,https://www.zillow.com/homedetails/3017-N-40th-Dr-Phoenix-AZ-85019/7509168_zpid/,33.483000000000004,-112.146,2017-08-16,2017-08-16
409500,22707811,"4424 W Altadena Ave, Glendale, AZ 85304 ",85304,0.531336784362793,204900,https://www.zillow.com/homedetails/4424-W-Altadena-Ave-Glendale-AZ-85304/7726874_zpid/,33.5918,-112.154,2017-09-22,2017-09-22
420176,22643921,"5671 W Harmont Dr, Glendale, AZ 85302 ",85302,0.531108558177948,259000,https://www.zillow.com/homedetails/5671-W-Harmont-Dr-Glendale-AZ-85302/67790282_zpid/,33.5563,-112.181,2017-09-08,2017-09-08
9012332,23526924,"2231 E Claire Dr, Phoenix, AZ 85022 ",85022,0.5310600399971008,225900,https://www.zillow.com/homedetails/2231-E-Claire-Dr-Phoenix-AZ-85022/8014060_zpid/,33.6202,-112.03399999999999,2017-10-11,2017-10-11
503981,22604091,"2201 N 48th Ln, Phoenix, AZ 85035 ",85035,0.531032919883728,134900,https://www.zillow.com/homedetails/2201-N-48th-Ln-Phoenix-AZ-85035/7494374_zpid/,33.4716,-112.164,2017-08-30,2017-08-30
392397,22707807,"4150 W Ruth Ave, Phoenix, AZ 85051 ",85051,0.530965268611908,209900,https://www.zillow.com/homedetails/4150-W-Ruth-Ave-Phoenix-AZ-85051/7753222_zpid/,33.563,-112.149,2017-09-21,2017-09-21
700481,22677195,"2550 W Knowles Ave, Mesa, AZ 85202 ",85202,0.5309311151504517,259900,https://www.zillow.com/homedetails/2550-W-Knowles-Ave-Mesa-AZ-85202/8253095_zpid/,33.3781,-111.889,2017-09-13,2017-09-13
8991541,22696995,"17661 N 35th Pl, Phoenix, AZ 85032 ",85032,0.5309104919433594,229000,https://www.zillow.com/homedetails/17661-N-35th-Pl-Phoenix-AZ-85032/7998301_zpid/,33.6474,-112.00299999999999,2017-09-12,2017-09-12
8947235,23527718,"7351 W St Charles Ave, Laveen, AZ 85339 ",85339,0.5308553576469421,214900,https://www.zillow.com/homedetails/7351-W-St-Charles-Ave-Laveen-AZ-85339/81985822_zpid/,33.3851,-112.21799999999999,2017-10-10,2017-10-10
490685,22737345,"5511 W Windsor Ave, Phoenix, AZ 85035 ",85035,0.5307429432868958,145000,https://www.zillow.com/homedetails/5511-W-Windsor-Ave-Phoenix-AZ-85035/7491875_zpid/,33.4779,-112.178,2017-09-15,2017-09-15
9006368,22743989,"4701 N 79th Dr, Phoenix, AZ 85033 ",85033,0.530433714389801,157000,https://www.zillow.com/homedetails/4701-N-79th-Dr-Phoenix-AZ-85033/82779611_zpid/,33.5056,-112.229,2017-10-06,2017-10-06
8990467,22512781,"1711 E Harvard Street Phoenix Az, Phoenix, AZ 85006 ",85006,0.5302437543869019,100000,https://www.zillow.com/homedetails/1711-E-Harvard-Street-Phoenix-Az-Phoenix-AZ-85006/2093095994_zpid/,33.4742,-112.04700000000001,2017-08-16,2017-08-16
460110,22637518,"5744 W Fairmount Ave, Phoenix, AZ 85031 ",85031,0.5301694869995117,150000,https://www.zillow.com/homedetails/5744-W-Fairmount-Ave-Phoenix-AZ-85031/67081866_zpid/,33.4932,-112.184,2017-09-07,2017-09-07
8988340,22660870,"4306 W Claremont St, Glendale, AZ 85301 ",85301,0.5301027894020081,212000,https://www.zillow.com/homedetails/4306-W-Claremont-St-Glendale-AZ-85301/7724180_zpid/,33.5292,-112.152,2017-09-07,2017-09-07
9020478,22934854,"7273 W Shaw Butte Dr, Peoria, AZ 85345 ",85345,0.5300914645195007,212000,https://www.zillow.com/homedetails/7273-W-Shaw-Butte-Dr-Peoria-AZ-85345/7700220_zpid/,33.5954,-112.21600000000001,2017-10-09,2017-10-09
412062,22734702,"5339 W Cholla St, Glendale, AZ 85304 ",85304,0.5300137400627136,214500,https://www.zillow.com/homedetails/5339-W-Cholla-St-Glendale-AZ-85304/7736846_zpid/,33.5891,-112.175,2017-10-03,2017-10-03
195902,23527658,"3329 W Chanute Pass, Phoenix, AZ 85041 ",85041,0.5299698114395142,225900,https://www.zillow.com/homedetails/3329-W-Chanute-Pass-Phoenix-AZ-85041/71628063_zpid/,33.398,-112.131,2017-10-11,2017-10-11
828364,22680594,"3526 W Maryland Ave, Phoenix, AZ 85019 ",85019,0.5299398899078369,172000,https://www.zillow.com/homedetails/3526-W-Maryland-Ave-Phoenix-AZ-85019/7761653_zpid/,33.5315,-112.13600000000001,2017-09-15,2017-09-15
412014,22680755,"5332 W Saguaro Dr, Glendale, AZ 85304 ",85304,0.5298870801925659,239000,https://www.zillow.com/homedetails/5332-W-Saguaro-Dr-Glendale-AZ-85304/7736609_zpid/,33.5836,-112.175,2017-09-13,2017-09-13
8963824,22725798,"7134 W Carter Rd, Laveen, AZ 85339 ",85339,0.5298826098442078,245000,https://www.zillow.com/homedetails/7134-W-Carter-Rd-Laveen-AZ-85339/82823284_zpid/,33.3816,-112.213,2017-09-27,2017-09-27
226015,22578180,"1506 E Topeka Dr, Phoenix, AZ 85024 ",85024,0.5297643542289734,239000,https://www.zillow.com/homedetails/1506-E-Topeka-Dr-Phoenix-AZ-85024/7995843_zpid/,33.6602,-112.05,2017-08-25,2017-08-25
247198,22742378,"3422 W Banff Ln, Phoenix, AZ 85053 ",85053,0.52970290184021,175000,https://www.zillow.com/homedetails/3422-W-Banff-Ln-Phoenix-AZ-85053/7943766_zpid/,33.6209,-112.132,2017-09-17,2017-09-17
8968501,22658494,"1041 E El Drive Caminito, Phoenix, AZ 85020 ",85020,0.5296647548675537,252500,https://www.zillow.com/homedetails/1041-E-El-Drive-Caminito-Phoenix-AZ-85020/2093631397_zpid/,33.5587,-112.059,2017-09-10,2017-09-10
963482,22716833,"4523 W Mercury Way, Chandler, AZ 85226 ",85226,0.5295128226280212,305000,https://www.zillow.com/homedetails/4523-W-Mercury-Way-Chandler-AZ-85226/8166546_zpid/,33.3023,-111.92200000000001,2017-08-24,2017-08-24
476430,22642492,"3201 N 44th Ln, Phoenix, AZ 85031 ",85031,0.5294539928436279,154900,https://www.zillow.com/homedetails/3201-N-44th-Ln-Phoenix-AZ-85031/7509746_zpid/,33.4864,-112.155,2017-09-08,2017-09-08
197098,23512231,"3929 W Park St, Phoenix, AZ 85041 ",85041,0.5292074680328369,209650,https://www.zillow.com/homedetails/3929-W-Park-St-Phoenix-AZ-85041/55258375_zpid/,33.3802,-112.14399999999999,2017-10-10,2017-10-10
346201,22641216,"5404 W Albeniz Pl, Phoenix, AZ 85043 ",85043,0.5292004346847534,193500,https://www.zillow.com/homedetails/5404-W-Albeniz-Pl-Phoenix-AZ-85043/88794839_zpid/,33.4131,-112.176,2017-09-08,2017-09-08
1414969,23527039,"7414 W Tuckey Ln, Glendale, AZ 85303 ",85303,0.5290504693984985,204900,https://www.zillow.com/homedetails/7414-W-Tuckey-Ln-Glendale-AZ-85303/7706691_zpid/,33.533,-112.219,2017-10-11,2017-10-11
485135,22621129,"2849 N 73rd Dr, Phoenix, AZ 85035 ",85035,0.5288001298904419,179900,https://www.zillow.com/homedetails/2849-N-73rd-Dr-Phoenix-AZ-85035/92692585_zpid/,33.4799,-112.21600000000001,2017-09-03,2017-09-03
975388,22682582,"6805 W Harrison St, Chandler, AZ 85226 ",85226,0.5288000702857971,284900,https://www.zillow.com/homedetails/6805-W-Harrison-St-Chandler-AZ-85226/8268736_zpid/,33.3157,-111.96,2017-09-11,2017-09-11
1346898,22722071,"4926 W Kaler Dr, Glendale, AZ 85301 ",85301,0.5286994576454163,254900,https://www.zillow.com/homedetails/4926-W-Kaler-Dr-Glendale-AZ-85301/7724911_zpid/,33.5487,-112.166,2017-09-26,2017-09-26
9016917,22713964,"16415 N 29th Pl, Phoenix, AZ 85032 ",85032,0.5286433100700378,239000,https://www.zillow.com/homedetails/16415-N-29th-Pl-Phoenix-AZ-85032/8005881_zpid/,33.6358,-112.01899999999999,2017-09-24,2017-09-24
640462,22726373,"2108 W Peralta Ave, Mesa, AZ 85202 ",85202,0.52854323387146,238000,https://www.zillow.com/homedetails/2108-W-Peralta-Ave-Mesa-AZ-85202/8171064_zpid/,33.3576,-111.87899999999999,2017-09-28,2017-09-28
8992550,22734670,"17824 N 57th Dr, Glendale, AZ 85308 ",85308,0.5283702611923218,264900,https://www.zillow.com/homedetails/17824-N-57th-Dr-Glendale-AZ-85308/7900995_zpid/,33.6478,-112.182,2017-10-03,2017-10-03
250469,22705843,"2302 W Village Dr, Phoenix, AZ 85023 ",85023,0.5283365249633789,244499,https://www.zillow.com/homedetails/2302-W-Village-Dr-Phoenix-AZ-85023/7963978_zpid/,33.645,-112.109,2017-09-20,2017-09-20
955160,23527768,"111 N Rita Ln, Chandler, AZ 85226 ",85226,0.5283249020576477,289900,https://www.zillow.com/homedetails/111-N-Rita-Ln-Chandler-AZ-85226/8166925_zpid/,33.304,-111.925,2017-10-12,2017-10-12
1095696,23527938,"856 W Monterey St, Chandler, AZ 85225 ",85225,0.5280489921569824,243900,https://www.zillow.com/homedetails/856-W-Monterey-St-Chandler-AZ-85225/8186284_zpid/,33.315,-111.85700000000001,2017-10-08,2017-10-08
378956,22738439,"11206 N 37th Ave, Phoenix, AZ 85029 ",85029,0.5280078649520874,229900,https://www.zillow.com/homedetails/11206-N-37th-Ave-Phoenix-AZ-85029/7743882_zpid/,33.5877,-112.139,2017-09-15,2017-09-15
389426,22616784,"3916 W Northern Ave, Phoenix, AZ 85051 ",85051,0.5278968214988708,179990,https://www.zillow.com/homedetails/3916-W-Northern-Ave-Phoenix-AZ-85051/7754161_zpid/,33.5534,-112.14399999999999,2017-08-17,2017-08-17
412270,22708169,"5416 W Desert Hills Dr, Glendale, AZ 85304 ",85304,0.5276158452033997,257000,https://www.zillow.com/homedetails/5416-W-Desert-Hills-Dr-Glendale-AZ-85304/7737563_zpid/,33.5948,-112.176,2017-09-21,2017-09-21
1095504,23527928,"848 W Dublin St, Chandler, AZ 85225 ",85225,0.5275947451591492,265000,https://www.zillow.com/homedetails/848-W-Dublin-St-Chandler-AZ-85225/8186417_zpid/,33.3188,-111.85700000000001,2017-10-12,2017-10-12
341514,22579457,"1323 N 30th Dr, Phoenix, AZ 85009 ",85009,0.5275252461433411,109900,https://www.zillow.com/homedetails/1323-N-30th-Dr-Phoenix-AZ-85009/7515891_zpid/,33.4632,-112.125,2017-08-24,2017-08-24
8983869,22494803,"1113 E Beth Dr, Phoenix, AZ 85042 ",85042,0.5274587869644165,229000,https://www.zillow.com/homedetails/1113-E-Beth-Dr-Phoenix-AZ-85042/55273132_zpid/,33.3644,-112.059,2017-08-02,2017-08-02
530378,22687955,"5115 W Grenadine Rd, Laveen, AZ 85339 ",85339,0.5274356603622437,235000,https://www.zillow.com/homedetails/5115-W-Grenadine-Rd-Laveen-AZ-85339/67773420_zpid/,33.3986,-112.17,2017-09-14,2017-09-14
23763,22631862,"11825 N 29th Ave, Phoenix, AZ 85029 ",85029,0.5273491144180298,200000,https://www.zillow.com/homedetails/11825-N-29th-Ave-Phoenix-AZ-85029/7741002_zpid/,33.5937,-112.12100000000001,2017-09-06,2017-09-06
193739,22615382,"2511 W Beverly Rd, Phoenix, AZ 85041 ",85041,0.527266800403595,219900,https://www.zillow.com/homedetails/2511-W-Beverly-Rd-Phoenix-AZ-85041/89135907_zpid/,33.3745,-112.11399999999999,2017-08-31,2017-08-31
8985192,22744629,"13250 N 79th Ave, Peoria, AZ 85381 ",85381,0.5270951986312866,259900,https://www.zillow.com/homedetails/13250-N-79th-Ave-Peoria-AZ-85381/8100968_zpid/,33.6054,-112.229,2017-10-06,2017-10-06
228743,22692979,"13406 S 46th St, Phoenix, AZ 85044 ",85044,0.5269604325294495,310000,https://www.zillow.com/homedetails/13406-S-46th-St-Phoenix-AZ-85044/8256285_zpid/,33.3253,-111.986,2017-09-19,2017-09-19
237449,23526633,"1633 W Michigan Ave, Phoenix, AZ 85023 ",85023,0.5269533395767212,209900,https://www.zillow.com/homedetails/1633-W-Michigan-Ave-Phoenix-AZ-85023/7957245_zpid/,33.6508,-112.095,2017-10-09,2017-10-09
9020492,22933923,"7575 W Tierra Buena Ln, Peoria, AZ 85382 ",85382,0.5268138647079468,265000,https://www.zillow.com/homedetails/7575-W-Tierra-Buena-Ln-Peoria-AZ-85382/52426197_zpid/,33.6284,-112.22200000000001,2017-10-11,2017-10-11
351512,22673973,"6609 W Florence Ave, Phoenix, AZ 85043 ",85043,0.526755154132843,214900,https://www.zillow.com/homedetails/6609-W-Florence-Ave-Phoenix-AZ-85043/49641632_zpid/,33.4201,-112.20299999999999,2017-09-13,2017-09-13
9013148,22688255,"7527 S 13th Pl, Phoenix, AZ 85042 ",85042,0.5267164707183838,215000,https://www.zillow.com/homedetails/7527-S-13th-Pl-Phoenix-AZ-85042/60047875_zpid/,33.3781,-112.053,2017-09-14,2017-09-14
960297,23526317,"3870 W Golden Keys Way, Chandler, AZ 85226 ",85226,0.52663254737854,287900,https://www.zillow.com/homedetails/3870-W-Golden-Keys-Way-Chandler-AZ-85226/8265012_zpid/,33.3168,-111.90799999999999,2017-10-09,2017-10-09
8988531,22731994,"6916 W Harwell Rd, Laveen, AZ 85339 ",85339,0.526243269443512,247000,https://www.zillow.com/homedetails/6916-W-Harwell-Rd-Laveen-AZ-85339/88785031_zpid/,33.3743,-112.208,2017-09-30,2017-09-30
9012419,22683312,"8760 W Meadow Dr, Peoria, AZ 85382 ",85382,0.5259119868278503,164900,https://www.zillow.com/homedetails/8760-W-Meadow-Dr-Peoria-AZ-85382/7898231_zpid/,33.6434,-112.24799999999999,2017-09-13,2017-09-13
397149,22712744,"4019 W Yucca St, Phoenix, AZ 85029 ",85029,0.5258567333221436,230000,https://www.zillow.com/homedetails/4019-W-Yucca-St-Phoenix-AZ-85029/7744828_zpid/,33.5877,-112.146,2017-09-23,2017-09-23
449105,22604243,"8515 W College Dr, Phoenix, AZ 85037 ",85037,0.5258402824401855,162950,https://www.zillow.com/homedetails/8515-W-College-Dr-Phoenix-AZ-85037/7483595_zpid/,33.5081,-112.243,2017-09-02,2017-09-02
391398,22677888,"4112 W Camino Acequia, Phoenix, AZ 85051 ",85051,0.5256602764129639,239994,https://www.zillow.com/homedetails/4112-W-Camino-Acequia-Phoenix-AZ-85051/7745955_zpid/,33.5781,-112.146,2017-09-15,2017-09-15
460321,22700109,"5809 W Rosewood Ln, Phoenix, AZ 85031 ",85031,0.525614857673645,204900,https://www.zillow.com/homedetails/5809-W-Rosewood-Ln-Phoenix-AZ-85031/7713257_zpid/,33.5035,-112.184,2017-09-14,2017-09-14
418829,23512291,"5234 W Beryl Ave, Glendale, AZ 85302 ",85302,0.5254008173942566,219900,https://www.zillow.com/homedetails/5234-W-Beryl-Ave-Glendale-AZ-85302/7735867_zpid/,33.5798,-112.17200000000001,2017-09-20,2017-09-20
11975,22691040,"5317 W La Salle St, Laveen, AZ 85339 ",85339,0.5253693461418152,260000,https://www.zillow.com/homedetails/5317-W-La-Salle-St-Laveen-AZ-85339/55257964_zpid/,33.3972,-112.17299999999999,2017-09-19,2017-09-19
459700,22721620,"5715 W Roma Ave, Phoenix, AZ 85031 ",85031,0.5252554416656494,139900,https://www.zillow.com/homedetails/5715-W-Roma-Ave-Phoenix-AZ-85031/7712868_zpid/,33.4993,-112.18299999999999,2017-09-26,2017-09-26
184701,22747308,"3013 W Redwood Ln, Phoenix, AZ 85045 ",85045,0.5251115560531616,264996,https://www.zillow.com/homedetails/3013-W-Redwood-Ln-Phoenix-AZ-85045/59265403_zpid/,33.2922,-112.125,2017-09-20,2017-09-20
8959592,22744660,"8143 W Windrose Dr, Peoria, AZ 85381 ",85381,0.5250569581985474,237500,https://www.zillow.com/homedetails/8143-W-Windrose-Dr-Peoria-AZ-85381/8101003_zpid/,33.6006,-112.235,2017-10-07,2017-10-07
420230,22609597,"5712 W Laurie Ln, Glendale, AZ 85302 ",85302,0.5249119997024536,249900,https://www.zillow.com/homedetails/5712-W-Laurie-Ln-Glendale-AZ-85302/7733069_zpid/,33.5592,-112.18299999999999,2017-08-31,2017-08-31
8980132,22533687,"4125 W Hartford Ave, Glendale, AZ 85308 ",85308,0.5248580574989319,245000,https://www.zillow.com/homedetails/4125-W-Hartford-Ave-Glendale-AZ-85308/7947016_zpid/,33.641999999999996,-112.148,2017-08-12,2017-08-12
424743,22569174,"9615 N 63rd Dr, Glendale, AZ 85302 ",85302,0.5246900916099548,189900,https://www.zillow.com/homedetails/9615-N-63rd-Dr-Glendale-AZ-85302/7703671_zpid/,33.5733,-112.195,2017-08-23,2017-08-23
413890,22924319,"6209 W Bloomfield Rd, Glendale, AZ 85304 ",85304,0.5246160626411438,235000,https://www.zillow.com/homedetails/6209-W-Bloomfield-Rd-Glendale-AZ-85304/7912238_zpid/,33.5984,-112.19200000000001,2017-10-09,2017-10-09
43605,22613290,"8017 W Superior Ave, Phoenix, AZ 85043 ",85043,0.5246082544326782,199500,https://www.zillow.com/homedetails/8017-W-Superior-Ave-Phoenix-AZ-85043/60975300_zpid/,33.4172,-112.23200000000001,2017-08-30,2017-08-30
977267,22719920,"881 N Los Feliz Dr, Chandler, AZ 85226 ",85226,0.5245195627212524,284900,https://www.zillow.com/homedetails/881-N-Los-Feliz-Dr-Chandler-AZ-85226/8264954_zpid/,33.3182,-111.90700000000001,2017-09-25,2017-09-25
8984788,22747459,"6833 S 45th Pl, Phoenix, AZ 85042 ",85042,0.5245146155357361,177000,https://www.zillow.com/homedetails/6833-S-45th-Pl-Phoenix-AZ-85042/7552489_zpid/,33.3838,-111.984,2017-09-25,2017-09-25
417704,22636417,"4843 W Mountain View Rd, Glendale, AZ 85302 ",85302,0.5244612097740173,209900,https://www.zillow.com/homedetails/4843-W-Mountain-View-Rd-Glendale-AZ-85302/7730118_zpid/,33.5747,-112.164,2017-09-06,2017-09-06
9018003,22722500,"1842 W Alamo Dr, Chandler, AZ 85224 ",85224,0.5244451761245728,245000,https://www.zillow.com/homedetails/1842-W-Alamo-Dr-Chandler-AZ-85224/8199834_zpid/,33.3482,-111.875,2017-09-26,2017-09-26
482955,22604098,"2609 N 65th Dr, Phoenix, AZ 85035 ",85035,0.5242828130722046,175000,https://www.zillow.com/homedetails/2609-N-65th-Dr-Phoenix-AZ-85035/7490220_zpid/,33.4771,-112.2,2017-09-01,2017-09-01
1175324,22489163,"1107 N Velma Ct, Gilbert, AZ 85233 ",85233,0.5242273211479187,268000,https://www.zillow.com/homedetails/1107-N-Velma-Ct-Gilbert-AZ-85233/8173308_zpid/,33.3698,-111.814,2017-07-31,2017-07-31
975233,22685618,"6731 W Del Rio St, Chandler, AZ 85226 ",85226,0.5242237448692322,359000,https://www.zillow.com/homedetails/6731-W-Del-Rio-St-Chandler-AZ-85226/8268713_zpid/,33.3147,-111.96,2017-09-16,2017-09-16
836513,22739672,"4212 W Mulberry Dr, Phoenix, AZ 85019 ",85019,0.5239883661270142,130000,https://www.zillow.com/homedetails/4212-W-Mulberry-Dr-Phoenix-AZ-85019/7507343_zpid/,33.486999999999995,-112.15,2017-10-05,2017-10-05
418191,22689629,"5019 W Carol Ave, Glendale, AZ 85302 ",85302,0.5238872766494751,239000,https://www.zillow.com/homedetails/5019-W-Carol-Ave-Glendale-AZ-85302/7730298_zpid/,33.5705,-112.167,2017-09-18,2017-09-18
8998421,22579093,"1241 E Saint Road John, Phoenix, AZ 85022 ",85022,0.5238694548606873,269500,https://www.zillow.com/homedetails/1241-E-Saint-Road-John-Phoenix-AZ-85022/2092994182_zpid/,33.6469,-112.055,2017-08-25,2017-08-25
1072092,22725472,"150 S Dakota St, Chandler, AZ 85225 ",85225,0.5237312316894531,189000,https://www.zillow.com/homedetails/150-S-Dakota-St-Chandler-AZ-85225/8205645_zpid/,33.3013,-111.846,2017-09-27,2017-09-27
959912,22740526,"3833 W Folley St, Chandler, AZ 85226 ",85226,0.5235830545425415,242000,https://www.zillow.com/homedetails/3833-W-Folley-St-Chandler-AZ-85226/8156119_zpid/,33.2977,-111.90899999999999,2017-10-05,2017-10-05
332361,22592791,"1209 E Michigan Ave, Phoenix, AZ 85022 ",85022,0.5235115885734558,265000,https://www.zillow.com/homedetails/1209-E-Michigan-Ave-Phoenix-AZ-85022/8001644_zpid/,33.650999999999996,-112.056,2017-08-26,2017-08-26
1127934,22681850,"3201 N Ash Cir, Chandler, AZ 85224 ",85224,0.5233333706855774,199900,https://www.zillow.com/homedetails/3201-N-Ash-Cir-Chandler-AZ-85224/8192020_zpid/,33.3534,-111.87100000000001,2017-09-14,2017-09-14
191448,22711813,"1838 W Minton St, Phoenix, AZ 85041 ",85041,0.5232713222503662,229900,https://www.zillow.com/homedetails/1838-W-Minton-St-Phoenix-AZ-85041/121851706_zpid/,33.3812,-112.098,2017-09-20,2017-09-20
9020555,23526695,"4765 W Kimberly Way, Glendale, AZ 85308 ",85308,0.5232021808624268,239900,https://www.zillow.com/homedetails/4765-W-Kimberly-Way-Glendale-AZ-85308/7939481_zpid/,33.6563,-112.163,2017-10-09,2017-10-09
479569,22747265,"2212 N 50th Ave, Phoenix, AZ 85035 ",85035,0.5231019258499146,151000,https://www.zillow.com/homedetails/2212-N-50th-Ave-Phoenix-AZ-85035/7494270_zpid/,33.472,-112.167,2017-10-07,2017-10-07
395402,22745694,"3741 W Poinsettia Dr, Phoenix, AZ 85029 ",85029,0.5230472087860107,234500,https://www.zillow.com/homedetails/3741-W-Poinsettia-Dr-Phoenix-AZ-85029/7743913_zpid/,33.5926,-112.14,2017-10-09,2017-10-09
1096249,22506306,"866 E Rockwell Dr, Chandler, AZ 85225 ",85225,0.522999107837677,233000,https://www.zillow.com/homedetails/866-E-Rockwell-Dr-Chandler-AZ-85225/8182184_zpid/,33.3312,-111.82700000000001,2017-08-10,2017-08-10
185990,22739433,"16606 S 12th Pl, Phoenix, AZ 85048 ",85048,0.52293860912323,360000,https://www.zillow.com/homedetails/16606-S-12th-Pl-Phoenix-AZ-85048/8130520_zpid/,33.2965,-112.057,2017-10-05,2017-10-05
398347,22738573,"4148 W Bloomfield Rd, Phoenix, AZ 85029 ",85029,0.5228578448295593,234900,https://www.zillow.com/homedetails/4148-W-Bloomfield-Rd-Phoenix-AZ-85029/7742599_zpid/,33.5988,-112.149,2017-10-05,2017-10-05
1844940,22678338,"7728 W Crittenden Ln, Phoenix, AZ 85033 ",85033,0.5228034853935242,169900,https://www.zillow.com/homedetails/7728-W-Crittenden-Ln-Phoenix-AZ-85033/7478567_zpid/,33.4884,-112.226,2017-09-13,2017-09-13
8977706,22571707,"423 N 63rd Ln, Phoenix, AZ 85043 ",85043,0.5227447152137756,174900,https://www.zillow.com/homedetails/423-N-63rd-Ln-Phoenix-AZ-85043/2094355995_zpid/,33.4515,-112.195,2017-08-14,2017-08-14
254974,22738564,"3950 W Hearn Rd, Phoenix, AZ 85053 ",85053,0.5226964950561523,239900,https://www.zillow.com/homedetails/3950-W-Hearn-Rd-Phoenix-AZ-85053/7945048_zpid/,33.6148,-112.145,2017-10-04,2017-10-04
7404062,22720538,"8312 S 15TH St, Phoenix, AZ 85042 ",85042,0.5226230621337891,339000,https://www.zillow.com/homedetails/8312-S-15TH-St-Phoenix-AZ-85042/95089116_zpid/,33.3709,-112.051,2017-09-25,2017-09-25
8987246,22717103,"5830 E Calle Mexico, Guadalupe, AZ 85283 ",85283,0.5226162075996399,210000,https://www.zillow.com/homedetails/5830-E-Calle-Mexico-Guadalupe-AZ-85283/8138359_zpid/,33.366,-111.959,2017-09-22,2017-09-22
481337,22543109,"2344 N 47th Dr, Phoenix, AZ 85035 ",85035,0.5225712656974792,150000,https://www.zillow.com/homedetails/2344-N-47th-Dr-Phoenix-AZ-85035/7499098_zpid/,33.475,-112.161,2017-08-20,2017-08-20
409540,22745713,"4430 W Poinsettia Dr, Glendale, AZ 85304 ",85304,0.522560715675354,219000,https://www.zillow.com/homedetails/4430-W-Poinsettia-Dr-Glendale-AZ-85304/7727257_zpid/,33.5933,-112.154,2017-10-09,2017-10-09
348785,23526923,"18208 N 19th St, Phoenix, AZ 85022 ",85022,0.5225052237510681,210000,https://www.zillow.com/homedetails/18208-N-19th-St-Phoenix-AZ-85022/8001382_zpid/,33.6517,-112.042,2017-10-11,2017-10-11
246021,22738489,"2211 W Morrow Dr, Phoenix, AZ 85027 ",85027,0.5224106907844543,229000,https://www.zillow.com/homedetails/2211-W-Morrow-Dr-Phoenix-AZ-85027/7969868_zpid/,33.6564,-112.10700000000001,2017-10-04,2017-10-04
395310,22650843,"3734 W Sierra St, Phoenix, AZ 85029 ",85029,0.5222915410995483,229000,https://www.zillow.com/homedetails/3734-W-Sierra-St-Phoenix-AZ-85029/7743992_zpid/,33.5908,-112.14,2017-09-08,2017-09-08
9013154,22736843,"8826 S 9th St, Phoenix, AZ 85042 ",85042,0.5222253799438477,230000,https://www.zillow.com/homedetails/8826-S-9th-St-Phoenix-AZ-85042/55273025_zpid/,33.3656,-112.06200000000001,2017-10-02,2017-10-02
1089830,22733053,"606 W El Prado Rd, Chandler, AZ 85225 ",85225,0.5222045183181763,215000,https://www.zillow.com/homedetails/606-W-El-Prado-Rd-Chandler-AZ-85225/8177626_zpid/,33.3398,-111.851,2017-10-01,2017-10-01
404139,22613179,"16257 N 63rd Dr, Glendale, AZ 85306 ",85306,0.5218204259872437,229900,https://www.zillow.com/homedetails/16257-N-63rd-Dr-Glendale-AZ-85306/7902050_zpid/,33.6345,-112.195,2017-09-02,2017-09-02
501018,22711998,"7420 W Alvarado Rd, Phoenix, AZ 85035 ",85035,0.5218081474304199,119900,https://www.zillow.com/homedetails/7420-W-Alvarado-Rd-Phoenix-AZ-85035/7474905_zpid/,33.4717,-112.22,2017-09-23,2017-09-23
8993646,22544748,"8439 S 9th Pl, Phoenix, AZ 85042 ",85042,0.5217366814613342,215000,https://www.zillow.com/homedetails/8439-S-9th-Pl-Phoenix-AZ-85042/8131233_zpid/,33.3691,-112.061,2017-08-21,2017-08-21
9019137,22732071,"7331 W Donner Dr, Laveen, AZ 85339 ",85339,0.5216603875160217,256000,https://www.zillow.com/homedetails/7331-W-Donner-Dr-Laveen-AZ-85339/89456397_zpid/,33.3782,-112.21700000000001,2017-09-29,2017-09-29
404277,23284994,"13213 N 55th Ave, Glendale, AZ 85304 ",85304,0.5214797854423523,240000,https://www.zillow.com/homedetails/13213-N-55th-Ave-Glendale-AZ-85304/7911876_zpid/,33.6045,-112.177,2017-10-09,2017-10-09
419065,22712714,"5320 W Freeway Ln, Glendale, AZ 85302 ",85302,0.5213809013366699,214900,https://www.zillow.com/homedetails/5320-W-Freeway-Ln-Glendale-AZ-85302/7733757_zpid/,33.562,-112.17399999999999,2017-09-23,2017-09-23
956095,22747239,"180 S Pineview Pl, Chandler, AZ 85226 ",85226,0.5211716294288635,266900,https://www.zillow.com/homedetails/180-S-Pineview-Pl-Chandler-AZ-85226/8266345_zpid/,33.3001,-111.93700000000001,2017-10-08,2017-10-08
486164,22539632,"4802 W Encanto Blvd, Phoenix, AZ 85035 ",85035,0.5208545923233032,148000,https://www.zillow.com/homedetails/4802-W-Encanto-Blvd-Phoenix-AZ-85035/7499173_zpid/,33.4734,-112.163,2017-08-16,2017-08-16
249634,22734095,"2238 W Village Dr, Phoenix, AZ 85023 ",85023,0.5208017826080322,229000,https://www.zillow.com/homedetails/2238-W-Village-Dr-Phoenix-AZ-85023/7963982_zpid/,33.6458,-112.10799999999999,2017-10-03,2017-10-03
1090459,22747432,"631 W Caroline Ln, Chandler, AZ 85225 ",85225,0.5207350254058838,235000,https://www.zillow.com/homedetails/631-W-Caroline-Ln-Chandler-AZ-85225/8183658_zpid/,33.3304,-111.851,2017-10-07,2017-10-07
227825,22529654,"1539 W Sack Dr, Phoenix, AZ 85027 ",85027,0.5206764340400696,214900,https://www.zillow.com/homedetails/1539-W-Sack-Dr-Phoenix-AZ-85027/7968846_zpid/,33.6576,-112.09299999999999,2017-08-16,2017-08-16
412553,22592672,"5522 W Shangri La Rd, Glendale, AZ 85304 ",85304,0.5206214785575867,204900,https://www.zillow.com/homedetails/5522-W-Shangri-La-Rd-Glendale-AZ-85304/7736366_zpid/,33.586999999999996,-112.178,2017-08-28,2017-08-28
197525,22710801,"4102 W Carter Rd, Phoenix, AZ 85041 ",85041,0.520337700843811,189000,https://www.zillow.com/homedetails/4102-W-Carter-Rd-Phoenix-AZ-85041/60047540_zpid/,33.3821,-112.147,2017-09-21,2017-09-21
698197,22577767,"944 S Macdonald, Mesa, AZ 85210 ",85210,0.5203361511230469,150000,https://www.zillow.com/homedetails/944-S-Macdonald-Mesa-AZ-85210/7632374_zpid/,33.3978,-111.834,2017-08-25,2017-08-25
650091,23512352,"857 W Laguna Azul Ave, Mesa, AZ 85210 ",85210,0.5201192498207092,239000,https://www.zillow.com/homedetails/857-W-Laguna-Azul-Ave-Mesa-AZ-85210/8170586_zpid/,33.3736,-111.853,2017-10-11,2017-10-11
191774,22933813,"2020 W Hasan Dr, Phoenix, AZ 85041 ",85041,0.5200321078300476,224900,https://www.zillow.com/homedetails/2020-W-Hasan-Dr-Phoenix-AZ-85041/63179338_zpid/,33.3912,-112.102,2017-10-10,2017-10-10
191566,22732262,"1919 W Nancy Ln, Phoenix, AZ 85041 ",85041,0.5200321078300476,216900,https://www.zillow.com/homedetails/1919-W-Nancy-Ln-Phoenix-AZ-85041/63158425_zpid/,33.39,-112.1,2017-09-29,2017-09-29
1372751,22701191,"8560 W Keim Dr, Glendale, AZ 85305 ",85305,0.5199920535087585,250000,https://www.zillow.com/homedetails/8560-W-Keim-Dr-Glendale-AZ-85305/52423494_zpid/,33.5265,-112.243,2017-09-05,2017-09-05
8992537,22732002,"7224 W Beverly Rd, Laveen, AZ 85339 ",85339,0.5199713706970215,189900,https://www.zillow.com/homedetails/7224-W-Beverly-Rd-Laveen-AZ-85339/81971777_zpid/,33.3748,-112.214,2017-09-28,2017-09-28
42910,22613282,"7142 W Superior Ave, Phoenix, AZ 85043 ",85043,0.5198870301246643,207900,https://www.zillow.com/homedetails/7142-W-Superior-Ave-Phoenix-AZ-85043/67788745_zpid/,33.4174,-112.214,2017-09-02,2017-09-02
637549,22677166,"1931 S Alta Vista Cir, Mesa, AZ 85202 ",85202,0.5198679566383362,250000,https://www.zillow.com/homedetails/1931-S-Alta-Vista-Cir-Mesa-AZ-85202/8250319_zpid/,33.3795,-111.882,2017-09-15,2017-09-15
230962,22686892,"19225 N 13th St, Phoenix, AZ 85024 ",85024,0.519867479801178,231000,https://www.zillow.com/homedetails/19225-N-13th-St-Phoenix-AZ-85024/7995445_zpid/,33.6614,-112.054,2017-09-17,2017-09-17
459463,22737652,"5657 W Roma Ave, Phoenix, AZ 85031 ",85031,0.5197881460189819,189900,https://www.zillow.com/homedetails/5657-W-Roma-Ave-Phoenix-AZ-85031/7712821_zpid/,33.4992,-112.182,2017-10-03,2017-10-03
9006725,22744658,"7438 W Mercer Ln, Peoria, AZ 85345 ",85345,0.5197647213935852,179900,https://www.zillow.com/homedetails/7438-W-Mercer-Ln-Peoria-AZ-85345/7705692_zpid/,33.5843,-112.219,2017-10-07,2017-10-07
9012244,22680590,"2857 W State Ave, Phoenix, AZ 85051 ",85051,0.5196838974952698,265000,https://www.zillow.com/homedetails/2857-W-State-Ave-Phoenix-AZ-85051/95074473_zpid/,33.5442,-112.12100000000001,2017-09-14,2017-09-14
1068351,22747192,"1111 N Mason Dr, Chandler, AZ 85225 ",85225,0.5196183919906616,315000,https://www.zillow.com/homedetails/1111-N-Mason-Dr-Chandler-AZ-85225/81956599_zpid/,33.3227,-111.819,2017-10-06,2017-10-06
399195,22707841,"9822 N 41st Dr, Phoenix, AZ 85051 ",85051,0.5194904208183289,259900,https://www.zillow.com/homedetails/9822-N-41st-Dr-Phoenix-AZ-85051/7745760_zpid/,33.5756,-112.148,2017-09-20,2017-09-20
413798,22924293,"6136 W Sierra St, Glendale, AZ 85304 ",85304,0.5194233059883118,249998,https://www.zillow.com/homedetails/6136-W-Sierra-St-Glendale-AZ-85304/7698235_zpid/,33.5914,-112.19200000000001,2017-10-10,2017-10-10
9005711,22747431,"6223 W Indianola Ave, Phoenix, AZ 85033 ",85033,0.5193790197372437,169300,https://www.zillow.com/homedetails/6223-W-Indianola-Ave-Phoenix-AZ-85033/7496555_zpid/,33.4924,-112.194,2017-10-10,2017-10-10
1067667,22681319,"1021 N Mason Dr, Chandler, AZ 85225 ",85225,0.5193117260932922,299999,https://www.zillow.com/homedetails/1021-N-Mason-Dr-Chandler-AZ-85225/88789226_zpid/,33.3214,-111.819,2017-09-12,2017-09-12
199202,22664021,"5712 S 16th Ln, Phoenix, AZ 85041 ",85041,0.5193023681640625,185000,https://www.zillow.com/homedetails/5712-S-16th-Ln-Phoenix-AZ-85041/67785125_zpid/,33.3947,-112.094,2017-09-12,2017-09-12
7449241,22690937,"11935 N 68th Ave, Peoria, AZ 85345 ",85345,0.5191476941108704,245000,https://www.zillow.com/homedetails/11935-N-68th-Ave-Peoria-AZ-85345/7700139_zpid/,33.594,-112.204,2017-09-18,2017-09-18
342211,22662362,"1409 S 63rd Dr, Phoenix, AZ 85043 ",85043,0.5191276669502258,179500,https://www.zillow.com/homedetails/1409-S-63rd-Dr-Phoenix-AZ-85043/7499996_zpid/,33.4349,-112.196,2017-09-12,2017-09-12
9020435,22875945,"3838 W Carol Ave, Phoenix, AZ 85051 ",85051,0.5191242694854736,219990,https://www.zillow.com/homedetails/3838-W-Carol-Ave-Phoenix-AZ-85051/7746969_zpid/,33.5731,-112.14200000000001,2017-10-10,2017-10-10
410719,23512281,"4923 W Larkspur Dr, Glendale, AZ 85304 ",85304,0.5190653204917908,243000,https://www.zillow.com/homedetails/4923-W-Larkspur-Dr-Glendale-AZ-85304/7954371_zpid/,33.5993,-112.165,2017-10-05,2017-10-05
486482,22594977,"4827 W Granada Rd, Phoenix, AZ 85035 ",85035,0.518473207950592,159000,https://www.zillow.com/homedetails/4827-W-Granada-Rd-Phoenix-AZ-85035/7494644_zpid/,33.4686,-112.164,2017-08-28,2017-08-28
352583,23512149,"2101 E Hearn Rd, Phoenix, AZ 85022 ",85022,0.5183891654014587,269000,https://www.zillow.com/homedetails/2101-E-Hearn-Rd-Phoenix-AZ-85022/8010169_zpid/,33.6154,-112.038,2017-10-03,2017-10-03
977609,22713990,"967 N Rush St, Chandler, AZ 85226 ",85226,0.5182997584342957,318000,https://www.zillow.com/homedetails/967-N-Rush-St-Chandler-AZ-85226/8262543_zpid/,33.3144,-111.93299999999999,2017-09-24,2017-09-24
419775,22576464,"5534 W Eva St, Glendale, AZ 85302 ",85302,0.5179351568222046,209000,https://www.zillow.com/homedetails/5534-W-Eva-St-Glendale-AZ-85302/7734672_zpid/,33.5686,-112.179,2017-08-25,2017-08-25
330786,22738433,"1001 E Bluefield Ave, Phoenix, AZ 85022 ",85022,0.5178395509719849,207500,https://www.zillow.com/homedetails/1001-E-Bluefield-Ave-Phoenix-AZ-85022/8002596_zpid/,33.6522,-112.06,2017-10-04,2017-10-04
360297,22613312,"8325 W Miami St, Tolleson, AZ 85353 ",85353,0.517827570438385,256499,https://www.zillow.com/homedetails/8325-W-Miami-St-Tolleson-AZ-85353/67764145_zpid/,33.4189,-112.24,2017-08-30,2017-08-30
9013933,22732269,"2545 E Atlanta Ave, Phoenix, AZ 85040 ",85040,0.5177544951438904,136000,https://www.zillow.com/homedetails/2545-E-Atlanta-Ave-Phoenix-AZ-85040/7547791_zpid/,33.4004,-112.025,2017-09-28,2017-09-28
9019824,22739679,"4906 W Pinchot Ave, Phoenix, AZ 85031 ",85031,0.5177340507507324,149999,https://www.zillow.com/homedetails/4906-W-Pinchot-Ave-Phoenix-AZ-85031/7510127_zpid/,33.483000000000004,-112.164,2017-10-05,2017-10-05
8458,22736164,"2712 W Saint Moritz Ln, Phoenix, AZ 85053 ",85053,0.517727792263031,229900,https://www.zillow.com/homedetails/2712-W-Saint-Moritz-Ln-Phoenix-AZ-85053/7943035_zpid/,33.6179,-112.118,2017-10-02,2017-10-02
9020069,22741955,"1802 W Fremont Rd, Phoenix, AZ 85041 ",85041,0.5176318883895874,129900,https://www.zillow.com/homedetails/1802-W-Fremont-Rd-Phoenix-AZ-85041/92351787_zpid/,33.3816,-112.09700000000001,2017-10-06,2017-10-06
418693,22737337,"5215 W Hatcher Rd, Glendale, AZ 85302 ",85302,0.5174763798713684,224900,https://www.zillow.com/homedetails/5215-W-Hatcher-Rd-Glendale-AZ-85302/7734108_zpid/,33.5705,-112.17200000000001,2017-10-03,2017-10-03
383505,22741715,"13144 N 22nd Ave, Phoenix, AZ 85029 ",85029,0.517235517501831,264900,https://www.zillow.com/homedetails/13144-N-22nd-Ave-Phoenix-AZ-85029/7749838_zpid/,33.6059,-112.10700000000001,2017-10-06,2017-10-06
698093,22730315,"940 W Impala Cir, Mesa, AZ 85210 ",85210,0.5170236229896545,229500,https://www.zillow.com/homedetails/940-W-Impala-Cir-Mesa-AZ-85210/7600175_zpid/,33.3826,-111.852,2017-09-29,2017-09-29
640835,22743106,"622 W Portobello Ave, Mesa, AZ 85210 ",85210,0.5168827176094055,240000,https://www.zillow.com/homedetails/622-W-Portobello-Ave-Mesa-AZ-85210/8190949_zpid/,33.3608,-111.84700000000001,2017-10-06,2017-10-06
9007207,22722105,"3730 W Coolidge St, Phoenix, AZ 85019 ",85019,0.5166425108909607,144900,https://www.zillow.com/homedetails/3730-W-Coolidge-St-Phoenix-AZ-85019/7507026_zpid/,33.5052,-112.14,2017-09-26,2017-09-26
9019434,22735026,"7420 W Alta Vista Rd, Laveen, AZ 85339 ",85339,0.5166032910346985,200000,https://www.zillow.com/homedetails/7420-W-Alta-Vista-Rd-Laveen-AZ-85339/81989471_zpid/,33.3868,-112.219,2017-10-03,2017-10-03
8988082,23512321,"6914 W Sierra St, Peoria, AZ 85345 ",85345,0.5165440440177917,205500,https://www.zillow.com/homedetails/6914-W-Sierra-St-Peoria-AZ-85345/7699742_zpid/,33.5904,-112.208,2017-10-10,2017-10-10
388744,22740067,"3835 W Camino Acequia, Phoenix, AZ 85051 ",85051,0.5165213942527771,239900,https://www.zillow.com/homedetails/3835-W-Camino-Acequia-Phoenix-AZ-85051/7745922_zpid/,33.5749,-112.14200000000001,2017-10-05,2017-10-05
9002560,22746472,"7408 S 56th Ln, Laveen, AZ 85339 ",85339,0.5164508819580078,199900,https://www.zillow.com/homedetails/7408-S-56th-Ln-Laveen-AZ-85339/60975658_zpid/,33.3787,-112.181,2017-10-05,2017-10-05
418815,22685199,"5232 W Onyx Ave, Glendale, AZ 85302 ",85302,0.5161685943603516,234900,https://www.zillow.com/homedetails/5232-W-Onyx-Ave-Glendale-AZ-85302/7735781_zpid/,33.5776,-112.17200000000001,2017-09-16,2017-09-16
359649,22705113,"2633 S 87th Dr, Tolleson, AZ 85353 ",85353,0.5159876942634583,170000,https://www.zillow.com/homedetails/2633-S-87th-Dr-Tolleson-AZ-85353/67772920_zpid/,33.4234,-112.24799999999999,2017-09-22,2017-09-22
9019489,22735604,"1322 E Harwell Rd, Phoenix, AZ 85042 ",85042,0.5159515738487244,250000,https://www.zillow.com/homedetails/1322-E-Harwell-Rd-Phoenix-AZ-85042/55324506_zpid/,33.3748,-112.055,2017-10-03,2017-10-03
408436,22511354,"6207 W Zoe Ella Way, Glendale, AZ 85306 ",85306,0.515662431716919,221500,https://www.zillow.com/homedetails/6207-W-Zoe-Ella-Way-Glendale-AZ-85306/8097249_zpid/,33.6256,-112.193,2017-08-16,2017-08-16
9020413,22747662,"3833 N 63rd Ave, Phoenix, AZ 85033 ",85033,0.5155661106109619,186000,https://www.zillow.com/homedetails/3833-N-63rd-Ave-Phoenix-AZ-85033/7496523_zpid/,33.493,-112.195,2017-10-10,2017-10-10
250773,22736410,"517 E Kerry Ln, Phoenix, AZ 85024 ",85024,0.5154144167900085,235000,https://www.zillow.com/homedetails/517-E-Kerry-Ln-Phoenix-AZ-85024/7972504_zpid/,33.6603,-112.06700000000001,2017-09-29,2017-09-29
257738,22736916,"920 W Michigan Ave, Phoenix, AZ 85023 ",85023,0.5153824090957642,215000,https://www.zillow.com/homedetails/920-W-Michigan-Ave-Phoenix-AZ-85023/7956681_zpid/,33.6512,-112.086,2017-09-23,2017-09-23
9013124,22688034,"7226 S 71st Dr, Laveen, AZ 85339 ",85339,0.5153552293777466,294900,https://www.zillow.com/homedetails/7226-S-71st-Dr-Laveen-AZ-85339/67800207_zpid/,33.3804,-112.212,2017-09-13,2017-09-13
345221,22650770,"4221 S 59th Dr, Phoenix, AZ 85043 ",85043,0.5152422785758972,170000,https://www.zillow.com/homedetails/4221-S-59th-Dr-Phoenix-AZ-85043/67773341_zpid/,33.4093,-112.18700000000001,2017-09-11,2017-09-11
8986544,22747473,"716 E Geronimo St, Chandler, AZ 85225 ",85225,0.5152027606964111,294900,https://www.zillow.com/homedetails/716-E-Geronimo-St-Chandler-AZ-85225/8206238_zpid/,33.2933,-111.831,2017-09-22,2017-09-22
200451,22693966,"6623 S 17th Ave, Phoenix, AZ 85041 ",85041,0.5151897668838501,189000,https://www.zillow.com/homedetails/6623-S-17th-Ave-Phoenix-AZ-85041/59272440_zpid/,33.385999999999996,-112.095,2017-09-19,2017-09-19
9013904,22728302,"2708 E Bluefield Ave, Phoenix, AZ 85032 ",85032,0.5151865482330322,269000,https://www.zillow.com/homedetails/2708-E-Bluefield-Ave-Phoenix-AZ-85032/8000084_zpid/,33.654,-112.024,2017-09-28,2017-09-28
530034,22710804,"4814 W Valencia Dr, Laveen, AZ 85339 ",85339,0.5151419043540955,213900,https://www.zillow.com/homedetails/4814-W-Valencia-Dr-Laveen-AZ-85339/60984361_zpid/,33.3768,-112.162,2017-09-21,2017-09-21
182066,22747223,"15428 S 13th Ave, Phoenix, AZ 85045 ",85045,0.5150976777076721,309900,https://www.zillow.com/homedetails/15428-S-13th-Ave-Phoenix-AZ-85045/8130811_zpid/,33.3032,-112.088,2017-10-09,2017-10-09
39932,22540779,"2016 S 66th Ln, Phoenix, AZ 85043 ",85043,0.5150956511497498,213500,https://www.zillow.com/homedetails/2016-S-66th-Ln-Phoenix-AZ-85043/67773152_zpid/,33.429,-112.20299999999999,2017-08-17,2017-08-17
526828,22737450,"9418 W Sheridan St, Phoenix, AZ 85037 ",85037,0.5150658488273621,214500,https://www.zillow.com/homedetails/9418-W-Sheridan-St-Phoenix-AZ-85037/67773035_zpid/,33.475,-112.262,2017-09-28,2017-09-28
8959410,22661307,"6709 W Minnezona Ave, Phoenix, AZ 85033 ",85033,0.5150103569030762,174900,https://www.zillow.com/homedetails/6709-W-Minnezona-Ave-Phoenix-AZ-85033/7716819_zpid/,33.503,-112.204,2017-09-06,2017-09-06
8958968,23512056,"14401 N 36th St, Phoenix, AZ 85032 ",85032,0.5149527788162231,249900,https://www.zillow.com/homedetails/14401-N-36th-St-Phoenix-AZ-85032/8012925_zpid/,33.6169,-112.005,2017-10-02,2017-10-02
8958733,23512039,"1321 E Branham Ln, Phoenix, AZ 85042 ",85042,0.5149241089820862,245000,https://www.zillow.com/homedetails/1321-E-Branham-Ln-Phoenix-AZ-85042/55319497_zpid/,33.3761,-112.055,2017-10-10,2017-10-10
397260,22737319,"4027 W Charter Oak Rd, Phoenix, AZ 85029 ",85029,0.514877200126648,269000,https://www.zillow.com/homedetails/4027-W-Charter-Oak-Rd-Phoenix-AZ-85029/7742700_zpid/,33.5981,-112.146,2017-09-25,2017-09-25
9000644,22691070,"938 N Jesse St, Chandler, AZ 85225 ",85225,0.5148326754570007,284900,https://www.zillow.com/homedetails/938-N-Jesse-St-Chandler-AZ-85225/8196053_zpid/,33.3179,-111.823,2017-09-18,2017-09-18
1107753,22681324,"1081 N Saguaro St, Chandler, AZ 85224 ",85224,0.5147843956947327,287000,https://www.zillow.com/homedetails/1081-N-Saguaro-St-Chandler-AZ-85224/8203257_zpid/,33.3223,-111.87,2017-09-13,2017-09-13
9000057,22590871,"7514 S 30th Run, Phoenix, AZ 85042 ",85042,0.5146028995513916,170000,https://www.zillow.com/homedetails/7514-S-30th-Run-Phoenix-AZ-85042/81954242_zpid/,33.3787,-112.016,2017-08-17,2017-08-17
644974,22737372,"660 W Laguna Azul Ave, Mesa, AZ 85210 ",85210,0.5144824981689453,250000,https://www.zillow.com/homedetails/660-W-Laguna-Azul-Ave-Mesa-AZ-85210/8170653_zpid/,33.3729,-111.84899999999999,2017-10-03,2017-10-03
248524,22730703,"4713 E Bighorn Ave, Phoenix, AZ 85044 ",85044,0.5143440961837769,255000,https://www.zillow.com/homedetails/4713-E-Bighorn-Ave-Phoenix-AZ-85044/8260480_zpid/,33.3076,-111.98299999999999,2017-09-28,2017-09-28
34784,22664015,"2322 E La Salle St, Phoenix, AZ 85040 ",85040,0.5143136382102966,284900,https://www.zillow.com/homedetails/2322-E-La-Salle-St-Phoenix-AZ-85040/71612736_zpid/,33.3979,-112.031,2017-09-12,2017-09-12
8973237,22350473,"4510 W Ryan Ln, Laveen, AZ 85339 ",85339,0.5142003297805786,209500,https://www.zillow.com/homedetails/4510-W-Ryan-Ln-Laveen-AZ-85339/2093501374_zpid/,33.3901,-112.156,2017-07-20,2017-07-20
1088494,22627533,"507 W Caroline Ln, Chandler, AZ 85225 ",85225,0.5140284895896912,236000,https://www.zillow.com/homedetails/507-W-Caroline-Ln-Chandler-AZ-85225/8182852_zpid/,33.3296,-111.848,2017-09-05,2017-09-05
9020342,22746519,"8038 S 53rd Dr, Laveen, AZ 85339 ",85339,0.5139994025230408,205000,https://www.zillow.com/homedetails/8038-S-53rd-Dr-Laveen-AZ-85339/55272710_zpid/,33.372,-112.175,2017-10-04,2017-10-04
9019138,22732046,"5418 W Ian Dr, Laveen, AZ 85339 ",85339,0.5139292478561401,239900,https://www.zillow.com/homedetails/5418-W-Ian-Dr-Laveen-AZ-85339/55272589_zpid/,33.3726,-112.177,2017-09-28,2017-09-28
411541,22738592,"5221 W Columbine Dr, Glendale, AZ 85304 ",85304,0.5139269232749939,215000,https://www.zillow.com/homedetails/5221-W-Columbine-Dr-Glendale-AZ-85304/7911344_zpid/,33.5993,-112.17200000000001,2017-10-04,2017-10-04
327512,22646807,"2034 W Palo Verde Dr, Phoenix, AZ 85015 ",85015,0.5138612985610962,237500,https://www.zillow.com/homedetails/2034-W-Palo-Verde-Dr-Phoenix-AZ-85015/7763397_zpid/,33.5233,-112.102,2017-09-09,2017-09-09
360201,22563730,"8302 W Mohave St, Tolleson, AZ 85353 ",85353,0.5138298273086548,205000,https://www.zillow.com/homedetails/8302-W-Mohave-St-Tolleson-AZ-85353/59271589_zpid/,33.4322,-112.23899999999999,2017-08-22,2017-08-22
233478,22734087,"19046 N 15th Ave, Phoenix, AZ 85027 ",85027,0.5138009190559387,233000,https://www.zillow.com/homedetails/19046-N-15th-Ave-Phoenix-AZ-85027/7969522_zpid/,33.6598,-112.09200000000001,2017-10-03,2017-10-03
699572,22610395,"960 W Natal Ave, Mesa, AZ 85210 ",85210,0.5137987732887268,313500,https://www.zillow.com/homedetails/960-W-Natal-Ave-Mesa-AZ-85210/8197974_zpid/,33.367,-111.855,2017-09-01,2017-09-01
8969591,22686677,"8210 W Wood Ln, Phoenix, AZ 85043 ",85043,0.5137852430343628,205900,https://www.zillow.com/homedetails/8210-W-Wood-Ln-Phoenix-AZ-85043/95136849_zpid/,33.41,-112.229,2017-09-15,2017-09-15
9016481,22710650,"7401 W Jenan Dr, Peoria, AZ 85345 ",85345,0.5137430429458618,265000,https://www.zillow.com/homedetails/7401-W-Jenan-Dr-Peoria-AZ-85345/7700306_zpid/,33.5916,-112.21799999999999,2017-09-22,2017-09-22
417985,22687216,"4933 W Laurie Ln, Glendale, AZ 85302 ",85302,0.5136058926582336,267850,https://www.zillow.com/homedetails/4933-W-Laurie-Ln-Glendale-AZ-85302/7732108_zpid/,33.5585,-112.166,2017-09-17,2017-09-17
9016642,22712000,"6402 W Weldon Ave, Phoenix, AZ 85033 ",85033,0.513533353805542,121000,https://www.zillow.com/homedetails/6402-W-Weldon-Ave-Phoenix-AZ-85033/7489112_zpid/,33.4907,-112.198,2017-09-23,2017-09-23
9013138,22711811,"1129 E Ardmore Rd, Phoenix, AZ 85042 ",85042,0.5135230422019958,172000,https://www.zillow.com/homedetails/1129-E-Ardmore-Rd-Phoenix-AZ-85042/8131112_zpid/,33.3682,-112.05799999999999,2017-09-21,2017-09-21
1369900,22737357,"6410 N 83rd Dr, Glendale, AZ 85305 ",85305,0.5134578943252563,255000,https://www.zillow.com/homedetails/6410-N-83rd-Dr-Glendale-AZ-85305/7462296_zpid/,33.5292,-112.238,2017-09-25,2017-09-25
9016804,22738611,"7237 W Sierra St, Peoria, AZ 85345 ",85345,0.5134060978889465,200000,https://www.zillow.com/homedetails/7237-W-Sierra-St-Peoria-AZ-85345/7700458_zpid/,33.5903,-112.215,2017-10-04,2017-10-04
190807,22693975,"1638 W Alta Vista Rd, Phoenix, AZ 85041 ",85041,0.5133285522460938,190000,https://www.zillow.com/homedetails/1638-W-Alta-Vista-Rd-Phoenix-AZ-85041/60554396_zpid/,33.3898,-112.094,2017-09-20,2017-09-20
1344157,22629229,"4614 W Palo Verde Dr, Glendale, AZ 85301 ",85301,0.5133243799209595,244999,https://www.zillow.com/homedetails/4614-W-Palo-Verde-Dr-Glendale-AZ-85301/7717953_zpid/,33.5235,-112.15899999999999,2017-09-01,2017-09-01
9017713,22720554,"1842 E Southern Ave, Phoenix, AZ 85040 ",85040,0.5132890343666077,145000,https://www.zillow.com/homedetails/1842-E-Southern-Ave-Phoenix-AZ-85040/7547394_zpid/,33.3928,-112.041,2017-09-25,2017-09-25
8965370,22557620,"7231 N 77th Dr, Glendale, AZ 85303 ",85303,0.5132740139961243,264883,https://www.zillow.com/homedetails/7231-N-77th-Dr-Glendale-AZ-85303/2094013205_zpid/,33.5401,-112.225,2017-08-18,2017-08-18
1374320,22747529,"8853 W Maryland Ave, Glendale, AZ 85305 ",85305,0.5131337642669678,230000,https://www.zillow.com/homedetails/8853-W-Maryland-Ave-Glendale-AZ-85305/7462091_zpid/,33.53,-112.249,2017-09-20,2017-09-20
49110,22739443,"16642 S 21st St, Phoenix, AZ 85048 ",85048,0.5130227208137512,318900,https://www.zillow.com/homedetails/16642-S-21st-St-Phoenix-AZ-85048/8257224_zpid/,33.2955,-112.038,2017-10-04,2017-10-04
185233,22746837,"1520 E Windsong Dr, Phoenix, AZ 85048 ",85048,0.5128694176673889,319000,https://www.zillow.com/homedetails/1520-E-Windsong-Dr-Phoenix-AZ-85048/8162706_zpid/,33.2923,-112.05,2017-10-10,2017-10-10
406153,22740151,"5114 W Acoma Dr, Glendale, AZ 85306 ",85306,0.5127901434898376,255000,https://www.zillow.com/homedetails/5114-W-Acoma-Dr-Glendale-AZ-85306/7910898_zpid/,33.6179,-112.17,2017-10-04,2017-10-04
246577,22503415,"2057 W Morningside Dr, Phoenix, AZ 85023 ",85023,0.5126494765281677,232000,https://www.zillow.com/homedetails/2057-W-Morningside-Dr-Phoenix-AZ-85023/7958331_zpid/,33.6483,-112.105,2017-08-12,2017-08-12
35680,22738506,"2924 E Mobile Ln, Phoenix, AZ 85040 ",85040,0.5126111507415771,180000,https://www.zillow.com/homedetails/2924-E-Mobile-Ln-Phoenix-AZ-85040/7548155_zpid/,33.4018,-112.01700000000001,2017-09-09,2017-09-09
187808,22738547,"3419 E Glenhaven Dr, Phoenix, AZ 85048 ",85048,0.5125481486320496,349900,https://www.zillow.com/homedetails/3419-E-Glenhaven-Dr-Phoenix-AZ-85048/8255935_zpid/,33.2949,-112.01,2017-10-05,2017-10-05
881,22721612,"4901 W Crittenden Ln, Phoenix, AZ 85031 ",85031,0.5125318765640259,152900,https://www.zillow.com/homedetails/4901-W-Crittenden-Ln-Phoenix-AZ-85031/7508504_zpid/,33.4884,-112.165,2017-09-26,2017-09-26
961338,22639617,"3982 W Rene Dr, Chandler, AZ 85226 ",85226,0.5124815106391907,352500,https://www.zillow.com/homedetails/3982-W-Rene-Dr-Chandler-AZ-85226/8264922_zpid/,33.3175,-111.911,2017-09-07,2017-09-07
