property_id,transaction_id,address,zipcode,any_sell,good_sell,bayesian,list,url,lat,long,date_listed,transaction_date
237883,17872058,"3009 W Charleston Ave, Phoenix, AZ 85053 ",85053,0.6408284604549408,0.9636462032794952,0.6175319128708479,220000,https://www.zillow.com/homedetails/3009-W-Charleston-Ave-Phoenix-AZ-85053/7940776_zpid/,33.6487,-112.124,6284,2017-03-16
240418,17871990,"17441 N 9th Ave, Phoenix, AZ 85023 ",85023,0.6308360695838928,0.9636462032794952,0.6079027833462778,219900,https://www.zillow.com/homedetails/17441-N-9th-Ave-Phoenix-AZ-85023/7963646_zpid/,33.6458,-112.085,6284,2017-03-16
646296,17862449,"2248 W Del Oro Cir, Mesa, AZ 85202 ",85202,0.6116851270198822,0.9636462032794952,0.5894480502552453,230000,https://www.zillow.com/homedetails/2248-W-Del-Oro-Cir-Mesa-AZ-85202/7602090_zpid/,33.4019,-111.88,6291,2017-03-23
392547,17866420,"3301 W Paradise Dr, Phoenix, AZ 85029 ",85029,0.6089753806591034,0.9636462032794952,0.5868368134628303,217500,https://www.zillow.com/homedetails/3301-W-Paradise-Dr-Phoenix-AZ-85029/7748604_zpid/,33.5947,-112.13,6275,2017-03-07
9023243,23866706,"9140 W Gelding Dr, Peoria, AZ 85381 ",85381,0.6482918858528137,0.8832302093505859,0.5725909780620668,247000,https://www.zillow.com/homedetails/9140-W-Gelding-Dr-Peoria-AZ-85381/7908642_zpid/,33.6153,-112.255,6579,2018-01-05
261662,23863593,"4827 W Topeka Dr, Glendale, AZ 85308 ",85308,0.6513091921806335,0.8755609393119812,0.5702608880882032,230000,https://www.zillow.com/homedetails/4827-W-Topeka-Dr-Glendale-AZ-85308/7939843_zpid/,33.6597,-112.166,6569,2017-12-26
2042666,23866719,"9694 N 82nd Gln, Peoria, AZ 85345 ",85345,0.648165762424469,0.8780756890773773,0.5691385984772293,219000,https://www.zillow.com/homedetails/9694-N-82nd-Gln-Peoria-AZ-85345/60978309_zpid/,33.5735,-112.23700000000001,6578,2018-01-04
230832,23863481,"19209 N 6th St, Phoenix, AZ 85024 ",85024,0.6467669606208801,0.8796815574169159,0.5689489672047809,235000,https://www.zillow.com/homedetails/19209-N-6th-St-Phoenix-AZ-85024/7972480_zpid/,33.6606,-112.066,6581,2018-01-07
9025869,23860030,"11848 N 79th Dr, Peoria, AZ 85345 ",85345,0.6510388851165771,0.8729470074176788,0.568322446475058,215000,https://www.zillow.com/homedetails/11848-N-79th-Dr-Peoria-AZ-85345/2091778016_zpid/,33.5928,-112.23,6557,2017-12-14
9022735,23864019,"13216 N 31ST Way, Phoenix, AZ 85032 ",85032,0.6476592421531677,0.875694990158081,0.5671519536831084,241000,https://www.zillow.com/homedetails/13216-N-31st-Way-Phoenix-AZ-85032/50188555_zpid/,33.6068,-112.014,6581,2018-01-07
9007274,23854421,"8426 W Bluefield Ave, Peoria, AZ 85382 ",85382,0.6596010327339172,0.8580921292304993,0.5659984546212833,229000,https://www.zillow.com/homedetails/8426-W-Bluefield-Ave-Peoria-AZ-85382/8129054_zpid/,33.6509,-112.241,6552,2017-12-09
1115749,23864072,"1721 W Nopal Dr, Chandler, AZ 85224 ",85224,0.6295903921127319,0.8986696600914001,0.5657937836767601,249900,https://www.zillow.com/homedetails/1721-W-Nopal-Dr-Chandler-AZ-85224/8198402_zpid/,33.3418,-111.874,6581,2018-01-07
9024615,23850383,"4345 W Morrow Dr, Glendale, AZ 85308 ",85308,0.6582153141498566,0.8591533303260803,0.5655078792234765,245000,https://www.zillow.com/homedetails/4345-W-Morrow-Dr-Glendale-AZ-85308/7938791_zpid/,33.6569,-112.154,6552,2017-12-09
9025718,23861001,"2944 W Villa Theresa Dr, Phoenix, AZ 85053 ",85053,0.6479715704917908,0.8717840909957886,0.5648913065722994,210000,https://www.zillow.com/homedetails/2944-W-Villa-Theresa-Dr-Phoenix-AZ-85053/7940561_zpid/,33.6541,-112.12299999999999,6573,2017-12-30
8977160,23825434,"16231 N 91st Dr, Peoria, AZ 85382 ",85382,0.6596010327339172,0.8532532453536987,0.5628067218188662,233000,https://www.zillow.com/homedetails/16231-N-91st-Dr-Peoria-AZ-85382/2123153916_zpid/,33.6316,-112.25200000000001,6526,2017-11-13
9026050,23861695,"19901 N 98th Ave, Peoria, AZ 85382 ",85382,0.6377059519290924,0.8820930421352386,0.5625159831248814,239000,https://www.zillow.com/homedetails/19901-N-98th-Ave-Peoria-AZ-85382/7896097_zpid/,33.6647,-112.271,6571,2017-12-28
225855,23847348,"1461 E Renee Dr, Phoenix, AZ 85024 ",85024,0.6496531665325165,0.864250659942627,0.5614631779095447,249000,https://www.zillow.com/homedetails/1461-E-Renee-Dr-Phoenix-AZ-85024/7996071_zpid/,33.6554,-112.05,6545,2017-12-02
403812,23864058,"16025 N 47TH Dr, Glendale, AZ 85306 ",85306,0.6393982172012329,0.8752774000167847,0.5596508091272625,240000,https://www.zillow.com/homedetails/16025-N-47TH-Dr-Glendale-AZ-85306/7951382_zpid/,33.6308,-112.161,6581,2018-01-07
9022649,23862722,"7133 W Mountain View Rd, Peoria, AZ 85345 ",85345,0.6388119757175446,0.8751058876514435,0.5590281210526742,205000,https://www.zillow.com/homedetails/7133-W-Mountain-View-Rd-Peoria-AZ-85345/7702397_zpid/,33.5743,-112.213,6576,2018-01-02
9021795,23854390,"747 W Rosal Pl, Chandler, AZ 85225 ",85225,0.6320193111896515,0.8838722109794617,0.5586243059629137,244800,https://www.zillow.com/homedetails/747-W-Rosal-Pl-Chandler-AZ-85225/8177685_zpid/,33.3412,-111.855,6551,2017-12-08
9021586,23838024,"8142 W Sweetwater Ave, Peoria, AZ 85381 ",85381,0.648165762424469,0.8598465919494629,0.5573231218390049,240000,https://www.zillow.com/homedetails/8142-W-Sweetwater-Ave-Peoria-AZ-85381/7913307_zpid/,33.6028,-112.235,6529,2017-11-16
235380,23862487,"2831 W Grovers Ave, Phoenix, AZ 85053 ",85053,0.6387090086936951,0.8722920417785645,0.5571407852957861,200000,https://www.zillow.com/homedetails/2831-W-Grovers-Ave-Phoenix-AZ-85053/7942333_zpid/,33.6472,-112.12200000000001,6578,2018-01-04
405758,23864265,"4841 W Paradise Ln, Glendale, AZ 85306 ",85306,0.6371665000915527,0.873711347579956,0.5566996014277947,249999,https://www.zillow.com/homedetails/4841-W-Paradise-Ln-Glendale-AZ-85306/7951435_zpid/,33.6321,-112.163,6579,2018-01-05
9026158,23863640,"3832 W Villa Theresa Dr, Glendale, AZ 85308 ",85308,0.6362794637680054,0.8743619918823242,0.5563385793340103,218000,https://www.zillow.com/homedetails/3832-W-Villa-Theresa-Dr-Glendale-AZ-85308/7948394_zpid/,33.6543,-112.14200000000001,6580,2018-01-06
393911,23884959,"7111 N 27th Ln, Phoenix, AZ 85051 ",85051,0.6467669606208801,0.8597705364227295,0.5560711766735125,225000,https://www.zillow.com/homedetails/7111-N-27th-Ln-Phoenix-AZ-85051/81986825_zpid/,33.5411,-112.118,6561,2017-12-18
352916,23863486,"213 E Campo Bello Dr, Phoenix, AZ 85022 ",85022,0.6313783228397369,0.8807228803634644,0.5560693350904664,225000,https://www.zillow.com/homedetails/213-E-Campo-Bello-Dr-Phoenix-AZ-85022/7959267_zpid/,33.6435,-112.071,6579,2018-01-05
1356244,23823740,"6825 N 60th Ave, Glendale, AZ 85301 ",85301,0.6582153141498566,0.843079000711441,0.5549275093064283,182000,https://www.zillow.com/homedetails/6825-N-60th-Ave-Glendale-AZ-85301/7707716_zpid/,33.5378,-112.189,6521,2017-11-08
1091154,23858452,"668 W Shawnee Dr, Chandler, AZ 85225 ",85225,0.6320193111896515,0.8764371275901794,0.5539251896805819,239900,https://www.zillow.com/homedetails/668-W-Shawnee-Dr-Chandler-AZ-85225/8200509_zpid/,33.3448,-111.852,6535,2017-11-22
629569,23853723,"1645 W Peralta Ave, Mesa, AZ 85202 ",85202,0.6279894411563873,0.8818525075912476,0.5537940634245864,222900,https://www.zillow.com/homedetails/1645-W-Peralta-Ave-Mesa-AZ-85202/8191627_zpid/,33.3572,-111.87,6553,2017-12-10
832662,23884685,"4236 W Palo Verde Dr, Phoenix, AZ 85019 ",85019,0.6305175125598907,0.8770974576473236,0.5530253072683946,219900,https://www.zillow.com/homedetails/4236-W-Palo-Verde-Dr-Phoenix-AZ-85019/7718989_zpid/,33.5232,-112.15100000000001,6576,2018-01-02
412003,23883799,"5331 W Voltaire Dr, Glendale, AZ 85304 ",85304,0.6346234381198883,0.8705938160419464,0.5524992407424536,206000,https://www.zillow.com/homedetails/5331-W-Voltaire-Dr-Glendale-AZ-85304/7911791_zpid/,33.6084,-112.17399999999999,6572,2017-12-29
9025615,23856149,"17636 N 35th St, Phoenix, AZ 85032 ",85032,0.6559280455112457,0.8417992293834686,0.5521597232423714,235000,https://www.zillow.com/homedetails/17636-N-35th-St-Phoenix-AZ-85032/7998341_zpid/,33.6469,-112.005,6557,2017-12-14
332059,23858248,"115 E Hartford Ave, Phoenix, AZ 85022 ",85022,0.6362794637680054,0.8669987916946411,0.5516535262669748,215000,https://www.zillow.com/homedetails/115-E-Hartford-Ave-Phoenix-AZ-85022/79527909_zpid/,33.6426,-112.073,6562,2017-12-19
237433,23843870,"2957 W Michelle Dr, Phoenix, AZ 85053 ",85053,0.6495014727115631,0.8482730388641357,0.5509545880037692,225000,https://www.zillow.com/homedetails/2957-W-Michelle-Dr-Phoenix-AZ-85053/7940747_zpid/,33.6492,-112.124,6542,2017-11-29
234034,23855362,"18447 N 31ST Ave, Phoenix, AZ 85053 ",85053,0.6474990844726562,0.8504478931427002,0.5506642322015978,209000,https://www.zillow.com/homedetails/18447-N-31st-Ave-Phoenix-AZ-85053/7940519_zpid/,33.6544,-112.126,6551,2017-12-08
423007,23883750,"8427 N 47th Dr, Glendale, AZ 85302 ",85302,0.6369047462940216,0.8643836379051208,0.5505300416006644,246999,https://www.zillow.com/homedetails/8427-N-47th-Dr-Glendale-AZ-85302/7731867_zpid/,33.5593,-112.161,6578,2018-01-04
413890,23882883,"6209 W Bloomfield Rd, Glendale, AZ 85304 ",85304,0.6316141486167908,0.8712180256843567,0.5502736315522263,225000,https://www.zillow.com/homedetails/6209-W-Bloomfield-Rd-Glendale-AZ-85304/7912238_zpid/,33.5984,-112.19200000000001,6561,2017-12-18
255987,23850390,"506 W Beverly Ln, Phoenix, AZ 85023 ",85023,0.6431855857372284,0.8554812669754028,0.5502332197868007,229900,https://www.zillow.com/homedetails/506-W-Beverly-Ln-Phoenix-AZ-85023/7965481_zpid/,33.6337,-112.081,6552,2017-12-09
7389079,23836128,"12207 N Sun Valley Dr, Sun City, AZ 85351 ",85351,0.6490219235420227,0.8474375307559967,0.550005536292959,209900,https://www.zillow.com/homedetails/12207-N-Sun-Valley-Dr-Sun-City-AZ-85351/7686174_zpid/,33.5952,-112.271,6530,2017-11-17
242869,23862343,"18216 N 24TH Dr, Phoenix, AZ 85023 ",85023,0.6342774033546448,0.8666463792324066,0.5496942150462356,197899,https://www.zillow.com/homedetails/18216-N-24th-Dr-Phoenix-AZ-85023/7957934_zpid/,33.6523,-112.111,6576,2018-01-02
422815,23883544,"8324 N 56th Ln, Glendale, AZ 85302 ",85302,0.6280903220176697,0.8746526837348938,0.5493608857806684,242900,https://www.zillow.com/homedetails/8324-N-56th-Ln-Glendale-AZ-85302/7732897_zpid/,33.5576,-112.181,6568,2017-12-25
409785,23870370,"4531 W Wethersfield Rd, Glendale, AZ 85304 ",85304,0.6278011798858643,0.8725431859493256,0.5477836416403576,235000,https://www.zillow.com/homedetails/4531-W-Wethersfield-Rd-Glendale-AZ-85304/7955091_zpid/,33.5969,-112.15700000000001,6577,2018-01-03
419470,23882476,"5428 W Puget Ave, Glendale, AZ 85302 ",85302,0.6288421452045441,0.870320737361908,0.5472943594986628,180000,https://www.zillow.com/homedetails/5428-W-Puget-Ave-Glendale-AZ-85302/7733603_zpid/,33.567,-112.177,6559,2017-12-16
424918,23883758,"9803 N 50th Ave, Glendale, AZ 85302 ",85302,0.6263486742973328,0.8737655878067017,0.5472819175693573,224500,https://www.zillow.com/homedetails/9803-N-50th-Ave-Glendale-AZ-85302/7728972_zpid/,33.575,-112.167,6571,2017-12-28
9021086,23815044,"8137 W Aster Dr, Peoria, AZ 85381 ",85381,0.6525687873363495,0.8383242189884186,0.5470642189799646,239000,https://www.zillow.com/homedetails/8137-W-Aster-Dr-Peoria-AZ-85381/8100990_zpid/,33.6013,-112.235,6512,2017-10-30
232395,23858251,"19615 N 6th Pl, Phoenix, AZ 85024 ",85024,0.6496531665325165,0.8414830565452576,0.5466721322680872,179990,https://www.zillow.com/homedetails/19615-N-6th-Pl-Phoenix-AZ-85024/7967758_zpid/,33.6645,-112.066,6553,2017-12-10
7977745,23866230,"19033 N 45TH Dr, Glendale, AZ 85308 ",85308,0.6292243897914886,0.8664084374904633,0.5451653203901339,159000,https://www.zillow.com/homedetails/19033-N-45th-Dr-Glendale-AZ-85308/7939041_zpid/,33.6593,-112.15799999999999,6583,2018-01-09
258179,23864232,"417 W Renee Dr, Phoenix, AZ 85027 ",85027,0.6199664175510406,0.8789097368717194,0.5448945209190876,205000,https://www.zillow.com/homedetails/417-W-Renee-Dr-Phoenix-AZ-85027/7972590_zpid/,33.6551,-112.08,6583,2018-01-09
415049,23846150,"10006 N 66TH Ave, Glendale, AZ 85302 ",85302,0.6237822473049164,0.8717651665210724,0.5437916346946592,199000,https://www.zillow.com/homedetails/10006-N-66th-Ave-Glendale-AZ-85302/7706542_zpid/,33.5765,-112.20100000000001,6544,2017-12-01
415297,23835189,"10114 N 66TH Ln, Glendale, AZ 85302 ",85302,0.6237822473049164,0.8680540323257446,0.5414766950662475,197500,https://www.zillow.com/homedetails/10114-N-66th-Ln-Glendale-AZ-85302/67083300_zpid/,33.5779,-112.20299999999999,6528,2017-11-15
411064,23882421,"5118 W Columbine Dr, Glendale, AZ 85304 ",85304,0.6208216845989227,0.8721788823604584,0.5414675630186254,239000,https://www.zillow.com/homedetails/5118-W-Columbine-Dr-Glendale-AZ-85304/7911366_zpid/,33.5987,-112.17,6579,2018-01-05
9018003,23819878,"1842 W Alamo Dr, Chandler, AZ 85224 ",85224,0.629719078540802,0.8596481382846832,0.5413368335099467,244500,https://www.zillow.com/homedetails/1842-W-Alamo-Dr-Chandler-AZ-85224/8199834_zpid/,33.3482,-111.875,6516,2017-11-03
243942,23854107,"18463 N 5TH Ave, Phoenix, AZ 85023 ",85023,0.6361533403396606,0.8509531021118164,0.5413366583808283,249000,https://www.zillow.com/homedetails/18463-N-5th-Ave-Phoenix-AZ-85023/7956457_zpid/,33.6543,-112.08,6552,2017-12-09
225687,23849553,"1306 W Charleston Ave, Phoenix, AZ 85023 ",85023,0.6346234381198883,0.8526695966720581,0.54112411102032,245000,https://www.zillow.com/homedetails/1306-W-Charleston-Ave-Phoenix-AZ-85023/7956977_zpid/,33.6491,-112.09,6550,2017-12-07
1665351,23862007,"17415 N Country Club Dr, Sun City, AZ 85373 ",85373,0.6185834407806396,0.8746189475059509,0.5410247979201728,219500,https://www.zillow.com/homedetails/17415-N-Country-Club-Dr-Sun-City-AZ-85373/7897399_zpid/,33.6428,-112.26,6574,2017-12-31
225614,23844378,"1303 W Michelle Dr, Phoenix, AZ 85023 ",85023,0.6346234381198883,0.8502850830554962,0.5396108427907338,249900,https://www.zillow.com/homedetails/1303-W-Michelle-Dr-Phoenix-AZ-85023/7956957_zpid/,33.6494,-112.09,6543,2017-11-30
9012841,23819608,"8121 W Hatcher Rd, Peoria, AZ 85345 ",85345,0.637373298406601,0.8464737832546234,0.5395197872477135,239000,https://www.zillow.com/homedetails/8121-W-Hatcher-Rd-Peoria-AZ-85345/7682649_zpid/,33.57,-112.234,6515,2017-11-02
222394,23848564,"1010 W Campo Bello Dr, Phoenix, AZ 85023 ",85023,0.6393982172012329,0.8435609638690948,0.5393713763984529,199900,https://www.zillow.com/homedetails/1010-W-Campo-Bello-Dr-Phoenix-AZ-85023/7963596_zpid/,33.644,-112.087,6549,2017-12-06
976127,23846057,"734 N Tangerine Dr, Chandler, AZ 85226 ",85226,0.6169895827770233,0.8734450042247772,0.5389064687353207,204900,https://www.zillow.com/homedetails/734-N-Tangerine-Dr-Chandler-AZ-85226/8156625_zpid/,33.3162,-111.928,6544,2017-12-01
1093584,23859955,"781 W Del Rio St, Chandler, AZ 85225 ",85225,0.6141516268253326,0.8771125376224518,0.5386800918897245,248900,https://www.zillow.com/homedetails/781-W-Del-Rio-St-Chandler-AZ-85225/8186554_zpid/,33.3158,-111.854,6565,2017-12-22
9019728,23843826,"17413 N 8TH Ave, Phoenix, AZ 85023 ",85023,0.6393982172012329,0.8421732485294342,0.5384840736842911,184500,https://www.zillow.com/homedetails/17413-N-8th-Ave-Phoenix-AZ-85023/7963487_zpid/,33.6445,-112.085,6542,2017-11-29
1667493,23859750,"18423 N 94TH Dr, Sun City, AZ 85373 ",85373,0.6185834407806396,0.8700674772262573,0.5382093337739491,249900,https://www.zillow.com/homedetails/18423-N-94th-Dr-Sun-City-AZ-85373/7897476_zpid/,33.6522,-112.26299999999999,6571,2017-12-28
9025717,23858269,"3333 W Grovers Ave, Phoenix, AZ 85053 ",85053,0.6237822473049164,0.8627945780754089,0.5381959408743757,162000,https://www.zillow.com/homedetails/3333-W-Grovers-Ave-Phoenix-AZ-85053/2091717911_zpid/,33.6474,-112.131,6564,2017-12-21
1990166,23862524,"3227 W Corrine Dr, Phoenix, AZ 85029 ",85029,0.6210402250289917,0.866398811340332,0.5380685127596507,180000,https://www.zillow.com/homedetails/3227-W-Corrine-Dr-Phoenix-AZ-85029/7747533_zpid/,33.6005,-112.12799999999999,6578,2018-01-04
1092802,23820224,"731 W Palomino Dr, Chandler, AZ 85225 ",85225,0.6320193111896515,0.8510227203369141,0.5378627935140798,245900,https://www.zillow.com/homedetails/731-W-Palomino-Dr-Chandler-AZ-85225/8177603_zpid/,33.3404,-111.855,6516,2017-11-03
417420,23882392,"4809 W Laurie Ln, Glendale, AZ 85302 ",85302,0.6231997907161713,0.8628408908843994,0.5377222626205125,243000,https://www.zillow.com/homedetails/4809-W-Laurie-Ln-Glendale-AZ-85302/7731926_zpid/,33.5587,-112.163,6556,2017-12-13
392047,23856667,"3214 W Voltaire Ave, Phoenix, AZ 85029 ",85029,0.6230745911598206,0.8627007901668549,0.5375269421264672,229000,https://www.zillow.com/homedetails/3214-W-Voltaire-Ave-Phoenix-AZ-85029/7747954_zpid/,33.6091,-112.12799999999999,6560,2017-12-17
232170,23847359,"17834 N 33RD Dr, Phoenix, AZ 85053 ",85053,0.6298725008964539,0.8533470332622528,0.5374998299734646,249999,https://www.zillow.com/homedetails/17834-N-33RD-Dr-Phoenix-AZ-85053/7941287_zpid/,33.6484,-112.131,6543,2017-11-30
8995212,23864024,"13428 N Hawthorn Dr, Sun City, AZ 85351 ",85351,0.6150456368923187,0.8737599849700928,0.5374022664469535,139800,https://www.zillow.com/homedetails/13428-N-Hawthorn-Dr-Sun-City-AZ-85351/7914831_zpid/,33.6063,-112.274,6580,2018-01-06
391768,23866394,"3152 W Shangri La Rd, Phoenix, AZ 85029 ",85029,0.6134918630123138,0.8752185106277466,0.5369394346278789,229999,https://www.zillow.com/homedetails/3152-W-Shangri-La-Rd-Phoenix-AZ-85029/7740605_zpid/,33.5881,-112.12799999999999,6577,2018-01-03
379528,23846192,"11438 N 30TH Ave, Phoenix, AZ 85029 ",85029,0.6430495977401733,0.8349028527736664,0.5368839436282293,235000,https://www.zillow.com/homedetails/11438-N-30th-Ave-Phoenix-AZ-85029/7739912_zpid/,33.5907,-112.124,6544,2017-12-01
1422266,23883525,"8164 W Sierra Vista Dr, Glendale, AZ 85303 ",85303,0.608159065246582,0.882661759853363,0.5367987508013243,239900,https://www.zillow.com/homedetails/8164-W-Sierra-Vista-Dr-Glendale-AZ-85303/7462584_zpid/,33.5315,-112.236,6579,2018-01-05
7449241,23819586,"11935 N 68th Ave, Peoria, AZ 85345 ",85345,0.6361533403396606,0.8433335423469543,0.5364894499844937,245000,https://www.zillow.com/homedetails/11935-N-68th-Ave-Peoria-AZ-85345/7700139_zpid/,33.594,-112.204,6516,2017-11-03
9023475,23827261,"12202 N Balboa Dr, Sun City, AZ 85351 ",85351,0.6490219235420227,0.8261904120445251,0.536215690437114,159500,https://www.zillow.com/homedetails/12202-N-Balboa-Dr-Sun-City-AZ-85351/7916635_zpid/,33.5958,-112.274,6526,2017-11-13
381077,23870349,"12217 N 30TH Ave, Phoenix, AZ 85029 ",85029,0.6136267781257629,0.8736138343811035,0.5360728425173704,239000,https://www.zillow.com/homedetails/12217-N-30th-Ave-Phoenix-AZ-85029/7747117_zpid/,33.5971,-112.12299999999999,6577,2018-01-03
9023033,23823351,"437 E Wescott Dr, Phoenix, AZ 85024 ",85024,0.6511830687522888,0.823206901550293,0.5360583963695831,225000,https://www.zillow.com/homedetails/437-E-Wescott-Dr-Phoenix-AZ-85024/2092120604_zpid/,33.6585,-112.068,6521,2017-11-08
9021585,23824122,"12612 N 79TH Ave, Peoria, AZ 85381 ",85381,0.6360499262809753,0.8418981730937958,0.5354892709323966,225000,https://www.zillow.com/homedetails/12612-N-79th-Ave-Peoria-AZ-85381/8101178_zpid/,33.5997,-112.229,6522,2017-11-09
381604,23884452,"3036 W Northview Ave, Phoenix, AZ 85051 ",85051,0.6110253632068634,0.8752224743366241,0.5347831302683455,245000,https://www.zillow.com/homedetails/3036-W-Northview-Ave-Phoenix-AZ-85051/7756072_zpid/,33.5432,-112.125,6579,2018-01-05
463250,23884456,"2736 W Rose Ln, Phoenix, AZ 85017 ",85017,0.6138906478881836,0.8711158335208893,0.5347698634257938,184900,https://www.zillow.com/homedetails/2736-W-Rose-Ln-Phoenix-AZ-85017/7759733_zpid/,33.5278,-112.118,6581,2018-01-07
355855,23833551,"702 E Rose Marie Ln, Phoenix, AZ 85022 ",85022,0.6361533403396606,0.8403013050556183,0.5345604821029077,247000,https://www.zillow.com/homedetails/702-E-Rose-Marie-Ln-Phoenix-AZ-85022/49942677_zpid/,33.6527,-112.065,6527,2017-11-14
8989113,22740158,"19153 N 75TH Dr, Glendale, AZ 85308 ",85308,0.6596010327339172,0.8082607090473175,0.5331295984058588,235000,https://www.zillow.com/homedetails/19153-N-75th-Dr-Glendale-AZ-85308/7892099_zpid/,33.6583,-112.221,6487,2017-10-05
452056,23863849,"8831 W Mariposa St, Phoenix, AZ 85037 ",85037,0.608159065246582,0.8760432302951813,0.5327736320519136,209900,https://www.zillow.com/homedetails/8831-W-Mariposa-St-Phoenix-AZ-85037/7483281_zpid/,33.5074,-112.25,6581,2018-01-07
1864574,23822334,"9873 W Escuda Dr, Peoria, AZ 85382 ",85382,0.635492205619812,0.837937742471695,0.5325029041354234,245000,https://www.zillow.com/homedetails/9873-W-Escuda-Dr-Peoria-AZ-85382/7896125_zpid/,33.6652,-112.271,6519,2017-11-06
387030,23862016,"2114 W Sunnyside Dr, Phoenix, AZ 85029 ",85029,0.6136267781257629,0.8675895035266876,0.5323761517848116,174400,https://www.zillow.com/homedetails/2114-W-Sunnyside-Dr-Phoenix-AZ-85029/7748813_zpid/,33.5934,-112.104,6575,2018-01-01
410719,23854939,"4923 W Larkspur Dr, Glendale, AZ 85304 ",85304,0.6170087158679962,0.8628124296665192,0.5323627892634848,236000,https://www.zillow.com/homedetails/4923-W-Larkspur-Dr-Glendale-AZ-85304/7954371_zpid/,33.5993,-112.165,6557,2017-12-14
347157,23863475,"17828 N 1ST St, Phoenix, AZ 85022 ",85022,0.6308360695838928,0.8435822427272797,0.5321621063728426,104990,https://www.zillow.com/homedetails/17828-N-1st-St-Phoenix-AZ-85022/7956061_zpid/,33.6483,-112.074,6567,2017-12-24
9026266,23865520,"11403 N Arbor Ct, Sun City, AZ 85351 ",85351,0.6202951073646545,0.8574301600456238,0.5318597331831931,190000,https://www.zillow.com/homedetails/11403-N-Arbor-Ct-Sun-City-AZ-85351/7685894_zpid/,33.5879,-112.26799999999999,6559,2017-12-16
834399,23856892,"3514 W Mariposa St, Phoenix, AZ 85019 ",85019,0.6155262291431427,0.8639587759971619,0.5317892875246581,195000,https://www.zillow.com/homedetails/3514-W-Mariposa-St-Phoenix-AZ-85019/7506769_zpid/,33.5079,-112.135,6560,2017-12-17
343494,23875666,"2518 S 66th Dr, Phoenix, AZ 85043 ",85043,0.5924955010414124,0.8972285687923431,0.5316038904152887,194900,https://www.zillow.com/homedetails/2518-S-66th-Dr-Phoenix-AZ-85043/67773235_zpid/,33.425,-112.20200000000001,6581,2018-01-07
419794,23856376,"5539 W Hatcher Rd, Glendale, AZ 85302 ",85302,0.6077838838100433,0.8741263449192047,0.5312799048556718,204999,https://www.zillow.com/homedetails/5539-W-Hatcher-Rd-Glendale-AZ-85302/7734771_zpid/,33.5705,-112.179,6559,2017-12-16
1350982,23882685,"5854 W Morten Ave, Glendale, AZ 85301 ",85301,0.6230745911598206,0.8523440659046173,0.5310739303910186,179000,https://www.zillow.com/homedetails/5854-W-Morten-Ave-Glendale-AZ-85301/7726731_zpid/,33.5479,-112.186,6544,2017-12-01
349688,23875696,"6325 W Whyman Ave, Phoenix, AZ 85043 ",85043,0.59410360455513,0.8936271667480469,0.5309071208934029,225000,https://www.zillow.com/homedetails/6325-W-Whyman-Ave-Phoenix-AZ-85043/53206198_zpid/,33.4269,-112.197,6579,2018-01-05
1113596,23885766,"1567 W Kesler Ln, Chandler, AZ 85224 ",85224,0.589356005191803,0.8999086916446686,0.5303665915450839,245000,https://www.zillow.com/homedetails/1567-W-Kesler-Ln-Chandler-AZ-85224/8226104_zpid/,33.2918,-111.869,6596,2018-01-22
1090754,23886112,"649 W Ivanhoe St, Chandler, AZ 85225 ",85225,0.6161859929561615,0.858998030424118,0.5293025543242722,190000,https://www.zillow.com/homedetails/649-W-Ivanhoe-St-Chandler-AZ-85225/8189345_zpid/,33.3174,-111.851,6536,2017-11-23
9020198,23867892,"17950 N 88th Ave, Peoria, AZ 85382 ",85382,0.5966109037399292,0.886724203824997,0.5290293286121006,249000,https://www.zillow.com/homedetails/17950-N-88th-Ave-Peoria-AZ-85382/7898435_zpid/,33.6467,-112.24799999999999,6590,2018-01-16
402356,23882339,"11811 N 51st Dr, Glendale, AZ 85304 ",85304,0.6027050018310547,0.8776544034481049,0.5289666988372232,189500,https://www.zillow.com/homedetails/11811-N-51st-Dr-Glendale-AZ-85304/60978616_zpid/,33.5933,-112.169,6583,2018-01-09
415471,23882330,"10237 N 66th Ave, Glendale, AZ 85302 ",85302,0.6027050018310547,0.8775461912155151,0.5289014787833821,150000,https://www.zillow.com/homedetails/10237-N-66th-Ave-Glendale-AZ-85302/7706350_zpid/,33.5795,-112.2,6583,2018-01-09
9021439,23856224,"17630 N 33RD Ln, Phoenix, AZ 85053 ",85053,0.6208216845989227,0.8516623377799988,0.5287304472500356,215000,https://www.zillow.com/homedetails/17630-N-33rd-Ln-Phoenix-AZ-85053/7942069_zpid/,33.6462,-112.131,6558,2017-12-15
350999,23875711,"6522 W Preston Ln, Phoenix, AZ 85043 ",85043,0.59410360455513,0.8894374668598175,0.5284180050878016,230000,https://www.zillow.com/homedetails/6522-W-Preston-Ln-Phoenix-AZ-85043/62727413_zpid/,33.4236,-112.20100000000001,6561,2017-12-18
9019112,23856813,"4426 W Vogel Ave, Glendale, AZ 85302 ",85302,0.6057021021842957,0.8714371621608734,0.527831321042358,219900,https://www.zillow.com/homedetails/4426-W-Vogel-Ave-Glendale-AZ-85302/7729451_zpid/,33.5722,-112.155,6561,2017-12-18
1078091,23885832,"2052 N Holguin Way, Chandler, AZ 85225 ",85225,0.589356005191803,0.8951419591903687,0.5275572891479996,219000,https://www.zillow.com/homedetails/2052-N-Holguin-Way-Chandler-AZ-85225/60985138_zpid/,33.3362,-111.84899999999999,6593,2018-01-19
1414408,23870613,"7359 N 70th Ave, Glendale, AZ 85303 ",85303,0.5966109037399292,0.8841382265090942,0.5274865063486089,174900,https://www.zillow.com/homedetails/7359-N-70th-Ave-Glendale-AZ-85303/7704942_zpid/,33.5441,-112.21,6598,2018-01-24
9026282,23865594,"9621 N 82nd Ln, Peoria, AZ 85345 ",85345,0.5966109037399292,0.8836938738822937,0.5272214007263543,205000,https://www.zillow.com/homedetails/9621-N-82nd-Ln-Peoria-AZ-85345/67710601_zpid/,33.5723,-112.236,6585,2018-01-11
9017511,23846619,"7346 W Coolidge St, Phoenix, AZ 85033 ",85033,0.608159065246582,0.8665884137153625,0.5270235996386532,199900,https://www.zillow.com/homedetails/7346-W-Coolidge-St-Phoenix-AZ-85033/7710836_zpid/,33.5042,-112.21799999999999,6544,2017-12-01
831473,23884701,"4018 W Solano Dr N, Phoenix, AZ 85019 ",85019,0.5997235476970673,0.8787553012371063,0.5270102468155224,199900,https://www.zillow.com/homedetails/4018-W-Solano-Dr-N-Phoenix-AZ-85019/7718599_zpid/,33.5218,-112.145,6583,2018-01-09
9025997,23861142,"15848 N 99th Dr, Sun City, AZ 85351 ",85351,0.6101207137107849,0.8636706471443176,0.5269433516467465,239500,https://www.zillow.com/homedetails/15848-N-99th-Dr-Sun-City-AZ-85351/8091359_zpid/,33.6291,-112.272,6558,2017-12-15
447418,23856851,"8311 W Coolidge St, Phoenix, AZ 85037 ",85037,0.599297821521759,0.8792409300804138,0.5269271739899573,189900,https://www.zillow.com/homedetails/8311-W-Coolidge-St-Phoenix-AZ-85037/7480994_zpid/,33.5048,-112.238,6560,2017-12-17
408219,23882796,"6118 W Tierra Buena Ln, Glendale, AZ 85306 ",85306,0.6220526099205017,0.8469700217247009,0.5268599125382742,199000,https://www.zillow.com/homedetails/6118-W-Tierra-Buena-Ln-Glendale-AZ-85306/8096943_zpid/,33.6295,-112.18700000000001,6529,2017-11-16
1372616,23883622,"8549 W Tuckey Ln, Glendale, AZ 85305 ",85305,0.608159065246582,0.8661315441131592,0.5267457502484376,206000,https://www.zillow.com/homedetails/8549-W-Tuckey-Ln-Glendale-AZ-85305/7461499_zpid/,33.533,-112.245,6532,2017-11-19
7450958,21944041,"12172 N 86th Ln, Peoria, AZ 85345 ",85345,0.6564449965953827,0.8019368052482605,0.5264274033909064,215000,https://www.zillow.com/homedetails/12172-N-86th-Ln-Peoria-AZ-85345/7685390_zpid/,33.5947,-112.24600000000001,6289,2017-03-21
400713,23840251,"10843 N 45TH Ln, Glendale, AZ 85304 ",85304,0.6224075853824615,0.8447448015213013,0.5257755721792599,220000,https://www.zillow.com/homedetails/10843-N-45th-Ln-Glendale-AZ-85304/7727914_zpid/,33.5861,-112.156,6534,2017-11-21
7652,23868185,"18611 N 22ND St LOT 44, Phoenix, AZ 85024 ",85024,0.5966109037399292,0.8812618851661682,0.5257704497405413,219000,https://www.zillow.com/homedetails/18611-N-22nd-St-LOT-44-Phoenix-AZ-85024/11884597_zpid/,33.6568,-112.03299999999999,6589,2018-01-15
7436448,23881415,"757 E Rosemonte Dr, Phoenix, AZ 85024 ",85024,0.5966109037399292,0.8806942105293274,0.5254317688624255,245900,https://www.zillow.com/homedetails/757-E-Rosemonte-Dr-Phoenix-AZ-85024/7997447_zpid/,33.6568,-112.06299999999999,6596,2018-01-22
9025999,23861141,"9232 W Meadow Hills Dr, Sun City, AZ 85351 ",85351,0.6105400025844574,0.8598583340644836,0.5249779095019971,241800,https://www.zillow.com/homedetails/9232-W-Meadow-Hills-Dr-Sun-City-AZ-85351/2091823839_zpid/,33.6111,-112.259,6553,2017-12-10
559333,23871337,"1223 W 6TH Ave, Mesa, AZ 85202 ",85202,0.6008952856063843,0.8728188276290894,0.5244727187108111,199900,https://www.zillow.com/homedetails/1223-W-6th-Ave-Mesa-AZ-85202/7604271_zpid/,33.4035,-111.85799999999999,6576,2018-01-02
259461,23881240,"19660 N 48TH Ln, Glendale, AZ 85308 ",85308,0.5966109037399292,0.8789772987365723,0.5244074405661081,215000,https://www.zillow.com/homedetails/19660-N-48TH-Ln-Glendale-AZ-85308/7937777_zpid/,33.6639,-112.165,6584,2018-01-10
436097,23866308,"2311 N 91st Gln, Phoenix, AZ 85037 ",85037,0.59410360455513,0.8822765052318573,0.5241636519725494,239900,https://www.zillow.com/homedetails/2311-N-91st-Gln-Phoenix-AZ-85037/60974969_zpid/,33.4747,-112.257,6579,2018-01-05
389915,23884704,"3942 W Northview Ave, Phoenix, AZ 85051 ",85051,0.6002355217933655,0.872181236743927,0.5235141597353739,209500,https://www.zillow.com/homedetails/3942-W-Northview-Ave-Phoenix-AZ-85051/7757824_zpid/,33.5444,-112.145,6573,2017-12-30
261939,23881383,"5015 W Oraibi Dr, Glendale, AZ 85308 ",85308,0.5966109037399292,0.8773829340934753,0.5234562252354991,227500,https://www.zillow.com/homedetails/5015-W-Oraibi-Dr-Glendale-AZ-85308/7938097_zpid/,33.6641,-112.16799999999999,6593,2018-01-19
249670,23881367,"418 E Taro Ln, Phoenix, AZ 85024 ",85024,0.5966109037399292,0.8770677149295807,0.5232681620452517,245000,https://www.zillow.com/homedetails/418-E-Taro-Ln-Phoenix-AZ-85024/7972390_zpid/,33.6595,-112.069,6592,2018-01-18
354621,23808089,"2310 E Winchcomb Dr, Phoenix, AZ 85022 ",85022,0.6431855857372284,0.8132106065750122,0.523045340317676,224900,https://www.zillow.com/homedetails/2310-E-Winchcomb-Dr-Phoenix-AZ-85022/8010116_zpid/,33.6168,-112.03399999999999,6507,2017-10-25
1412767,23846610,"7238 W Ocotillo Rd, Glendale, AZ 85303 ",85303,0.599407821893692,0.8724717795848846,0.522966409064689,245000,https://www.zillow.com/homedetails/7238-W-Ocotillo-Rd-Glendale-AZ-85303/67800379_zpid/,33.5344,-112.215,6543,2017-11-30
377735,23862131,"10720 N 36TH Ave, Phoenix, AZ 85029 ",85029,0.5981537401676178,0.8740191459655762,0.5227978211374165,225000,https://www.zillow.com/homedetails/10720-N-36th-Ave-Phoenix-AZ-85029/7743347_zpid/,33.5838,-112.137,6576,2018-01-02
250623,23869041,"510 E Topeka Dr, Phoenix, AZ 85024 ",85024,0.5966109037399292,0.8761701285839081,0.5227326522443754,209900,https://www.zillow.com/homedetails/510-E-Topeka-Dr-Phoenix-AZ-85024/7972420_zpid/,33.6601,-112.06700000000001,6585,2018-01-11
231237,23886980,"18621 N 5th Dr, Phoenix, AZ 85027 ",85027,0.5966109037399292,0.8760789334774017,0.522678244249466,225000,https://www.zillow.com/homedetails/18621-N-5th-Dr-Phoenix-AZ-85027/50183691_zpid/,33.6555,-112.081,6585,2018-01-11
1410517,23856547,"7108 N 73rd Dr, Glendale, AZ 85303 ",85303,0.6008788645267487,0.8696525394916534,0.5225558304625482,222000,https://www.zillow.com/homedetails/7108-N-73rd-Dr-Glendale-AZ-85303/82823489_zpid/,33.5387,-112.21700000000001,6532,2017-11-19
261479,23789366,"4757 W Topeka Dr, Glendale, AZ 85308 ",85308,0.6513091921806335,0.8023028075695038,0.5225471934823478,225000,https://www.zillow.com/homedetails/4757-W-Topeka-Dr-Glendale-AZ-85308/7939742_zpid/,33.6603,-112.164,6302,2017-04-03
359220,23854837,"1816 S 84TH Dr, Tolleson, AZ 85353 ",85353,0.59410360455513,0.8781256377696991,0.5216976066512506,225000,https://www.zillow.com/homedetails/1816-S-84th-Dr-Tolleson-AZ-85353/59249294_zpid/,33.4304,-112.241,6557,2017-12-14
424042,23883745,"9015 N 57th Ave, Glendale, AZ 85302 ",85302,0.6077838838100433,0.8580987751483917,0.5215386062523306,205000,https://www.zillow.com/homedetails/9015-N-57th-Ave-Glendale-AZ-85302/7734719_zpid/,33.5681,-112.182,6529,2017-11-16
391845,23866465,"4128 W Frier Dr, Phoenix, AZ 85051 ",85051,0.5956327319145203,0.8755856454372406,0.5215274700169221,229900,https://www.zillow.com/homedetails/4128-W-Frier-Dr-Phoenix-AZ-85051/7755554_zpid/,33.5496,-112.148,6579,2018-01-05
422985,23883576,"8419 N 58th Dr, Glendale, AZ 85302 ",85302,0.595174640417099,0.8762371242046356,0.5215141153186069,225000,https://www.zillow.com/homedetails/8419-N-58th-Dr-Glendale-AZ-85302/7733078_zpid/,33.559,-112.185,6583,2018-01-09
1879274,23888645,"14647 N 87th Ave, Peoria, AZ 85381 ",85381,0.5921444594860077,0.8804841637611389,0.5213738192363291,249000,https://www.zillow.com/homedetails/14647-N-87th-Ave-Peoria-AZ-85381/8103174_zpid/,33.6178,-112.245,6596,2018-01-22
9012412,23871930,"8138 W Desert Cove Ave, Peoria, AZ 85345 ",85345,0.5966109037399292,0.8732912242412567,0.5210150665227253,215000,https://www.zillow.com/homedetails/8138-W-Desert-Cove-Ave-Peoria-AZ-85345/7681199_zpid/,33.585,-112.234,6596,2018-01-22
392024,23860589,"4134 W Linger Ln, Phoenix, AZ 85051 ",85051,0.5956327319145203,0.8744730949401855,0.5208647985249684,224900,https://www.zillow.com/homedetails/4134-W-Linger-Ln-Phoenix-AZ-85051/7755387_zpid/,33.5528,-112.148,6572,2017-12-29
385542,23862282,"1634 W Andorra Dr, Phoenix, AZ 85029 ",85029,0.5982886552810669,0.870457112789154,0.520784615490463,235000,https://www.zillow.com/homedetails/1634-W-Andorra-Dr-Phoenix-AZ-85029/7784245_zpid/,33.6066,-112.095,6577,2018-01-03
9012224,23885680,"9301 W Glen Oaks Cir N, Sun City, AZ 85351 ",85351,0.5937322974205017,0.8768975138664246,0.5206423755102385,244900,https://www.zillow.com/homedetails/9301-W-Glen-Oaks-Cir-N-Sun-City-AZ-85351/7923234_zpid/,33.6338,-112.26,6583,2018-01-09
635106,23871182,"1835 S Yucca, Mesa, AZ 85202 ",85202,0.5856297314167023,0.8888279795646667,0.5205240909481059,225000,https://www.zillow.com/homedetails/1835-S-Yucca-Mesa-AZ-85202/8250862_zpid/,33.3818,-111.874,6599,2018-01-25
417610,23855747,"4832 W Beryl Ave, Glendale, AZ 85302 ",85302,0.6131450235843658,0.8486516177654266,0.5203465161896927,217500,https://www.zillow.com/homedetails/4832-W-Beryl-Ave-Glendale-AZ-85302/7728604_zpid/,33.5797,-112.163,6557,2017-12-14
644742,23869677,"2222 W Peralta Ave, Mesa, AZ 85202 ",85202,0.5856297314167023,0.888238936662674,0.520179129911619,191000,https://www.zillow.com/homedetails/2222-W-Peralta-Ave-Mesa-AZ-85202/8171027_zpid/,33.3578,-111.882,6594,2018-01-20
402883,23865219,"12215 N 47TH Ln, Glendale, AZ 85304 ",85304,0.5960076749324799,0.8721548616886139,0.5198109912960893,249900,https://www.zillow.com/homedetails/12215-N-47th-Ln-Glendale-AZ-85304/7954296_zpid/,33.597,-112.161,6582,2018-01-08
8952180,23860567,"3408 N 67TH Ln, Phoenix, AZ 85033 ",85033,0.5927651822566986,0.8767368197441101,0.5196990607467757,195000,https://www.zillow.com/homedetails/3408-N-67th-Ln-Phoenix-AZ-85033/7485759_zpid/,33.4878,-112.205,6570,2017-12-27
17711,23887053,"5008 W Wikieup Ln, Glendale, AZ 85308 ",85308,0.5921444594860077,0.8769620656967163,0.5192882283817148,229000,https://www.zillow.com/homedetails/5008-W-Wikieup-Ln-Glendale-AZ-85308/7938109_zpid/,33.6638,-112.16799999999999,6585,2018-01-11
8979893,23865842,"7619 W Brown St, Peoria, AZ 85345 ",85345,0.5921444594860077,0.8768940269947052,0.5192479396412883,230000,https://www.zillow.com/homedetails/7619-W-Brown-St-Peoria-AZ-85345/7682142_zpid/,33.5769,-112.223,6586,2018-01-12
233636,23869963,"19201 N 21ST Ave, Phoenix, AZ 85027 ",85027,0.59490966796875,0.8714686632156372,0.5184451330787851,220000,https://www.zillow.com/homedetails/19201-N-21st-Ave-Phoenix-AZ-85027/7970134_zpid/,33.6596,-112.105,6585,2018-01-11
481915,23852927,"2518 N 67TH Dr, Phoenix, AZ 85035 ",85035,0.5982639491558075,0.8660377562046051,0.5181191681450015,145000,https://www.zillow.com/homedetails/2518-N-67th-Dr-Phoenix-AZ-85035/7475839_zpid/,33.4762,-112.204,6551,2017-12-08
236208,23869860,"2919 W Libby St, Phoenix, AZ 85053 ",85053,0.592720091342926,0.8740293979644775,0.5180547845979078,209000,https://www.zillow.com/homedetails/2919-W-Libby-St-Phoenix-AZ-85053/7940817_zpid/,33.6477,-112.12200000000001,6596,2018-01-22
227559,23843808,"15221 N 28TH Dr, Phoenix, AZ 85053 ",85053,0.6136267781257629,0.8438378870487213,0.5178015238901583,209900,https://www.zillow.com/homedetails/15221-N-28th-Dr-Phoenix-AZ-85053/7942595_zpid/,33.6243,-112.119,6542,2017-11-29
7450963,23779216,"13854 N 91st Dr, Peoria, AZ 85381 ",85381,0.6526949107646942,0.7927960455417633,0.5174539441994837,225000,https://www.zillow.com/homedetails/13854-N-91st-Dr-Peoria-AZ-85381/7908457_zpid/,33.6103,-112.256,6284,2017-03-16
1346544,23849829,"4852 W Frier Dr, Glendale, AZ 85301 ",85301,0.6010881960391998,0.8602710664272308,0.5170987834234628,229900,https://www.zillow.com/homedetails/4852-W-Frier-Dr-Glendale-AZ-85301/7724567_zpid/,33.5494,-112.164,6550,2017-12-07
7520977,22428537,"7562 W Turquoise Ave, Peoria, AZ 85345 ",85345,0.6510388851165771,0.793941468000412,0.5168867681748068,189900,https://www.zillow.com/homedetails/7562-W-Turquoise-Ave-Peoria-AZ-85345/7682178_zpid/,33.5747,-112.223,6327,2017-04-28
8950822,21960213,"7406 W Eva St, Peoria, AZ 85345 ",85345,0.6496531665325165,0.7952383756637573,0.5166291288981348,185000,https://www.zillow.com/homedetails/7406-W-Eva-St-Peoria-AZ-85345/7702481_zpid/,33.5683,-112.21799999999999,6346,2017-05-17
224193,23881963,"14214 N 27th Dr, Phoenix, AZ 85053 ",85053,0.5928846299648285,0.870732456445694,0.5162438902381714,247000,https://www.zillow.com/homedetails/14214-N-27th-Dr-Phoenix-AZ-85053/7942965_zpid/,33.6147,-112.118,6591,2018-01-17
387374,23860581,"3735 W Cochise Dr, Phoenix, AZ 85051 ",85051,0.593539834022522,0.8696390390396118,0.5161654108910767,244900,https://www.zillow.com/homedetails/3735-W-Cochise-Dr-Phoenix-AZ-85051/7745459_zpid/,33.5803,-112.14,6572,2017-12-29
388897,23868744,"2421 W Willow Ave, Phoenix, AZ 85029 ",85029,0.5883876979351044,0.8769592940807343,0.5159920602269574,225000,https://www.zillow.com/homedetails/2421-W-Willow-Ave-Phoenix-AZ-85029/7738217_zpid/,33.6074,-112.111,6593,2018-01-19
1357376,23883408,"7648 N 46th Ave, Glendale, AZ 85301 ",85301,0.5957676470279694,0.8660902678966522,0.5159885610186121,240000,https://www.zillow.com/homedetails/7648-N-46th-Ave-Glendale-AZ-85301/7725091_zpid/,33.5494,-112.15799999999999,6571,2017-12-28
390477,23864565,"3018 W Lupine Ave, Phoenix, AZ 85029 ",85029,0.5921444594860077,0.871322751045227,0.5159489394555372,230000,https://www.zillow.com/homedetails/3018-W-Lupine-Ave-Phoenix-AZ-85029/7739937_zpid/,33.5913,-112.124,6584,2018-01-10
422357,23883112,"6612 W Brown St, Glendale, AZ 85302 ",85302,0.6237822473049164,0.8268707096576691,0.5157872695008718,199000,https://www.zillow.com/homedetails/6612-W-Brown-St-Glendale-AZ-85302/7706362_zpid/,33.5783,-112.20100000000001,6496,2017-10-14
7513271,23870553,"9830 W Emberwood Dr, Sun City, AZ 85351 ",85351,0.5928846299648285,0.8699467182159424,0.5157780381185759,169900,https://www.zillow.com/homedetails/9830-W-Emberwood-Dr-Sun-City-AZ-85351/8096028_zpid/,33.6026,-112.26700000000001,6598,2018-01-24
242590,22686911,"3202 W Angela Dr, Phoenix, AZ 85053 ",85053,0.6388119757175446,0.8073948919773102,0.515773526128279,234900,https://www.zillow.com/homedetails/3202-W-Angela-Dr-Phoenix-AZ-85053/7942083_zpid/,33.6461,-112.12799999999999,6464,2017-09-12
337615,23862924,"2310 W Echo Ln, Phoenix, AZ 85021 ",85021,0.6118562817573547,0.8429518640041351,0.5157653932100015,190000,https://www.zillow.com/homedetails/2310-W-Echo-Ln-Phoenix-AZ-85021/7782737_zpid/,33.5598,-112.109,6558,2017-12-15
561112,23847992,"1043 W Frito Ave, Mesa, AZ 85210 ",85210,0.6141516268253326,0.8394752740859985,0.515565105259558,195000,https://www.zillow.com/homedetails/1043-W-Frito-Ave-Mesa-AZ-85210/7598695_zpid/,33.3951,-111.854,6543,2017-11-30
1094985,23886129,"825 W Temple St, Chandler, AZ 85225 ",85225,0.5741705596446991,0.8968991339206696,0.5149730776680768,230000,https://www.zillow.com/homedetails/825-W-Temple-St-Chandler-AZ-85225/8183622_zpid/,33.3326,-111.85700000000001,6591,2018-01-17
411351,23831053,"5194 W Paradise Dr, Glendale, AZ 85304 ",85304,0.6208216845989227,0.8291930854320526,0.5147810481557054,214900,https://www.zillow.com/homedetails/5194-W-Paradise-Dr-Glendale-AZ-85304/60978690_zpid/,33.5953,-112.171,6526,2017-11-13
8991893,23837557,"9352 W Jefferson St, Tolleson, AZ 85353 ",85353,0.59410360455513,0.8662415742874146,0.5146372416996634,229900,https://www.zillow.com/homedetails/9352-W-Jefferson-St-Tolleson-AZ-85353/7460100_zpid/,33.4464,-112.26100000000001,6533,2017-11-20
1349271,23882555,"5556 W Gardenia Ave, Glendale, AZ 85301 ",85301,0.5876418650150299,0.8757618963718414,0.5146343540930483,173900,https://www.zillow.com/homedetails/5556-W-Gardenia-Ave-Glendale-AZ-85301/2136646466_zpid/,33.5451,-112.18,6601,2018-01-27
9024048,23836145,"9411 W Glen Oaks Cir, Sun City, AZ 85351 ",85351,0.5997403860092163,0.8577016294002533,0.5143983062972417,140000,https://www.zillow.com/homedetails/9411-W-Glen-Oaks-Cir-Sun-City-AZ-85351/7922837_zpid/,33.6297,-112.26299999999999,6530,2017-11-17
390056,23864177,"2917 W Aster Dr, Phoenix, AZ 85029 ",85029,0.6009544134140015,0.8555221557617188,0.5141298152784657,199700,https://www.zillow.com/homedetails/2917-W-Aster-Dr-Phoenix-AZ-85029/7741102_zpid/,33.6021,-112.12200000000001,6582,2018-01-08
625494,23866146,"1522 W Plana Ave, Mesa, AZ 85202 ",85202,0.5724257826805115,0.8979721069335938,0.5140223861367303,242500,https://www.zillow.com/homedetails/1522-W-Plana-Ave-Mesa-AZ-85202/8172015_zpid/,33.3588,-111.866,6585,2018-01-11
8996051,23841761,"3410 N 67TH Dr, Phoenix, AZ 85033 ",85033,0.5927651822566986,0.8671298027038574,0.5140043555399672,220000,https://www.zillow.com/homedetails/3410-N-67th-Dr-Phoenix-AZ-85033/7485764_zpid/,33.4878,-112.204,6537,2017-11-24
415221,23870604,"10031 N 65TH Ln, Glendale, AZ 85302 ",85302,0.5814254581928253,0.8838976323604584,0.513920585890733,205000,https://www.zillow.com/homedetails/10031-N-65th-Ln-Glendale-AZ-85302/7706565_zpid/,33.5772,-112.2,6591,2018-01-17
460325,23853200,"5810 W Avalon Dr, Phoenix, AZ 85031 ",85031,0.5928171575069427,0.8666892647743225,0.513788266385296,150000,https://www.zillow.com/homedetails/5810-W-Avalon-Dr-Phoenix-AZ-85031/7490070_zpid/,33.484,-112.185,6551,2017-12-08
8976262,22541368,"2918 E Nisbet Ct, Phoenix, AZ 85032 ",85032,0.6388119757175446,0.8041287958621979,0.5136871048161007,219500,https://www.zillow.com/homedetails/2918-E-Nisbet-Ct-Phoenix-AZ-85032/8011642_zpid/,33.6234,-112.01899999999999,6440,2017-08-19
355785,23869967,"620 E Anderson Ave, Phoenix, AZ 85022 ",85022,0.5814254581928253,0.8830306828022003,0.5134165193465927,215000,https://www.zillow.com/homedetails/620-E-Anderson-Ave-Phoenix-AZ-85022/7959431_zpid/,33.6434,-112.066,6593,2018-01-19
225987,23864034,"1415 W Renee Dr, Phoenix, AZ 85027 ",85027,0.5897548794746399,0.8703321814537048,0.5132826507761301,239999,https://www.zillow.com/homedetails/1415-W-Renee-Dr-Phoenix-AZ-85027/7969101_zpid/,33.6549,-112.09,6582,2018-01-08
227332,23881178,"1516 W Kristal Way, Phoenix, AZ 85027 ",85027,0.59490966796875,0.8627042770385742,0.5132311150082387,175000,https://www.zillow.com/homedetails/1516-W-Kristal-Way-Phoenix-AZ-85027/7969631_zpid/,33.6613,-112.09200000000001,6589,2018-01-15
495328,23862682,"6239 W Encanto Blvd, Phoenix, AZ 85035 ",85035,0.5896455943584442,0.8703230023384094,0.5131821239976571,153900,https://www.zillow.com/homedetails/6239-W-Encanto-Blvd-Phoenix-AZ-85035/7491160_zpid/,33.473,-112.195,6576,2018-01-02
499623,23853309,"7113 W Holly St, Phoenix, AZ 85035 ",85035,0.590716153383255,0.8684424757957458,0.5130029987366935,135000,https://www.zillow.com/homedetails/7113-W-Holly-St-Phoenix-AZ-85035/7475387_zpid/,33.4699,-112.213,6548,2017-12-05
1421999,23820040,"8134 W Mclellan Rd, Glendale, AZ 85303 ",85303,0.608159065246582,0.8430249392986298,0.5126932590634112,222500,https://www.zillow.com/homedetails/8134-W-Mclellan-Rd-Glendale-AZ-85303/7462575_zpid/,33.5326,-112.235,6516,2017-11-03
420581,23882618,"5810 W Alice Ave, Glendale, AZ 85302 ",85302,0.5814254581928253,0.8817720413208008,0.5126847131465695,234500,https://www.zillow.com/homedetails/5810-W-Alice-Ave-Glendale-AZ-85302/7733216_zpid/,33.5645,-112.185,6590,2018-01-16
7564801,23760240,"9711 W Alabama Ave, Sun City, AZ 85351 ",85351,0.6445848643779755,0.7953349351882935,0.512660861333412,199900,https://www.zillow.com/homedetails/9711-W-Alabama-Ave-Sun-City-AZ-85351/7685981_zpid/,33.5933,-112.266,6502,2017-10-20
332879,23849200,"5333 N 22nd Dr, Phoenix, AZ 85015 ",85015,0.6361047029495239,0.8057950735092163,0.5125700358727698,240000,https://www.zillow.com/homedetails/5333-N-22nd-Dr-Phoenix-AZ-85015/7764971_zpid/,33.5163,-112.10700000000001,6549,2017-12-06
243287,22690475,"3218 W Angela Dr, Phoenix, AZ 85053 ",85053,0.6359744966030121,0.8059525191783905,0.5125652476704063,209000,https://www.zillow.com/homedetails/3218-W-Angela-Dr-Phoenix-AZ-85053/7942085_zpid/,33.6461,-112.12899999999999,6470,2017-09-18
9026101,23869917,"9032 W Marco Polo Rd, Peoria, AZ 85382 ",85382,0.5814254581928253,0.8815307915210724,0.5125444443712235,235000,https://www.zillow.com/homedetails/9032-W-Marco-Polo-Rd-Peoria-AZ-85382/8101657_zpid/,33.6651,-112.25299999999999,6596,2018-01-22
256906,23870517,"609 W Beverly Ln, Phoenix, AZ 85023 ",85023,0.5814254581928253,0.8807888031005859,0.5121130334138684,219900,https://www.zillow.com/homedetails/609-W-Beverly-Ln-Phoenix-AZ-85023/7965493_zpid/,33.6333,-112.08200000000001,6598,2018-01-24
409622,23825573,"4447 W Mercer Ln, Glendale, AZ 85304 ",85304,0.6224075853824615,0.822593092918396,0.5119881807156297,227000,https://www.zillow.com/homedetails/4447-W-Mercer-Ln-Glendale-AZ-85304/7727953_zpid/,33.5852,-112.156,6526,2017-11-13
9023070,23870107,"2024 E Villa Theresa Dr, Phoenix, AZ 85022 ",85022,0.5814254581928253,0.8805592358112335,0.5119795571474706,235000,https://www.zillow.com/homedetails/2024-E-Villa-Theresa-Dr-Phoenix-AZ-85022/8000570_zpid/,33.6544,-112.039,6597,2018-01-23
1346962,23823701,"4935 W Lamar Rd, Glendale, AZ 85301 ",85301,0.6210402250289917,0.8243121206760406,0.5119309849187736,149900,https://www.zillow.com/homedetails/4935-W-Lamar-Rd-Glendale-AZ-85301/7722382_zpid/,33.5365,-112.166,6520,2017-11-07
1466691,23869657,"17797 N 89TH Dr, Peoria, AZ 85382 ",85382,0.5768478810787201,0.8870996832847595,0.5117215726084172,241500,https://www.zillow.com/homedetails/17797-N-89th-Dr-Peoria-AZ-85382/71616751_zpid/,33.6449,-112.251,6594,2018-01-20
836722,23830966,"5221 N 41st Dr, Phoenix, AZ 85019 ",85019,0.6138906478881836,0.8331662118434906,0.5114729455871441,179000,https://www.zillow.com/homedetails/5221-N-41st-Dr-Phoenix-AZ-85019/67083438_zpid/,33.5124,-112.148,6526,2017-11-13
834633,23845436,"3526 W Ocotillo Rd, Phoenix, AZ 85019 ",85019,0.6002355217933655,0.851976603269577,0.5113866210192537,220000,https://www.zillow.com/homedetails/3526-W-Ocotillo-Rd-Phoenix-AZ-85019/7761449_zpid/,33.535,-112.13600000000001,6537,2017-11-24
414824,23883071,"6604 W Mercer Ln, Glendale, AZ 85304 ",85304,0.5814254581928253,0.8786704242229462,0.5108813540043107,204500,https://www.zillow.com/homedetails/6604-W-Mercer-Ln-Glendale-AZ-85304/7698731_zpid/,33.5846,-112.2,6595,2018-01-21
9006564,23814082,"16612 N 28th Way, Phoenix, AZ 85032 ",85032,0.6362794637680054,0.8029050529003143,0.510871996516034,194900,https://www.zillow.com/homedetails/16612-N-28th-Way-Phoenix-AZ-85032/8005824_zpid/,33.6376,-112.021,6511,2017-10-29
337751,23867585,"14407 N 23RD St, Phoenix, AZ 85022 ",85022,0.5814254581928253,0.8785661458969116,0.5108207239308165,219000,https://www.zillow.com/homedetails/14407-N-23rd-St-Phoenix-AZ-85022/8010507_zpid/,33.618,-112.03399999999999,6590,2018-01-16
9016481,23867228,"7401 W Jenan Dr, Peoria, AZ 85345 ",85345,0.5814254581928253,0.8784590065479279,0.5107584303857431,240000,https://www.zillow.com/homedetails/7401-W-Jenan-Dr-Peoria-AZ-85345/7700306_zpid/,33.5916,-112.21799999999999,6589,2018-01-15
397286,23862957,"8437 N 36th Ave, Phoenix, AZ 85051 ",85051,0.5981537401676178,0.8538910448551178,0.5107581221757238,187000,https://www.zillow.com/homedetails/8437-N-36th-Ave-Phoenix-AZ-85051/7754435_zpid/,33.5599,-112.137,6550,2017-12-07
9025829,23859165,"4109 E Winchcomb Dr, Phoenix, AZ 85032 ",85032,0.6251918971538544,0.8166614472866058,0.5105701195615255,185000,https://www.zillow.com/homedetails/4109-E-Winchcomb-Dr-Phoenix-AZ-85032/8030117_zpid/,33.617,-111.993,6558,2017-12-15
467212,23884496,"3119 W Citrus Way, Phoenix, AZ 85017 ",85017,0.58443284034729,0.8735730946063995,0.51054480493179,220000,https://www.zillow.com/homedetails/3119-W-Citrus-Way-Phoenix-AZ-85017/7760912_zpid/,33.5296,-112.12700000000001,6583,2018-01-09
501068,23853288,"7426 W Monte Vista Rd, Phoenix, AZ 85035 ",85035,0.590716153383255,0.8642802536487579,0.5105443068804982,155000,https://www.zillow.com/homedetails/7426-W-Monte-Vista-Rd-Phoenix-AZ-85035/7474922_zpid/,33.471,-112.22,6528,2017-11-15
441326,23862512,"3042 N 87TH Ave, Phoenix, AZ 85037 ",85037,0.5837133526802063,0.874387115240097,0.510391434577171,199999,https://www.zillow.com/homedetails/3042-N-87th-Ave-Phoenix-AZ-85037/7479842_zpid/,33.483000000000004,-112.24700000000001,6578,2018-01-04
420094,23882574,"5653 W Cochise Dr, Glendale, AZ 85302 ",85302,0.5796806812286377,0.8799633383750916,0.5100977474454993,229900,https://www.zillow.com/homedetails/5653-W-Cochise-Dr-Glendale-AZ-85302/7735285_zpid/,33.5798,-112.182,6600,2018-01-26
9025882,23869744,"7140 W Desert Cove Ave, Peoria, AZ 85345 ",85345,0.5814254581928253,0.8772228062152863,0.5100396720409188,234900,https://www.zillow.com/homedetails/7140-W-Desert-Cove-Ave-Peoria-AZ-85345/7701093_zpid/,33.585,-112.213,6595,2018-01-21
401933,23870941,"14609 N 60TH Ave, Glendale, AZ 85306 ",85306,0.5776057839393616,0.8828714191913605,0.5099516381996825,249000,https://www.zillow.com/homedetails/14609-N-60th-Ave-Glendale-AZ-85306/8098901_zpid/,33.6174,-112.18700000000001,6600,2018-01-26
8945105,23869528,"6931 W North Ln, Peoria, AZ 85345 ",85345,0.5814254581928253,0.876901775598526,0.5098530166674751,199500,https://www.zillow.com/homedetails/6931-W-North-Ln-Peoria-AZ-85345/7701981_zpid/,33.5808,-112.209,6590,2018-01-16
386006,23854095,"1749 W Surrey Ave, Phoenix, AZ 85029 ",85029,0.5982886552810669,0.8514010012149811,0.509383560121865,220000,https://www.zillow.com/homedetails/1749-W-Surrey-Ave-Phoenix-AZ-85029/7784365_zpid/,33.6053,-112.098,6555,2017-12-12
408459,23882897,"6211 W Carol Ann Way, Glendale, AZ 85306 ",85306,0.5814254581928253,0.8760136067867279,0.5093366127091228,185000,https://www.zillow.com/homedetails/6211-W-Carol-Ann-Way-Glendale-AZ-85306/8096840_zpid/,33.6279,-112.193,6592,2018-01-18
8850973,23814108,"2525 E Michigan Ave, Phoenix, AZ 85032 ",85032,0.6431855857372284,0.7918730080127716,0.5093213044881955,225000,https://www.zillow.com/homedetails/2525-E-Michigan-Ave-Phoenix-AZ-85032/7999906_zpid/,33.6507,-112.027,6511,2017-10-29
336868,23820918,"2122 W Glendale Ave, Phoenix, AZ 85021 ",85021,0.6230745911598206,0.8169275224208832,0.5090067820395969,208400,https://www.zillow.com/homedetails/2122-W-Glendale-Ave-Phoenix-AZ-85021/7778952_zpid/,33.5389,-112.105,6516,2017-11-03
384614,23864029,"13636 N 18TH Dr, Phoenix, AZ 85029 ",85029,0.5824899077415466,0.8736301362514496,0.5088807374653417,189500,https://www.zillow.com/homedetails/13636-N-18th-Dr-Phoenix-AZ-85029/7784603_zpid/,33.6108,-112.09899999999999,6583,2018-01-09
253834,23869443,"3833 W Waltann Ln, Phoenix, AZ 85053 ",85053,0.5814254581928253,0.8746232390403748,0.5085282175051429,229900,https://www.zillow.com/homedetails/3833-W-Waltann-Ln-Phoenix-AZ-85053/7945786_zpid/,33.6268,-112.14200000000001,6594,2018-01-20
7445518,23781525,"18009 N 89th Dr, Peoria, AZ 85382 ",85382,0.6340560019016266,0.801958829164505,0.5084868089097556,240000,https://www.zillow.com/homedetails/18009-N-89th-Dr-Peoria-AZ-85382/8105128_zpid/,33.6473,-112.251,6280,2017-03-12
410898,23823665,"5031 W Windrose Dr, Glendale, AZ 85304 ",85304,0.6208216845989227,0.8189157545566559,0.508400658288461,229000,https://www.zillow.com/homedetails/5031-W-Windrose-Dr-Glendale-AZ-85304/7954728_zpid/,33.6006,-112.167,6521,2017-11-08
419756,23870015,"5532 W Loma Ln, Glendale, AZ 85302 ",85302,0.5824899077415466,0.8722862601280212,0.5080979431861898,185000,https://www.zillow.com/homedetails/5532-W-Loma-Ln-Glendale-AZ-85302/7737959_zpid/,33.5541,-112.179,6583,2018-01-09
395130,23830853,"3719 W Joan De Arc Ave, Phoenix, AZ 85029 ",85029,0.6208216845989227,0.8179334402084351,0.5077908162399929,205900,https://www.zillow.com/homedetails/3719-W-Joan-De-Arc-Ave-Phoenix-AZ-85029/7741718_zpid/,33.607,-112.139,6526,2017-11-13
258476,23717515,"614 W Rosemonte Dr, Phoenix, AZ 85027 ",85027,0.6496531665325165,0.7813823223114014,0.5076274999621333,234900,https://www.zillow.com/homedetails/614-W-Rosemonte-Dr-Phoenix-AZ-85027/7968459_zpid/,33.657,-112.08200000000001,6494,2017-10-12
493050,23849853,"5901 W Cypress St, Phoenix, AZ 85035 ",85035,0.5896455943584442,0.8607594072818756,0.5075429923063437,184500,https://www.zillow.com/homedetails/5901-W-Cypress-St-Phoenix-AZ-85035/7491471_zpid/,33.4723,-112.18700000000001,6550,2017-12-07
247778,23865817,"2831 W GROVERS Ave Phoenix, AZ 85053",85053,0.5796806812286377,0.8753096163272858,0.5074000746785785,219900,https://www.redfin.com/AZ/Phoenix/2831-W-Grovers-Ave-85053/home/26864793,33.6178,-112.133,6587,2018-01-13
1672854,23885683,"9702 W Cottonwood Dr, Sun City, AZ 85373 ",85373,0.5776057839393616,0.8783833384513855,0.5073592968054861,179000,https://www.zillow.com/homedetails/9702-W-Cottonwood-Dr-Sun-City-AZ-85373/8095213_zpid/,33.6447,-112.27,6591,2018-01-17
252855,23869970,"2419 W Tierra Buena Ln, Phoenix, AZ 85023 ",85023,0.5823484063148499,0.8710730671882629,0.507268012460873,230000,https://www.zillow.com/homedetails/2419-W-Tierra-Buena-Ln-Phoenix-AZ-85023/7961035_zpid/,33.6286,-112.11200000000001,6593,2018-01-19
395883,23835126,"3830 W Sharon Ave, Phoenix, AZ 85029 ",85029,0.5985999405384064,0.8473852872848511,0.5072447825818323,179900,https://www.zillow.com/homedetails/3830-W-Sharon-Ave-Phoenix-AZ-85029/7741516_zpid/,33.6095,-112.14200000000001,6530,2017-11-17
5088735,23778838,"1314 W Cortez Ct, Chandler, AZ 85224 ",85224,0.6187279224395752,0.8194019198417664,0.5069868475066954,239900,https://www.zillow.com/homedetails/1314-W-Cortez-Ct-Chandler-AZ-85224/8172443_zpid/,33.3557,-111.865,6270,2017-03-02
237155,23871686,"2001 W Wescott Dr, Phoenix, AZ 85027 ",85027,0.5820870995521545,0.8707413673400879,0.5068473169750689,249500,https://www.zillow.com/homedetails/2001-W-Wescott-Dr-Phoenix-AZ-85027/7970026_zpid/,33.6578,-112.103,6597,2018-01-23
1349332,23855797,"5601 N 61st Ln, Glendale, AZ 85301 ",85301,0.5896318256855011,0.8594932854175568,0.5067845950451835,164000,https://www.zillow.com/homedetails/5601-N-61st-Ln-Glendale-AZ-85301/7714491_zpid/,33.5189,-112.193,6551,2017-12-08
9020725,23815067,"9537 W Sunnyslope Ln, Peoria, AZ 85345 ",85345,0.608159065246582,0.8331432640552521,0.5066836286843284,224000,https://www.zillow.com/homedetails/9537-W-Sunnyslope-Ln-Peoria-AZ-85345/7697879_zpid/,33.5693,-112.265,6512,2017-10-30
8107,23887040,"4213 W Renee Dr, Glendale, AZ 85308 ",85308,0.5768478810787201,0.8782705068588257,0.5066284808954471,224900,https://www.zillow.com/homedetails/4213-W-Renee-Dr-Glendale-AZ-85308/2100694760_zpid/,33.655,-112.149,6599,2018-01-25
627067,23856639,"1610 W 7th Ave, Mesa, AZ 85202 ",85202,0.5911217033863068,0.8570292592048645,0.5066085955530841,218900,https://www.zillow.com/homedetails/1610-W-7th-Ave-Mesa-AZ-85202/7604416_zpid/,33.4024,-111.866,6560,2017-12-17
424465,23883752,"9239 N 63RD Dr, Glendale, AZ 85302 ",85302,0.5796806812286377,0.8738577961921692,0.5065584825936327,199000,https://www.zillow.com/homedetails/9239-N-63RD-Dr-Glendale-AZ-85302/7703659_zpid/,33.5709,-112.195,6599,2018-01-25
8946570,21960648,"7614 W Turquoise Ave, Peoria, AZ 85345 ",85345,0.648165762424469,0.7814520001411438,0.5065104314696107,219000,https://www.zillow.com/homedetails/7614-W-Turquoise-Ave-Peoria-AZ-85345/7682180_zpid/,33.5747,-112.223,6339,2017-05-10
1356715,23883331,"7327 N 47th Ave, Glendale, AZ 85301 ",85301,0.6057021021842957,0.8360347151756287,0.5063879844809271,189500,https://www.zillow.com/homedetails/7327-N-47th-Ave-Glendale-AZ-85301/7725576_zpid/,33.545,-112.16,6523,2017-11-10
407695,23882690,"5912 W Evans Dr, Glendale, AZ 85306 ",85306,0.5776057839393616,0.876645028591156,0.5063552389759387,217000,https://www.zillow.com/homedetails/5912-W-Evans-Dr-Glendale-AZ-85306/8098897_zpid/,33.6173,-112.18700000000001,6586,2018-01-12
389263,23864217,"3907 W Davidson Ln, Phoenix, AZ 85051 ",85051,0.5806690752506256,0.8716952800750732,0.5061664921815279,238995,https://www.zillow.com/homedetails/3907-W-Davidson-Ln-Phoenix-AZ-85051/7746545_zpid/,33.5698,-112.14299999999999,6582,2018-01-08
450270,23853373,"8713 W Wilshire Dr, Phoenix, AZ 85037 ",85037,0.5924955010414124,0.853748619556427,0.5058422161074994,200000,https://www.zillow.com/homedetails/8713-W-Wilshire-Dr-Phoenix-AZ-85037/7473941_zpid/,33.4756,-112.24700000000001,6526,2017-11-13
9020278,23871099,"642 E Piping Rock Rd, Phoenix, AZ 85022 ",85022,0.5796806812286377,0.8724775314331055,0.5057583697778227,248000,https://www.zillow.com/homedetails/642-E-Piping-Rock-Rd-Phoenix-AZ-85022/7963227_zpid/,33.6144,-112.066,6600,2018-01-26
337572,23850351,"2307 W Alice Ave, Phoenix, AZ 85021 ",85021,0.6089753806591034,0.8304451406002045,0.5057206456135122,211900,https://www.zillow.com/homedetails/2307-W-Alice-Ave-Phoenix-AZ-85021/7782260_zpid/,33.5637,-112.109,6551,2017-12-08
233458,23864530,"18230 N 33RD Ave, Phoenix, AZ 85053 ",85053,0.5776057839393616,0.8753612637519836,0.5056137289796148,179900,https://www.zillow.com/homedetails/18230-N-33rd-Ave-Phoenix-AZ-85053/7941211_zpid/,33.652,-112.13,6584,2018-01-10
9022109,23869628,"13037 N 56TH Ave, Glendale, AZ 85304 ",85304,0.5768478810787201,0.8762714564800262,0.505475332920267,242000,https://www.zillow.com/homedetails/13037-N-56th-Ave-Glendale-AZ-85304/7896749_zpid/,33.6024,-112.177,6595,2018-01-21
398010,23871137,"8637 N 32nd Dr, Phoenix, AZ 85051 ",85051,0.5754164159297943,0.8782256245613098,0.505345441262774,195900,https://www.zillow.com/homedetails/8637-N-32nd-Dr-Phoenix-AZ-85051/7752110_zpid/,33.5628,-112.12899999999999,6600,2018-01-26
8964694,23800320,"9084 N 80th Ln, Peoria, AZ 85345 ",85345,0.6109724342823029,0.8265157043933868,0.5049783118857798,170000,https://www.zillow.com/homedetails/9084-N-80th-Ln-Peoria-AZ-85345/50187199_zpid/,33.5677,-112.23299999999999,6422,2017-08-01
9024480,23868335,"17622 N 18th Dr, Phoenix, AZ 85023 ",85023,0.5776057839393616,0.8739577233791351,0.504803035942265,217000,https://www.zillow.com/homedetails/17622-N-18th-Dr-Phoenix-AZ-85023/7958450_zpid/,33.6465,-112.098,6592,2018-01-18
9026060,23865849,"8807 W Mercer Ln, Peoria, AZ 85345 ",85345,0.584576427936554,0.8633755445480347,0.5047089917996672,163000,https://www.zillow.com/homedetails/8807-W-Mercer-Ln-Peoria-AZ-85345/64429237_zpid/,33.5836,-112.249,6586,2018-01-12
416064,23818791,"4416 W Turquoise Ave, Glendale, AZ 85302 ",85302,0.6193417906761169,0.8149040639400482,0.5047041421898744,249900,https://www.zillow.com/homedetails/4416-W-Turquoise-Ave-Glendale-AZ-85302/7729268_zpid/,33.5757,-112.154,6515,2017-11-02
1091759,23886133,"701 W Dublin St, Chandler, AZ 85225 ",85225,0.5701501071453094,0.8850594460964203,0.5046167380218423,225000,https://www.zillow.com/homedetails/701-W-Dublin-St-Chandler-AZ-85225/8189377_zpid/,33.3186,-111.853,6588,2018-01-14
5187827,23885628,"13232 N 100th Ave, Sun City, AZ 85351 ",85351,0.5754164159297943,0.8767349421977997,0.5044876781598733,135000,https://www.zillow.com/homedetails/13232-N-100th-Ave-Sun-City-AZ-85351/7916258_zpid/,33.6043,-112.273,6600,2018-01-26
434601,23841755,"1838 N 83rd Ln, Phoenix, AZ 85037 ",85037,0.5811464786529541,0.8680168688297272,0.5044449467317591,195000,https://www.zillow.com/homedetails/1838-N-83rd-Ln-Phoenix-AZ-85037/7487940_zpid/,33.4683,-112.24,6536,2017-11-23
9206,23840092,"1220 W Ironwood Dr, Phoenix, AZ 85021 ",85021,0.6361533403396606,0.7927778959274292,0.5043283066416819,169000,https://www.zillow.com/homedetails/1220-W-Ironwood-Dr-Phoenix-AZ-85021/7781692_zpid/,33.576,-112.089,6534,2017-11-21
9022258,23835030,"3023 W Krall St, Phoenix, AZ 85017 ",85017,0.6110253632068634,0.8253302574157715,0.5042977203030858,249900,https://www.zillow.com/homedetails/3023-W-Krall-St-Phoenix-AZ-85017/7759497_zpid/,33.534,-112.125,6530,2017-11-17
416997,23870500,"4640 W Alice Ave, Glendale, AZ 85302 ",85302,0.5750925838947296,0.8767634630203247,0.5042201654128498,249000,https://www.zillow.com/homedetails/4640-W-Alice-Ave-Glendale-AZ-85302/7731430_zpid/,33.5658,-112.16,6598,2018-01-24
408348,23882790,"6139 W Nancy Rd, Glendale, AZ 85306 ",85306,0.5753563642501831,0.8759466707706451,0.5039814917716505,220000,https://www.zillow.com/homedetails/6139-W-Nancy-Rd-Glendale-AZ-85306/8096881_zpid/,33.6286,-112.19200000000001,6600,2018-01-26
9021737,23871550,"10136 N 73RD Ave, Peoria, AZ 85345 ",85345,0.5774705111980438,0.8726226091384888,0.5039138241821739,206000,https://www.zillow.com/homedetails/10136-N-73rd-Ave-Peoria-AZ-85345/92353333_zpid/,33.5777,-112.215,6599,2018-01-25
411581,22708161,"5226 W Eugie Ave, Glendale, AZ 85304 ",85304,0.6346234381198883,0.7939525842666626,0.5038609187314798,220000,https://www.zillow.com/homedetails/5226-W-Eugie-Ave-Glendale-AZ-85304/7911821_zpid/,33.608000000000004,-112.17200000000001,6473,2017-09-21
9021060,23869431,"3522 W Michelle Dr, Glendale, AZ 85308 ",85308,0.5768478810787201,0.8727434873580933,0.5034402314077688,232500,https://www.zillow.com/homedetails/3522-W-Michelle-Dr-Glendale-AZ-85308/7947823_zpid/,33.6498,-112.135,6595,2018-01-21
836574,23884762,"4723 N 40th Dr, Phoenix, AZ 85019 ",85019,0.5774705111980438,0.8712076246738434,0.5030967123800378,170000,https://www.zillow.com/homedetails/4723-N-40th-Dr-Phoenix-AZ-85019/7506747_zpid/,33.507,-112.145,6588,2018-01-14
465830,23884482,"3006 W Rose Ln, Phoenix, AZ 85017 ",85017,0.5774705111980438,0.8711944222450256,0.5030890883667194,171900,https://www.zillow.com/homedetails/3006-W-Rose-Ln-Phoenix-AZ-85017/7761155_zpid/,33.5279,-112.124,6593,2018-01-19
397462,23865059,"4040 W Desert Cove Ave, Phoenix, AZ 85029 ",85029,0.5691154897212982,0.883869469165802,0.5030238057939993,224900,https://www.zillow.com/homedetails/4040-W-Desert-Cove-Ave-Phoenix-AZ-85029/7744743_zpid/,33.5857,-112.146,6585,2018-01-11
386285,23856269,"3631 W Caron St, Phoenix, AZ 85051 ",85051,0.593539834022522,0.8474843502044678,0.5030157205570447,239900,https://www.zillow.com/homedetails/3631-W-Caron-St-Phoenix-AZ-85051/7746596_zpid/,33.5684,-112.13799999999999,6558,2017-12-15
410753,23870506,"4934 W Becker Ln, Glendale, AZ 85304 ",85304,0.5776057839393616,0.8707643151283264,0.5029585048661183,233730,https://www.zillow.com/homedetails/4934-W-Becker-Ln-Glendale-AZ-85304/67083499_zpid/,33.5826,-112.166,6598,2018-01-24
379293,23843863,"2626 W Northview Ave, Phoenix, AZ 85051 ",85051,0.6138906478881836,0.8188188970088959,0.502665263187879,134900,https://www.zillow.com/homedetails/2626-W-Northview-Ave-Phoenix-AZ-85051/7779482_zpid/,33.5439,-112.116,6542,2017-11-29
257719,23869968,"919 W Anderson Dr, Phoenix, AZ 85023 ",85023,0.5776057839393616,0.8702071309089661,0.502636672038296,155000,https://www.zillow.com/homedetails/919-W-Anderson-Dr-Phoenix-AZ-85023/7963528_zpid/,33.6429,-112.086,6591,2018-01-17
17178,23846249,"14813 N 35TH St, Phoenix, AZ 85032 ",85032,0.6138906478881836,0.8186482787132263,0.5025605222118088,199900,https://www.zillow.com/homedetails/14813-N-35th-St-Phoenix-AZ-85032/8014278_zpid/,33.6214,-112.006,6543,2017-11-30
380250,23869299,"11620 N 31ST Dr, Phoenix, AZ 85029 ",85029,0.5754164159297943,0.8731837570667267,0.5024442679394481,173990,https://www.zillow.com/homedetails/11620-N-31st-Dr-Phoenix-AZ-85029/7749085_zpid/,33.5928,-112.12700000000001,6593,2018-01-19
388525,23864545,"2330 W Columbine Dr, Phoenix, AZ 85029 ",85029,0.5754164159297943,0.873041033744812,0.5023621425970823,199900,https://www.zillow.com/homedetails/2330-W-Columbine-Dr-Phoenix-AZ-85029/7738746_zpid/,33.5996,-112.109,6584,2018-01-10
152639,23860420,"1133 N Granite Reef Rd, Scottsdale, AZ 85257 ",85257,0.6066288948059082,0.8279651701450348,0.5022675961028682,139500,https://www.zillow.com/homedetails/1133-N-Granite-Reef-Rd-Scottsdale-AZ-85257/7577718_zpid/,33.4606,-111.9,6546,2017-12-03
423069,23883604,"8502 N 54th Dr, Glendale, AZ 85302 ",85302,0.5722439289093018,0.8774524331092834,0.5021168277534827,199900,https://www.zillow.com/homedetails/8502-N-54th-Dr-Glendale-AZ-85302/7733696_zpid/,33.5606,-112.177,6601,2018-01-27
399114,23882306,"9635 N 35th Ln, Phoenix, AZ 85051 ",85051,0.5776057839393616,0.8691520094871521,0.5020272278022979,219900,https://www.zillow.com/homedetails/9635-N-35th-Ln-Phoenix-AZ-85051/7745690_zpid/,33.5745,-112.135,6600,2018-01-26
396390,23870156,"3924 W Sunnyside Ave, Phoenix, AZ 85029 ",85029,0.5730057954788208,0.8758707940578461,0.5018790410857825,215000,https://www.zillow.com/homedetails/3924-W-Sunnyside-Ave-Phoenix-AZ-85029/7744517_zpid/,33.5926,-112.14399999999999,6597,2018-01-23
9026458,23868219,"3016 E Dahlia Dr, Phoenix, AZ 85032 ",85032,0.5754164159297943,0.8721508681774139,0.501849926716706,239900,https://www.zillow.com/homedetails/3016-E-Dahlia-Dr-Phoenix-AZ-85032/7815219_zpid/,33.6034,-112.01700000000001,6591,2018-01-17
232166,23881215,"17833 N 35th Ave, Phoenix, AZ 85053 ",85053,0.5750925838947296,0.8725732266902924,0.5018103915746819,234900,https://www.zillow.com/homedetails/17833-N-35th-Ave-Phoenix-AZ-85053/7941359_zpid/,33.6484,-112.134,6593,2018-01-19
1342993,23882377,"4510 W State Ave, Glendale, AZ 85301 ",85301,0.5712112486362457,0.878032386302948,0.5015419757231694,189900,https://www.zillow.com/homedetails/4510-W-State-Ave-Glendale-AZ-85301/7725659_zpid/,33.5444,-112.156,6585,2018-01-11
402127,23814880,"14638 N 62nd Ave, Glendale, AZ 85306 ",85306,0.6278011798858643,0.7985876500606537,0.5013542689503581,230000,https://www.zillow.com/homedetails/14638-N-62nd-Ave-Glendale-AZ-85306/8098778_zpid/,33.6177,-112.191,6512,2017-10-30
351094,23879416,"1925 E Wagoner Rd, Phoenix, AZ 85022 ",85022,0.5814254581928253,0.8619513213634491,0.5011604419636546,220000,https://www.zillow.com/homedetails/1925-E-Wagoner-Rd-Phoenix-AZ-85022/8001511_zpid/,33.6533,-112.041,6592,2018-01-18
1413599,23870195,"7315 W Midway Ave, Glendale, AZ 85303 ",85303,0.5654626488685608,0.8862021267414093,0.5011142020201493,203000,https://www.zillow.com/homedetails/7315-W-Midway-Ave-Glendale-AZ-85303/95160837_zpid/,33.541,-112.21600000000001,6597,2018-01-23
241374,23867942,"3135 W Acapulco Ln, Phoenix, AZ 85053 ",85053,0.5774705111980438,0.8677375614643097,0.5010928532045389,154500,https://www.zillow.com/homedetails/3135-W-Acapulco-Ln-Phoenix-AZ-85053/7953111_zpid/,33.6236,-112.12700000000001,6591,2018-01-17
1880865,23882974,"6344 W Tuckey Ln, Glendale, AZ 85301 ",85301,0.5774705111980438,0.8675008714199066,0.500956171683602,190000,https://www.zillow.com/homedetails/6344-W-Tuckey-Ln-Glendale-AZ-85301/7708037_zpid/,33.5341,-112.197,6596,2018-01-22
234640,23785215,"2751 W Acoma Dr, Phoenix, AZ 85053 ",85053,0.6500818431377411,0.7704542577266693,0.5008583239162734,210000,https://www.zillow.com/homedetails/2751-W-Acoma-Dr-Phoenix-AZ-85053/7942788_zpid/,33.6166,-112.12,6283,2017-03-15
495290,23854344,"6237 W Monte Vista Rd, Phoenix, AZ 85035 ",85035,0.5806248188018799,0.8619387149810791,0.5004630102042142,178900,https://www.zillow.com/homedetails/6237-W-Monte-Vista-Rd-Phoenix-AZ-85035/7491037_zpid/,33.4705,-112.194,6554,2017-12-11
405641,23865434,"4810 W Paradise Ln, Glendale, AZ 85306 ",85306,0.5730057954788208,0.873291403055191,0.5004010350924553,230000,https://www.zillow.com/homedetails/4810-W-Paradise-Ln-Glendale-AZ-85306/7951146_zpid/,33.6326,-112.162,6586,2018-01-12
9026261,23865254,"2153 W Joan De Arc Ave, Phoenix, AZ 85029 ",85029,0.5754164159297943,0.8693615794181824,0.5002449241758757,195000,https://www.zillow.com/homedetails/2153-W-Joan-De-Arc-Ave-Phoenix-AZ-85029/7749859_zpid/,33.6072,-112.10600000000001,6585,2018-01-11
390730,23871064,"4032 W North Ln, Phoenix, AZ 85051 ",85051,0.5730057954788208,0.8726318776607513,0.5000231232191759,183900,https://www.zillow.com/homedetails/4032-W-North-Ln-Phoenix-AZ-85051/7746045_zpid/,33.5817,-112.146,6599,2018-01-25
404226,23881205,"16412 N 49TH Dr, Glendale, AZ 85306 ",85306,0.5730057954788208,0.8724076151847839,0.4998946195207381,229900,https://www.zillow.com/homedetails/16412-N-49TH-Dr-Glendale-AZ-85306/7950964_zpid/,33.634,-112.165,6591,2018-01-17
9021369,23868873,"9609 W Shasta Dr, Sun City, AZ 85351 ",85351,0.5691154897212982,0.8782364130020142,0.4998179462767176,169900,https://www.zillow.com/homedetails/9609-W-Shasta-Dr-Sun-City-AZ-85351/7904384_zpid/,33.6247,-112.266,6593,2018-01-19
390971,23870470,"3101 W Clinton St, Phoenix, AZ 85029 ",85029,0.5754164159297943,0.8685504794120789,0.499778203917403,209900,https://www.zillow.com/homedetails/3101-W-Clinton-St-Phoenix-AZ-85029/7740875_zpid/,33.583,-112.126,6598,2018-01-24
1409526,23883258,"7001 N 77th Ave, Glendale, AZ 85303 ",85303,0.5717085301876068,0.874001681804657,0.49967421688603686,164900,https://www.zillow.com/homedetails/7001-N-77th-Ave-Glendale-AZ-85303/7684833_zpid/,33.5382,-112.22399999999999,6577,2018-01-03
419676,23882531,"5520 W Golden Ln, Glendale, AZ 85302 ",85302,0.5691154897212982,0.8778119385242462,0.4995763712764285,192500,https://www.zillow.com/homedetails/5520-W-Golden-Ln-Glendale-AZ-85302/7733492_zpid/,33.5652,-112.179,6599,2018-01-25
233478,23794869,"19046 N 15TH Ave, Phoenix, AZ 85027 ",85027,0.6495014727115631,0.7689949870109558,0.49946337657142514,229900,https://www.zillow.com/homedetails/19046-N-15th-Ave-Phoenix-AZ-85027/7969522_zpid/,33.6598,-112.09200000000001,6504,2017-10-22
329110,23884405,"2334 W Rose Ln, Phoenix, AZ 85015 ",85015,0.6185737252235413,0.8072813749313354,0.4993630473948585,199900,https://www.zillow.com/homedetails/2334-W-Rose-Ln-Phoenix-AZ-85015/7772689_zpid/,33.5279,-112.11,6547,2017-12-04
388700,23829780,"2353 W Cortez St, Phoenix, AZ 85029 ",85029,0.6210402250289917,0.8040404915809631,0.49934148782386245,173500,https://www.zillow.com/homedetails/2353-W-Cortez-St-Phoenix-AZ-85029/7749270_zpid/,33.5905,-112.11,6523,2017-11-10
350177,22541766,"6408 W Cordes Rd, Phoenix, AZ 85043 ",85043,0.5924955010414124,0.8427043855190277,0.49929855712789184,169900,https://www.zillow.com/homedetails/6408-W-Cordes-Rd-Phoenix-AZ-85043/49641248_zpid/,33.4216,-112.197,6442,2017-08-21
503053,23856891,"2823 W Marshall Ave, Phoenix, AZ 85017 ",85017,0.6155262291431427,0.8110454678535461,0.4992197584915292,175000,https://www.zillow.com/homedetails/2823-W-Marshall-Ave-Phoenix-AZ-85017/7763994_zpid/,33.5174,-112.12,6561,2017-12-18
350131,22705127,"6405 W Preston Ln, Phoenix, AZ 85043 ",85043,0.5924955010414124,0.8422642350196838,0.49903776993724946,187000,https://www.zillow.com/homedetails/6405-W-Preston-Ln-Phoenix-AZ-85043/55257428_zpid/,33.4235,-112.198,6474,2017-09-22
350009,23781671,"18518 N 20th Pl, Phoenix, AZ 85022 ",85022,0.6361533403396606,0.784092515707016,0.49880307300234605,225000,https://www.zillow.com/homedetails/18518-N-20th-Pl-Phoenix-AZ-85022/61629214_zpid/,33.6544,-112.038,6286,2017-03-18
393008,23866403,"3333 W Columbine Dr, Phoenix, AZ 85029 ",85029,0.5754164159297943,0.8667680621147156,0.49875257174446297,169900,https://www.zillow.com/homedetails/3333-W-Columbine-Dr-Phoenix-AZ-85029/7747780_zpid/,33.5991,-112.131,6588,2018-01-14
434653,23866644,"7715 W Elm St, Phoenix, AZ 85033 ",85033,0.5670362710952759,0.8794311881065369,0.4986693815888188,175000,https://www.zillow.com/homedetails/7715-W-Elm-St-Phoenix-AZ-85033/7468202_zpid/,33.506,-112.226,6582,2018-01-08
9011928,23753384,"7411 W Wolf St, Phoenix, AZ 85033 ",85033,0.6008788645267487,0.8298907279968262,0.49866379832000973,229900,https://www.zillow.com/homedetails/7411-W-Wolf-St-Phoenix-AZ-85033/95184996_zpid/,33.5059,-112.219,6494,2017-10-12
43818,23864355,"8128 W Papago St, Phoenix, AZ 85043 ",85043,0.5633084774017334,0.8851337730884552,0.4986033580153091,195000,https://www.zillow.com/homedetails/8128-W-Papago-St-Phoenix-AZ-85043/60047290_zpid/,33.4345,-112.235,6582,2018-01-08
225959,23779726,"1502 E Taro Ln, Phoenix, AZ 85024 ",85024,0.6496531665325165,0.7670426964759827,0.49831171663126206,208500,https://www.zillow.com/homedetails/1502-E-Taro-Ln-Phoenix-AZ-85024/7995794_zpid/,33.6595,-112.05,6283,2017-03-15
1090009,23867209,"615 W Dublin St, Chandler, AZ 85225 ",85225,0.5656066834926605,0.8808771073818207,0.4982299792708398,247000,https://www.zillow.com/homedetails/615-W-Dublin-St-Chandler-AZ-85225/8189370_zpid/,33.3189,-111.851,6586,2018-01-12
237426,23869648,"1633 W Charleston Ave, Phoenix, AZ 85023 ",85023,0.5691154897212982,0.8751851618289948,0.498081431971122,212000,https://www.zillow.com/homedetails/1633-W-Charleston-Ave-Phoenix-AZ-85023/7957304_zpid/,33.6487,-112.095,6594,2018-01-20
410268,23870505,"4731 W Shaw Butte Dr, Glendale, AZ 85304 ",85304,0.564473569393158,0.8822056651115417,0.49798178072437693,225300,https://www.zillow.com/homedetails/4731-W-Shaw-Butte-Dr-Glendale-AZ-85304/7727518_zpid/,33.5947,-112.161,6598,2018-01-24
475131,23865464,"6801 N 30th Ave, Phoenix, AZ 85017 ",85017,0.5729270875453949,0.8681899011135101,0.49740951148128776,199900,https://www.zillow.com/homedetails/6801-N-30th-Ave-Phoenix-AZ-85017/7758750_zpid/,33.5364,-112.124,6586,2018-01-12
830701,23830958,"3833 W Ocotillo Rd, Phoenix, AZ 85019 ",85019,0.5956327319145203,0.8341639637947083,0.49685536061968705,199900,https://www.zillow.com/homedetails/3833-W-Ocotillo-Rd-Phoenix-AZ-85019/7758511_zpid/,33.5346,-112.14200000000001,6525,2017-11-12
381684,22380395,"3111 W Laurie Ln, Phoenix, AZ 85051 ",85051,0.6467669606208801,0.7673437893390656,0.49629261038213635,229900,https://www.zillow.com/homedetails/3111-W-Laurie-Ln-Phoenix-AZ-85051/7754882_zpid/,33.5587,-112.126,6403,2017-07-13
8977566,23865226,"2018 W Bloomfield Rd, Phoenix, AZ 85029 ",85029,0.5768478810787201,0.8600866496562958,0.4961391613983297,206000,https://www.zillow.com/homedetails/2018-W-Bloomfield-Rd-Phoenix-AZ-85029/7739154_zpid/,33.5987,-112.102,6585,2018-01-11
379541,23831369,"11439 N 33rd Ave, Phoenix, AZ 85029 ",85029,0.6118562817573547,0.8101648092269897,0.4957044277842826,214900,https://www.zillow.com/homedetails/11439-N-33rd-Ave-Phoenix-AZ-85029/7749169_zpid/,33.5913,-112.13,6523,2017-11-10
828507,23855608,"3542 W Rovey Ave, Phoenix, AZ 85019 ",85019,0.5985999405384064,0.8275648951530457,0.49538029703028563,235000,https://www.zillow.com/homedetails/3542-W-Rovey-Ave-Phoenix-AZ-85019/7759119_zpid/,33.5255,-112.13600000000001,6547,2017-12-04
484854,23817893,"2833 N 73RD Dr, Phoenix, AZ 85035 ",85035,0.5827940404415131,0.8493947684764862,0.4950222090502949,190000,https://www.zillow.com/homedetails/2833-N-73rd-Dr-Phoenix-AZ-85035/92692586_zpid/,33.4796,-112.21600000000001,6514,2017-11-01
405534,23869882,"4734 W Beverly Ln, Glendale, AZ 85306 ",85306,0.5730057954788208,0.8637895584106445,0.4949564230433907,245000,https://www.zillow.com/homedetails/4734-W-Beverly-Ln-Glendale-AZ-85306/7951184_zpid/,33.6331,-112.161,6596,2018-01-22
522482,23866699,"9013 W Virginia Ave, Phoenix, AZ 85037 ",85037,0.5616096556186676,0.8812446594238281,0.49491550969480613,174900,https://www.zillow.com/homedetails/9013-W-Virginia-Ave-Phoenix-AZ-85037/7473884_zpid/,33.4743,-112.25399999999999,6583,2018-01-09
384619,23881964,"13636 N 31st Ave, Phoenix, AZ 85029 ",85029,0.5701037347316742,0.8678457736968994,0.4947621167557017,209777,https://www.zillow.com/homedetails/13636-N-31st-Ave-Phoenix-AZ-85029/7747939_zpid/,33.6103,-112.125,6601,2018-01-27
472964,23884783,"5737 N 35th Ave, Phoenix, AZ 85017 ",85017,0.5985999405384064,0.8264380991458893,0.4947057970074029,169500,https://www.zillow.com/homedetails/5737-N-35th-Ave-Phoenix-AZ-85017/7762448_zpid/,33.5218,-112.134,6555,2017-12-12
9023482,23827286,"15606 N 99th Dr, Sun City, AZ 85351 ",85351,0.5951341390609741,0.8301770687103271,0.4940667150550837,192500,https://www.zillow.com/homedetails/15606-N-99th-Dr-Sun-City-AZ-85351/2092083796_zpid/,33.6257,-112.271,6526,2017-11-13
392265,23884716,"4144 W Northview Ave, Phoenix, AZ 85051 ",85051,0.5620512366294861,0.8783498108386993,0.49367759737516614,200000,https://www.zillow.com/homedetails/4144-W-Northview-Ave-Phoenix-AZ-85051/7756481_zpid/,33.5444,-112.149,6586,2018-01-12
9024049,23871156,"9545 W Briarwood Cir N, Sun City, AZ 85351 ",85351,0.564473569393158,0.8742337226867676,0.4934818299288679,199900,https://www.zillow.com/homedetails/9545-W-Briarwood-Cir-N-Sun-City-AZ-85351/7904970_zpid/,33.6371,-112.266,6599,2018-01-25
390187,23871790,"4008 W Kaler Dr, Phoenix, AZ 85051 ",85051,0.5620512366294861,0.87782222032547,0.4933810644747716,213900,https://www.zillow.com/homedetails/4008-W-Kaler-Dr-Phoenix-AZ-85051/7757936_zpid/,33.5487,-112.145,6597,2018-01-23
392083,23870745,"4137 W Royal Palm Rd, Phoenix, AZ 85051 ",85051,0.5620512366294861,0.8778209984302521,0.49338037770705334,180000,https://www.zillow.com/homedetails/4137-W-Royal-Palm-Rd-Phoenix-AZ-85051/7752864_zpid/,33.5554,-112.149,6599,2018-01-25
382603,23869310,"12646 N 38TH Ave, Phoenix, AZ 85029 ",85029,0.5620512366294861,0.8773888945579529,0.4931375131912752,125000,https://www.zillow.com/homedetails/12646-N-38th-Ave-Phoenix-AZ-85029/7742797_zpid/,33.601,-112.14,6591,2018-01-17
9019126,23871777,"3703 W Lawrence Rd, Phoenix, AZ 85019 ",85019,0.5620512366294861,0.8772783279418945,0.49307536908798966,230000,https://www.zillow.com/homedetails/3703-W-Lawrence-Rd-Phoenix-AZ-85019/7758466_zpid/,33.5354,-112.139,6597,2018-01-23
431375,23855856,"6744 W Pierson St, Phoenix, AZ 85033 ",85033,0.570228099822998,0.8642587959766388,0.4928246509850709,141900,https://www.zillow.com/homedetails/6744-W-Pierson-St-Phoenix-AZ-85033/7716621_zpid/,33.508,-112.205,6555,2017-12-12
400283,23870014,"10625 N 45TH Dr, Glendale, AZ 85304 ",85304,0.5599554777145386,0.8791107535362244,0.4922628819603645,234900,https://www.zillow.com/homedetails/10625-N-45th-Dr-Glendale-AZ-85304/7727738_zpid/,33.5835,-112.156,6591,2018-01-17
829953,23868785,"3730 W Stella Ln, Phoenix, AZ 85019 ",85019,0.5620512366294861,0.8755205869674683,0.49208742859963905,204900,https://www.zillow.com/homedetails/3730-W-Stella-Ln-Phoenix-AZ-85019/7761178_zpid/,33.5307,-112.14,6593,2018-01-19
392666,23759961,"4208 W El Camino Dr, Phoenix, AZ 85051 ",85051,0.6077838838100433,0.8094376623630524,0.4919631661331385,215000,https://www.zillow.com/homedetails/4208-W-El-Camino-Dr-Phoenix-AZ-85051/7752812_zpid/,33.5573,-112.15,6503,2017-10-21
9024486,23843769,"6743 W Roma Ave, Phoenix, AZ 85033 ",85033,0.570228099822998,0.8617334961891174,0.49138465408574916,135000,https://www.zillow.com/homedetails/6743-W-Roma-Ave-Phoenix-AZ-85033/7717104_zpid/,33.5015,-112.205,6542,2017-11-29
484005,23821708,"2696 N 73RD Gln, Phoenix, AZ 85035 ",85035,0.5827940404415131,0.8428046405315399,0.49118152175823315,210000,https://www.zillow.com/homedetails/2696-N-73rd-Gln-Phoenix-AZ-85035/95155175_zpid/,33.4779,-112.21799999999999,6513,2017-10-31
9015572,23864377,"9416 W Madison St, Tolleson, AZ 85353 ",85353,0.5616096556186676,0.874210000038147,0.4909647770598191,149000,https://www.zillow.com/homedetails/9416-W-Madison-St-Tolleson-AZ-85353/7460136_zpid/,33.4454,-112.264,6582,2018-01-08
416186,23888950,"4431 W Mission Ln, Glendale, AZ 85302 ",85302,0.5620512366294861,0.873426079750061,0.49091020822796594,182500,https://www.zillow.com/homedetails/4431-W-Mission-Ln-Glendale-AZ-85302/7729651_zpid/,33.5689,-112.156,6588,2018-01-14
394581,23831766,"3626 W Rue De Lamour Ave, Phoenix, AZ 85029 ",85029,0.5956327319145203,0.8232117593288422,0.4903318691531968,199900,https://www.zillow.com/homedetails/3626-W-Rue-De-Lamour-Ave-Phoenix-AZ-85029/7741437_zpid/,33.6102,-112.137,6522,2017-11-09
829151,23884603,"3631 W Krall St, Phoenix, AZ 85019 ",85019,0.5620512366294861,0.8721467852592468,0.4901911791773905,170000,https://www.zillow.com/homedetails/3631-W-Krall-St-Phoenix-AZ-85019/7761764_zpid/,33.5341,-112.13799999999999,6596,2018-01-22
9024207,23870483,"3545 W Gardenia Ave, Phoenix, AZ 85051 ",85051,0.5620512366294861,0.8716559708118439,0.4899153163102721,219500,https://www.zillow.com/homedetails/3545-W-Gardenia-Ave-Phoenix-AZ-85051/7756303_zpid/,33.5441,-112.13600000000001,6598,2018-01-24
467648,23865040,"3143 W Marlette Ave, Phoenix, AZ 85017 ",85017,0.5620512366294861,0.8711826503276825,0.4896492859468271,204000,https://www.zillow.com/homedetails/3143-W-Marlette-Ave-Phoenix-AZ-85017/7760936_zpid/,33.5289,-112.12799999999999,6585,2018-01-11
388605,23884669,"3830 W Glendale Ave, Phoenix, AZ 85051 ",85051,0.5620512366294861,0.8711001574993134,0.48960292075062917,159900,https://www.zillow.com/homedetails/3830-W-Glendale-Ave-Phoenix-AZ-85051/7756732_zpid/,33.5388,-112.14200000000001,6600,2018-01-26
832651,23869467,"4232 W Citrus Way, Phoenix, AZ 85019 ",85019,0.5599554777145386,0.8740351498126984,0.4894207698526678,180000,https://www.zillow.com/homedetails/4232-W-Citrus-Way-Phoenix-AZ-85019/7762086_zpid/,33.5299,-112.15100000000001,6593,2018-01-19
227027,23869822,"1401 W Grovers Ave, Phoenix, AZ 85023 ",85023,0.5599554777145386,0.8735180795192719,0.48913123350950016,184900,https://www.zillow.com/homedetails/1401-W-Grovers-Ave-Phoenix-AZ-85023/7963298_zpid/,33.6472,-112.09100000000001,6596,2018-01-22
456854,23862646,"4925 W Flower St, Phoenix, AZ 85031 ",85031,0.5610451102256775,0.8712058961391449,0.4887858080286467,206000,https://www.zillow.com/homedetails/4925-W-Flower-St-Phoenix-AZ-85031/7509860_zpid/,33.4855,-112.165,6578,2018-01-04
9019399,23864514,"15032 N 26th St, Phoenix, AZ 85032 ",85032,0.5620512366294861,0.8696241080760956,0.4887733053469834,238000,https://www.zillow.com/homedetails/15032-N-26th-St-Phoenix-AZ-85032/8013907_zpid/,33.6237,-112.027,6584,2018-01-10
9023655,23829023,"14631 N 36th St, Phoenix, AZ 85032 ",85032,0.6138906478881836,0.7960201799869537,0.48866934402425954,214000,https://www.zillow.com/homedetails/14631-N-36th-St-Phoenix-AZ-85032/8013016_zpid/,33.6203,-112.00399999999999,6525,2017-11-12
407754,23882612,"5927 W Redfield Rd, Glendale, AZ 85306 ",85306,0.5599554777145386,0.872513085603714,0.48856848166141376,165000,https://www.zillow.com/homedetails/5927-W-Redfield-Rd-Glendale-AZ-85306/7910715_zpid/,33.6135,-112.18700000000001,6591,2018-01-17
9022111,23817234,"7629 N 44th Dr, Glendale, AZ 85301 ",85301,0.6003704369068146,0.8136670589447021,0.4885016476753137,195000,https://www.zillow.com/homedetails/7629-N-44th-Dr-Glendale-AZ-85301/7725279_zpid/,33.5492,-112.155,6514,2017-11-01
650458,23872026,"2419 W Naranja Ave, Mesa, AZ 85202 ",85202,0.5455573201179504,0.8952144086360931,0.48839077370648276,218000,https://www.zillow.com/homedetails/2419-W-Naranja-Ave-Mesa-AZ-85202/8251330_zpid/,33.3643,-111.88600000000001,6603,2018-01-29
338577,23879437,"15030 N 23RD Pl, Phoenix, AZ 85022 ",85022,0.5620512366294861,0.8688924312591553,0.48836206548720895,249900,https://www.zillow.com/homedetails/15030-N-23RD-Pl-Phoenix-AZ-85022/8010606_zpid/,33.6235,-112.03200000000001,6598,2018-01-24
354199,23879414,"2237 E Blanche Dr, Phoenix, AZ 85022 ",85022,0.5620512366294861,0.8688924312591553,0.48836206548720895,214000,https://www.zillow.com/homedetails/2237-E-Blanche-Dr-Phoenix-AZ-85022/8010622_zpid/,33.6237,-112.03299999999999,6593,2018-01-19
384323,23864506,"1344 W Joan De Arc Ave, Phoenix, AZ 85029 ",85029,0.5599554777145386,0.8719140589237213,0.4882330533906547,210000,https://www.zillow.com/homedetails/1344-W-Joan-De-Arc-Ave-Phoenix-AZ-85029/7784468_zpid/,33.6078,-112.089,6584,2018-01-10
400178,23868266,"10609 N 45TH Dr, Glendale, AZ 85304 ",85304,0.5599554777145386,0.8716563582420349,0.48808875248233363,184000,https://www.zillow.com/homedetails/10609-N-45th-Dr-Glendale-AZ-85304/7727734_zpid/,33.5826,-112.156,6591,2018-01-17
524930,22304530,"9134 W Vernon Ave, Phoenix, AZ 85037 ",85037,0.59410360455513,0.8214081525802612,0.4880015442589034,249000,https://www.zillow.com/homedetails/9134-W-Vernon-Ave-Phoenix-AZ-85037/67764424_zpid/,33.473,-112.257,6401,2017-07-11
243119,22391945,"18226 N 10th Dr, Phoenix, AZ 85023 ",85023,0.6361533403396606,0.7671110332012177,0.48800024618236293,225000,https://www.zillow.com/homedetails/18226-N-10th-Dr-Phoenix-AZ-85023/7956715_zpid/,33.652,-112.086,6401,2017-07-11
380873,23882112,"2919 W Seldon Ln, Phoenix, AZ 85051 ",85051,0.5754164159297943,0.8477457463741302,0.48780681899833045,184999,https://www.zillow.com/homedetails/2919-W-Seldon-Ln-Phoenix-AZ-85051/7750574_zpid/,33.5609,-112.12200000000001,6600,2018-01-26
1350469,23869506,"5815 N 62nd Dr, Glendale, AZ 85301 ",85301,0.5599554777145386,0.8709457814693451,0.48769086112612925,155000,https://www.zillow.com/homedetails/5815-N-62nd-Dr-Glendale-AZ-85301/7714249_zpid/,33.5226,-112.194,6593,2018-01-19
9021871,23872703,"12120 N 89th Dr, Peoria, AZ 85345 ",85345,0.5529362559318542,0.8820016384124756,0.48769068366955537,239900,https://www.zillow.com/homedetails/12120-N-89th-Dr-Peoria-AZ-85345/7685583_zpid/,33.5947,-112.25200000000001,6606,2018-02-01
702539,23868455,"545 S Stewart, Mesa, AZ 85202 ",85202,0.5547308325767517,0.8790957033634186,0.48766149144143434,184000,https://www.zillow.com/homedetails/545-S-Stewart-Mesa-AZ-85202/7604679_zpid/,33.4045,-111.859,6592,2018-01-18
9025872,23872342,"15168 N 90TH Ln, Peoria, AZ 85381 ",85381,0.5529362559318542,0.881478875875473,0.48740162930960373,213700,https://www.zillow.com/homedetails/15168-N-90th-Ln-Peoria-AZ-85381/7908827_zpid/,33.6229,-112.25399999999999,6605,2018-01-31
397949,23882266,"8626 N 37th Ave, Phoenix, AZ 85051 ",85051,0.5599554777145386,0.8694123029708862,0.48683218144095974,170000,https://www.zillow.com/homedetails/8626-N-37th-Ave-Phoenix-AZ-85051/7752451_zpid/,33.5627,-112.139,6597,2018-01-23
387379,23882170,"3735 W Diana Ave, Phoenix, AZ 85051 ",85051,0.5599554777145386,0.8694123029708862,0.48683218144095974,165000,https://www.zillow.com/homedetails/3735-W-Diana-Ave-Phoenix-AZ-85051/7752389_zpid/,33.5615,-112.141,6597,2018-01-23
381332,23882095,"2941 W Griswold Rd, Phoenix, AZ 85051 ",85051,0.5754164159297943,0.8459906876087189,0.48679692937379127,229900,https://www.zillow.com/homedetails/2941-W-Griswold-Rd-Phoenix-AZ-85051/7751159_zpid/,33.5564,-112.12299999999999,6595,2018-01-21
432541,22734473,"7113 W Sheila Ln, Phoenix, AZ 85033 ",85033,0.5889309942722321,0.8260226845741272,0.48647036091765905,189000,https://www.zillow.com/homedetails/7113-W-Sheila-Ln-Phoenix-AZ-85033/55257199_zpid/,33.4878,-112.213,6485,2017-10-03
9025493,23853409,"5955 W Mitchell Dr, Phoenix, AZ 85033 ",85033,0.5610451102256775,0.8662912845611572,0.4860284892341582,165000,https://www.zillow.com/homedetails/5955-W-Mitchell-Dr-Phoenix-AZ-85033/7489271_zpid/,33.4883,-112.189,6550,2017-12-07
476829,23864061,"1614 N 53rd Dr, Phoenix, AZ 85035 ",85035,0.556059718132019,0.8739881813526154,0.48598962177365124,159000,https://www.zillow.com/homedetails/1614-N-53rd-Dr-Phoenix-AZ-85035/7493815_zpid/,33.4668,-112.175,6582,2018-01-08
8970849,23830064,"3715 E Delcoa Dr, Phoenix, AZ 85032 ",85032,0.6210402250289917,0.7824264466762543,0.4859182965124553,220000,https://www.zillow.com/homedetails/3715-E-Delcoa-Dr-Phoenix-AZ-85032/7813615_zpid/,33.6109,-112.00200000000001,6507,2017-10-25
239765,21170292,"3054 W Acoma Dr, Phoenix, AZ 85053 ",85053,0.6415460407733917,0.7570750415325165,0.48569849546353705,198500,http://www.zillow.com/homedetails/3054-W-Acoma-Dr-Phoenix-AZ-85053/7942812_zpid/,33.6179,-112.125,6272,2017-03-04
433435,23843217,"7318 W Glenrosa Ave, Phoenix, AZ 85033 ",85033,0.5646508932113647,0.8598617613315582,0.4855217115741617,154999,https://www.zillow.com/homedetails/7318-W-Glenrosa-Ave-Phoenix-AZ-85033/7711188_zpid/,33.4994,-112.21700000000001,6541,2017-11-28
337702,23890067,"2326 W Augusta Ave, Phoenix, AZ 85021 ",85021,0.5708589851856232,0.8504363894462585,0.48547925424421656,215000,https://www.zillow.com/homedetails/2326-W-Augusta-Ave-Phoenix-AZ-85021/7779291_zpid/,33.5518,-112.11,6599,2018-01-25
465370,23866376,"2933 W Bethany Home Rd, Phoenix, AZ 85017 ",85017,0.5774705111980438,0.8399803936481476,0.48506390731632987,170000,https://www.zillow.com/homedetails/2933-W-Bethany-Home-Rd-Phoenix-AZ-85017/7762760_zpid/,33.5238,-112.12299999999999,6585,2018-01-11
436099,23864351,"8017 W Pinchot Ave, Phoenix, AZ 85033 ",85033,0.555136650800705,0.8728785514831543,0.484566875626129,149400,https://www.zillow.com/homedetails/8017-W-Pinchot-Ave-Phoenix-AZ-85033/7479545_zpid/,33.4824,-112.23200000000001,6581,2018-01-07
22933,22734467,"8739 W Fairmount Ave, Phoenix, AZ 85037 ",85037,0.5924955010414124,0.8177346289157867,0.48450408867837247,170000,https://www.zillow.com/homedetails/8739-W-Fairmount-Ave-Phoenix-AZ-85037/7471067_zpid/,33.492,-112.24799999999999,6485,2017-10-03
208870,23870132,"2955 N 29TH St, Phoenix, AZ 85016 ",85016,0.561860591173172,0.8619690835475922,0.4843064588550474,162000,https://www.zillow.com/homedetails/2955-N-29th-St-Phoenix-AZ-85016/7538786_zpid/,33.4821,-112.01899999999999,6597,2018-01-23
450692,23753402,"8742 W Edgemont Ave, Phoenix, AZ 85037 ",85037,0.59410360455513,0.814490407705307,0.4838916870933003,190000,https://www.zillow.com/homedetails/8742-W-Edgemont-Ave-Phoenix-AZ-85037/7473770_zpid/,33.4794,-112.249,6494,2017-10-12
333266,23854946,"5719 N 23rd Ave, Phoenix, AZ 85015 ",85015,0.6156611442565918,0.7853125035762787,0.4834863945507806,175000,https://www.zillow.com/homedetails/5719-N-23rd-Ave-Phoenix-AZ-85015/7763242_zpid/,33.5217,-112.10799999999999,6557,2017-12-14
1357797,23883517,"7780 N 58th Dr, Glendale, AZ 85301 ",85301,0.5529362559318542,0.8740376234054565,0.48328709102938916,205000,https://www.zillow.com/homedetails/7780-N-58th-Dr-Glendale-AZ-85301/62728686_zpid/,33.5501,-112.184,6605,2018-01-31
1357833,23883542,"7783 N 58TH Ave, Glendale, AZ 85301 ",85301,0.5529362559318542,0.8740376234054565,0.48328709102938916,219900,https://www.zillow.com/homedetails/7783-N-58TH-Ave-Glendale-AZ-85301/62728699_zpid/,33.5502,-112.18299999999999,6605,2018-01-31
491289,23853212,"5551 W Wilshire Dr, Phoenix, AZ 85035 ",85035,0.5610451102256775,0.8606542646884918,0.4828658667983543,187900,https://www.zillow.com/homedetails/5551-W-Wilshire-Dr-Phoenix-AZ-85035/7491935_zpid/,33.4756,-112.18,6538,2017-11-25
837022,23871277,"5743 N 38th Dr, Phoenix, AZ 85019 ",85019,0.5507912635803223,0.8764972686767578,0.48276703813917266,187900,https://www.zillow.com/homedetails/5743-N-38th-Dr-Phoenix-AZ-85019/7719105_zpid/,33.5219,-112.141,6601,2018-01-27
410256,23810938,"4730 W Shaw Butte Dr, Glendale, AZ 85304 ",85304,0.60853111743927,0.7932478189468384,0.4827159816699833,240000,https://www.zillow.com/homedetails/4730-W-Shaw-Butte-Dr-Glendale-AZ-85304/7727507_zpid/,33.5952,-112.161,6509,2017-10-27
359312,23869360,"2024 S 85TH Ln, Tolleson, AZ 85353 ",85353,0.5360330641269684,0.9002701938152313,0.48257459053295815,185000,https://www.zillow.com/homedetails/2024-S-85th-Ln-Tolleson-AZ-85353/59271383_zpid/,33.4284,-112.244,6595,2018-01-21
387107,23882069,"2121 W Shaw Butte Dr, Phoenix, AZ 85029 ",85029,0.5529362559318542,0.8715687096118927,0.48192193908015746,172500,https://www.zillow.com/homedetails/2121-W-Shaw-Butte-Dr-Phoenix-AZ-85029/7748956_zpid/,33.5958,-112.105,6602,2018-01-28
397409,23882267,"8511 N 31st Ave, Phoenix, AZ 85051 ",85051,0.5708589851856232,0.8441402316093445,0.4818850359708673,225900,https://www.zillow.com/homedetails/8511-N-31st-Ave-Phoenix-AZ-85051/7750679_zpid/,33.5609,-112.125,6592,2018-01-18
8992552,23882752,"6029 W Mary Jane Ln, Glendale, AZ 85306 ",85306,0.6170087158679962,0.7809913754463196,0.48187848566811375,239000,https://www.zillow.com/homedetails/6029-W-Mary-Jane-Ln-Glendale-AZ-85306/8097193_zpid/,33.6273,-112.189,6493,2017-10-11
9022216,23869757,"8333 W Watkins St, Tolleson, AZ 85353 ",85353,0.5360330641269684,0.8988790512084961,0.4818288920988323,190000,https://www.zillow.com/homedetails/8333-W-Watkins-St-Tolleson-AZ-85353/54886336_zpid/,33.4265,-112.24,6594,2018-01-20
1356148,23883149,"6805 N 54th Dr, Glendale, AZ 85301 ",85301,0.5774705111980438,0.8343691825866699,0.48182359839621824,195000,https://www.zillow.com/homedetails/6805-N-54th-Dr-Glendale-AZ-85301/7722072_zpid/,33.5371,-112.176,6598,2018-01-24
9021799,23872154,"13014 N Lakeforest Dr, Sun City, AZ 85351 ",85351,0.5529362559318542,0.8711592853069305,0.4816955535378842,210492,https://www.zillow.com/homedetails/13014-N-Lakeforest-Dr-Sun-City-AZ-85351/8095961_zpid/,33.6035,-112.26899999999999,6604,2018-01-30
9021200,23846457,"3819 N 63RD Ave, Phoenix, AZ 85033 ",85033,0.5610451102256775,0.8579329252243042,0.4813390725987077,164900,https://www.zillow.com/homedetails/3819-N-63rd-Ave-Phoenix-AZ-85033/7496525_zpid/,33.4925,-112.195,6543,2017-11-30
1406510,23868833,"6760 N 77th Ave, Glendale, AZ 85303 ",85303,0.543372392654419,0.8855415284633636,0.48117881911598914,195000,https://www.zillow.com/homedetails/6760-N-77th-Ave-Glendale-AZ-85303/7463200_zpid/,33.5359,-112.225,6593,2018-01-19
1370662,23883178,"6798 N 87th Ln, Glendale, AZ 85305 ",85305,0.543372392654419,0.885346382856369,0.48107278238060047,247900,https://www.zillow.com/homedetails/6798-N-87th-Ln-Glendale-AZ-85305/95111567_zpid/,33.5346,-112.24799999999999,6598,2018-01-24
359526,23874541,"2429 S 83rd Dr, Tolleson, AZ 85353 ",85353,0.5360330641269684,0.8973129987716675,0.48098943621253554,209999,https://www.zillow.com/homedetails/2429-S-83rd-Dr-Tolleson-AZ-85353/59271229_zpid/,33.4258,-112.23899999999999,6600,2018-01-26
481948,23862444,"2520 N 51st Ln, Phoenix, AZ 85035 ",85035,0.5515308678150177,0.8720205724239349,0.48094626306152133,152000,https://www.zillow.com/homedetails/2520-N-51st-Ln-Phoenix-AZ-85035/7493069_zpid/,33.4755,-112.171,6578,2018-01-04
9026278,23865568,"8630 W El Caminito Dr, Peoria, AZ 85345 ",85345,0.543372392654419,0.8849396109580994,0.4808517537609731,199999,https://www.zillow.com/homedetails/8630-W-El-Caminito-Dr-Peoria-AZ-85345/50187525_zpid/,33.5576,-112.24600000000001,6585,2018-01-11
8989019,22747254,"2049 N 77th Gln, Phoenix, AZ 85035 ",85035,0.5811464786529541,0.8273132741451263,0.48079019601228623,168250,https://www.zillow.com/homedetails/2049-N-77th-Gln-Phoenix-AZ-85035/95149994_zpid/,33.4706,-112.226,6487,2017-10-05
343269,23875648,"2230 S 63rd Dr, Phoenix, AZ 85043 ",85043,0.5360330641269684,0.8965437412261963,0.4805770887333338,195000,https://www.zillow.com/homedetails/2230-S-63rd-Dr-Phoenix-AZ-85043/55257493_zpid/,33.4273,-112.196,6592,2018-01-18
9023486,23827318,"9908 W Crosby Cir N, Sun City, AZ 85351 ",85351,0.5836925506591797,0.8233360946178436,0.48057514511725685,140000,https://www.zillow.com/homedetails/9908-W-Crosby-Cir-N-Sun-City-AZ-85351/7694583_zpid/,33.5838,-112.273,6526,2017-11-13
42085,23875714,"6538 W Hughes Dr, Phoenix, AZ 85043 ",85043,0.5360330641269684,0.8964630961418152,0.48053386030164624,184990,https://www.zillow.com/homedetails/6538-W-Hughes-Dr-Phoenix-AZ-85043/62727379_zpid/,33.4258,-112.20200000000001,6591,2018-01-17
404268,23780495,"16417 N 47th Dr, Glendale, AZ 85306 ",85306,0.6280903220176697,0.7649475634098053,0.4804561614286964,245000,https://www.zillow.com/homedetails/16417-N-47th-Dr-Glendale-AZ-85306/7951226_zpid/,33.6345,-112.161,6277,2017-03-09
9018879,23808777,"4021 W Roosevelt St, Phoenix, AZ 85009 ",85009,0.5910244584083557,0.8118299245834351,0.47981134149662097,179990,https://www.zillow.com/homedetails/4021-W-Roosevelt-St-Phoenix-AZ-85009/2092569655_zpid/,33.4585,-112.147,6508,2017-10-26
252890,23882066,"2420 W Redfield Rd, Phoenix, AZ 85023 ",85023,0.5529362559318542,0.8677296936511993,0.47979920796838904,235000,https://www.zillow.com/homedetails/2420-W-Redfield-Rd-Phoenix-AZ-85023/7961848_zpid/,33.6141,-112.111,6605,2018-01-31
400185,22494552,"10610 N 46th Ave, Glendale, AZ 85304 ",85304,0.6193235814571381,0.7744373381137848,0.47962730585476177,234900,https://www.zillow.com/homedetails/10610-N-46th-Ave-Glendale-AZ-85304/7727627_zpid/,33.5824,-112.15700000000001,6428,2017-08-07
455626,23813601,"4732 N 54th Dr, Phoenix, AZ 85031 ",85031,0.6010881960391998,0.7975691854953766,0.47940942292586985,169000,https://www.zillow.com/homedetails/4732-N-54th-Dr-Phoenix-AZ-85031/7713824_zpid/,33.5068,-112.177,6509,2017-10-27
1405541,23883136,"6702 N 82nd Dr, Glendale, AZ 85303 ",85303,0.543372392654419,0.8822248578071594,0.47937663184588075,229900,https://www.zillow.com/homedetails/6702-N-82nd-Dr-Glendale-AZ-85303/7462533_zpid/,33.5329,-112.23700000000001,6585,2018-01-11
1414405,23883372,"7358 W Peppertree Ln, Glendale, AZ 85303 ",85303,0.543372392654419,0.882215142250061,0.47937135268037423,242000,https://www.zillow.com/homedetails/7358-W-Peppertree-Ln-Glendale-AZ-85303/50188040_zpid/,33.5376,-112.21700000000001,6600,2018-01-26
327561,23884356,"2038 W Orange Dr, Phoenix, AZ 85015 ",85015,0.5774705111980438,0.8300620317459106,0.4793363457983979,199900,https://www.zillow.com/homedetails/2038-W-Orange-Dr-Phoenix-AZ-85015/7765251_zpid/,33.5126,-112.104,6593,2018-01-19
413085,21986995,"5754 W Shangri La Rd, Glendale, AZ 85304 ",85304,0.6208216845989227,0.7718981504440308,0.4792111100974559,227500,https://www.zillow.com/homedetails/5754-W-Shangri-La-Rd-Glendale-AZ-85304/7736186_zpid/,33.586999999999996,-112.18299999999999,6311,2017-04-12
390617,23871793,"4027 W Palmaire Dr, Phoenix, AZ 85051 ",85051,0.5574186444282532,0.8594956994056702,0.47909892765462203,184950,https://www.zillow.com/homedetails/4027-W-Palmaire-Dr-Phoenix-AZ-85051/7757595_zpid/,33.541,-112.146,6598,2018-01-24
1342305,23871812,"4413 W Maryland Ave, Glendale, AZ 85301 ",85301,0.5507912635803223,0.8695391118526459,0.47893454614983,200000,https://www.zillow.com/homedetails/4413-W-Maryland-Ave-Glendale-AZ-85301/7724234_zpid/,33.5309,-112.154,6601,2018-01-27
1347575,23871832,"5033 W Myrtle Ave, Glendale, AZ 85301 ",85301,0.5701037347316742,0.8400309085845947,0.47890475827411905,159999,https://www.zillow.com/homedetails/5033-W-Myrtle-Ave-Glendale-AZ-85301/7725983_zpid/,33.5421,-112.16799999999999,6601,2018-01-27
16048,23884475,"2711 W Elm St, Phoenix, AZ 85017 ",85017,0.5774705111980438,0.8291402459144592,0.47880404166309454,175000,https://www.zillow.com/homedetails/2711-W-Elm-St-Phoenix-AZ-85017/7766004_zpid/,33.5065,-112.118,6596,2018-01-22
8990554,23839230,"3845 N 59th Ave, Phoenix, AZ 85033 ",85033,0.5610451102256775,0.8528930246829987,0.47851146104398445,176000,https://www.zillow.com/homedetails/3845-N-59th-Ave-Phoenix-AZ-85033/7496809_zpid/,33.493,-112.186,6531,2017-11-18
453411,23853062,"4450 N 50TH Ave, Phoenix, AZ 85031 ",85031,0.5917461216449738,0.8085602521896362,0.47846239334949914,149800,https://www.zillow.com/homedetails/4450-N-50th-Ave-Phoenix-AZ-85031/7720779_zpid/,33.501999999999995,-112.167,6533,2017-11-20
8996162,23865480,"8420 W Butler Dr, Peoria, AZ 85345 ",85345,0.543372392654419,0.8803383409976959,0.4783515506933398,219900,https://www.zillow.com/homedetails/8420-W-Butler-Dr-Peoria-AZ-85345/7683722_zpid/,33.5593,-112.241,6586,2018-01-12
8991642,23869584,"9253 W Gold Dust Ave, Peoria, AZ 85345 ",85345,0.543372392654419,0.8800499737262726,0.47819485987910326,215000,https://www.zillow.com/homedetails/9253-W-Gold-Dust-Ave-Peoria-AZ-85345/7697589_zpid/,33.5765,-112.26,6589,2018-01-15
445830,23877779,"4710 N 84th Ln, Phoenix, AZ 85037 ",85037,0.543372392654419,0.8790747821331024,0.4776649676898259,175000,https://www.zillow.com/homedetails/4710-N-84th-Ln-Phoenix-AZ-85037/7481167_zpid/,33.5057,-112.242,6594,2018-01-20
1885132,23876932,"1319 E Orangewood Ave, Phoenix, AZ 85020 ",85020,0.5754164159297943,0.8292036354541779,0.47713738398899874,165000,https://www.zillow.com/homedetails/1319-E-Orangewood-Ave-Phoenix-AZ-85020/7791665_zpid/,33.5449,-112.053,6599,2018-01-25
1406612,23791492,"6765 N 74th Dr, Glendale, AZ 85303 ",85303,0.6010092496871948,0.7937004566192627,0.477021315909127,210000,https://www.zillow.com/homedetails/6765-N-74th-Dr-Glendale-AZ-85303/14094753_zpid/,33.5349,-112.22,6283,2017-03-15
