property_id,transaction_id,address,zipcode,any_sell,good_sell,bayesian,list,url,lat,long,date_listed,transaction_date
5088735,23778838,"1314 W Cortez Ct, Chandler, AZ 85224 ",85224,0.8663967967033386,0.868195903301239,0.7522021495311549,239900,https://www.zillow.com/homedetails/1314-W-Cortez-Ct-Chandler-AZ-85224/8172443_zpid/,33.3557,-111.865,6270,2017-03-02
424652,22494705,"9451 N 65th Ave, Glendale, AZ 85302 ",85302,0.8807099640369416,0.8437672615051269,0.743114234535729,179999,https://www.zillow.com/homedetails/9451-N-65th-Ave-Glendale-AZ-85302/7703396_zpid/,33.573,-112.199,6426,2017-08-05
381684,22380395,"3111 W Laurie Ln, Phoenix, AZ 85051 ",85051,0.8864266335964203,0.8253132402896881,0.7315796372525417,229900,https://www.zillow.com/homedetails/3111-W-Laurie-Ln-Phoenix-AZ-85051/7754882_zpid/,33.5587,-112.126,6403,2017-07-13
827683,22544155,"3017 N 40th Dr, Phoenix, AZ 85019 ",85019,0.8862609386444091,0.822785472869873,0.7292026254886377,140000,https://www.zillow.com/homedetails/3017-N-40th-Dr-Phoenix-AZ-85019/7509168_zpid/,33.483000000000004,-112.146,6437,2017-08-16
350177,22541766,"6408 W Cordes Rd, Phoenix, AZ 85043 ",85043,0.8637766242027283,0.8428170621395111,0.728005676755328,169900,https://www.zillow.com/homedetails/6408-W-Cordes-Rd-Phoenix-AZ-85043/49641248_zpid/,33.4216,-112.197,6442,2017-08-21
7445518,23781525,"18009 N 89th Dr, Peoria, AZ 85382 ",85382,0.853873786330223,0.8524243175983429,0.7278627796276537,240000,https://www.zillow.com/homedetails/18009-N-89th-Dr-Peoria-AZ-85382/8105128_zpid/,33.6473,-112.251,6280,2017-03-12
350009,23781671,"18518 N 20th Pl, Phoenix, AZ 85022 ",85022,0.8612287521362305,0.8338147163391113,0.7181052076655579,225000,https://www.zillow.com/homedetails/18518-N-20th-Pl-Phoenix-AZ-85022/61629214_zpid/,33.6544,-112.038,6286,2017-03-18
43841,22301783,"8133 W Pima St, Phoenix, AZ 85043 ",85043,0.8789200007915496,0.814226257801056,0.7156397431510046,180000,https://www.zillow.com/homedetails/8133-W-Pima-St-Phoenix-AZ-85043/60047272_zpid/,33.4329,-112.236,6401,2017-07-11
261479,23789366,"4757 W Topeka Dr, Glendale, AZ 85308 ",85308,0.8363366574048996,0.8547942519187928,0.7148957674186849,225000,https://www.zillow.com/homedetails/4757-W-Topeka-Dr-Glendale-AZ-85308/7939742_zpid/,33.6603,-112.164,6302,2017-04-03
398944,22432872,"9409 N 36th Dr, Phoenix, AZ 85051 ",85051,0.8879141867160797,0.8035369455814362,0.7134718535322637,215000,https://www.zillow.com/homedetails/9409-N-36th-Dr-Phoenix-AZ-85051/7746677_zpid/,33.5717,-112.137,6330,2017-05-01
694777,22426089,"4826 W Charleston Ave, Glendale, AZ 85308 ",85308,0.8590602040290832,0.8304403305053711,0.7133982397579235,234500,https://www.zillow.com/homedetails/4826-W-Charleston-Ave-Glendale-AZ-85308/7949355_zpid/,33.6493,-112.164,6418,2017-07-28
383781,22501929,"3339 W Malapai Dr, Phoenix, AZ 85051 ",85051,0.8802048981189727,0.8104628562927246,0.7133733758523493,244900,https://www.zillow.com/homedetails/3339-W-Malapai-Dr-Phoenix-AZ-85051/7739353_zpid/,33.5756,-112.131,6433,2017-08-12
9013787,22693106,"5647 W Villa Theresa Dr, Glendale, AZ 85308 ",85308,0.8540053069591522,0.8350474119186402,0.713134921341024,210000,https://www.zillow.com/homedetails/5647-W-Villa-Theresa-Dr-Glendale-AZ-85308/7901269_zpid/,33.6537,-112.182,6471,2017-09-19
22933,22734467,"8739 W Fairmount Ave, Phoenix, AZ 85037 ",85037,0.8632797658443451,0.8251639902591705,0.7123473762941221,170000,https://www.zillow.com/homedetails/8739-W-Fairmount-Ave-Phoenix-AZ-85037/7471067_zpid/,33.492,-112.24799999999999,6485,2017-10-03
225959,23779726,"1502 E Taro Ln, Phoenix, AZ 85024 ",85024,0.867115068435669,0.8214698433876038,0.7123088794668804,208500,https://www.zillow.com/homedetails/1502-E-Taro-Ln-Phoenix-AZ-85024/7995794_zpid/,33.6595,-112.05,6283,2017-03-15
459700,22721620,"5715 W Roma Ave, Phoenix, AZ 85031 ",85031,0.8782191395759582,0.8108594417572021,0.7121122812570518,139900,https://www.zillow.com/homedetails/5715-W-Roma-Ave-Phoenix-AZ-85031/7712868_zpid/,33.4993,-112.18299999999999,6478,2017-09-26
423456,22436549,"8633 N 55th Ave, Glendale, AZ 85302 ",85302,0.8481428325176239,0.8392397999763489,0.7117952211134647,174000,https://www.zillow.com/homedetails/8633-N-55th-Ave-Glendale-AZ-85302/7733817_zpid/,33.5637,-112.178,6419,2017-07-29
350131,22705127,"6405 W Preston Ln, Phoenix, AZ 85043 ",85043,0.8440513730049133,0.8427728354930878,0.7113435689291847,187000,https://www.zillow.com/homedetails/6405-W-Preston-Ln-Phoenix-AZ-85043/55257428_zpid/,33.4235,-112.198,6474,2017-09-22
1406612,23791492,"6765 N 74th Dr, Glendale, AZ 85303 ",85303,0.8510154515504837,0.8344433605670929,0.7101241932863077,210000,https://www.zillow.com/homedetails/6765-N-74th-Dr-Glendale-AZ-85303/14094753_zpid/,33.5349,-112.22,6283,2017-03-15
7450963,23779216,"13854 N 91st Dr, Peoria, AZ 85381 ",85381,0.84806187748909,0.8350385844707489,0.7081643897220954,225000,https://www.zillow.com/homedetails/13854-N-91st-Dr-Peoria-AZ-85381/7908457_zpid/,33.6103,-112.256,6284,2017-03-16
420828,22557561,"5930 W Loma Ln, Glendale, AZ 85302 ",85302,0.8698802173137665,0.8135702013969421,0.7077086235911768,245000,https://www.zillow.com/homedetails/5930-W-Loma-Ln-Glendale-AZ-85302/7704301_zpid/,33.5544,-112.18799999999999,6443,2017-08-22
1957660,22533361,"3809 W Hartford Ave, Glendale, AZ 85308 ",85308,0.8446255534887314,0.8378022670745849,0.7076292035419852,189900,https://www.zillow.com/homedetails/3809-W-Hartford-Ave-Glendale-AZ-85308/7947331_zpid/,33.641999999999996,-112.141,6220,2017-01-11
420568,22722083,"5807 W Puget Ave, Glendale, AZ 85302 ",85302,0.8415860831737518,0.8387865424156189,0.7059110808504148,200000,https://www.zillow.com/homedetails/5807-W-Puget-Ave-Glendale-AZ-85302/7733279_zpid/,33.5668,-112.185,6477,2017-09-25
422454,22731449,"6652 W Delmonico Ln, Glendale, AZ 85302 ",85302,0.8532708168029786,0.8265719294548035,0.7052897053923142,235000,https://www.zillow.com/homedetails/6652-W-Delmonico-Ln-Glendale-AZ-85302/50187742_zpid/,33.5645,-112.20200000000001,6481,2017-09-29
395328,22561906,"7760 N 33rd Ave, Phoenix, AZ 85051 ",85051,0.8834556460380554,0.7978547155857086,0.7048692532022811,195000,https://www.zillow.com/homedetails/7760-N-33rd-Ave-Phoenix-AZ-85051/7757755_zpid/,33.5514,-112.13,6443,2017-08-22
242590,22686911,"3202 W Angela Dr, Phoenix, AZ 85053 ",85053,0.8349084466695785,0.8440039873123169,0.7046660580298572,234900,https://www.zillow.com/homedetails/3202-W-Angela-Dr-Phoenix-AZ-85053/7942083_zpid/,33.6461,-112.12799999999999,6464,2017-09-12
222617,22606562,"1010 W Renee Dr, Phoenix, AZ 85027 ",85027,0.8500801712274552,0.8287124514579773,0.7044720226337216,245000,https://www.zillow.com/homedetails/1010-W-Renee-Dr-Phoenix-AZ-85027/7971269_zpid/,33.6551,-112.085,6451,2017-08-30
451162,23786507,"3442 N 49th Dr, Phoenix, AZ 85031 ",85031,0.8845385313034058,0.795940387248993,0.7040399411422883,165000,https://www.zillow.com/homedetails/3442-N-49th-Dr-Phoenix-AZ-85031/7508566_zpid/,33.4893,-112.166,6233,2017-01-24
450552,22126108,"8733 W Indianola Ave, Phoenix, AZ 85037 ",85037,0.859978187084198,0.8163207113742829,0.7020180054469387,169900,https://www.zillow.com/homedetails/8733-W-Indianola-Ave-Phoenix-AZ-85037/7470962_zpid/,33.4911,-112.24799999999999,6325,2017-04-26
503618,23782296,"2007 N 78th Ave, Phoenix, AZ 85035 ",85035,0.8762340188026428,0.8003270149230957,0.7012737566423868,170000,https://www.zillow.com/homedetails/2007-N-78th-Ave-Phoenix-AZ-85035/82823153_zpid/,33.4698,-112.227,6256,2017-02-16
243119,22391945,"18226 N 10th Dr, Phoenix, AZ 85023 ",85023,0.8554855048656463,0.8184777617454528,0.700195861228113,225000,https://www.zillow.com/homedetails/18226-N-10th-Dr-Phoenix-AZ-85023/7956715_zpid/,33.652,-112.086,6401,2017-07-11
349598,23800467,"18407 N 16th Pl, Phoenix, AZ 85022 ",85022,0.832425594329834,0.8389153897762298,0.6983346419269224,240000,https://www.zillow.com/homedetails/18407-N-16th-Pl-Phoenix-AZ-85022/8001275_zpid/,33.6534,-112.04700000000001,6506,2017-10-24
8976262,22541368,"2918 E Nisbet Ct, Phoenix, AZ 85032 ",85032,0.8279577299952507,0.8422047197818756,0.697309907981888,219500,https://www.zillow.com/homedetails/2918-E-Nisbet-Ct-Phoenix-AZ-85032/8011642_zpid/,33.6234,-112.01899999999999,6440,2017-08-19
411581,22708161,"5226 W Eugie Ave, Glendale, AZ 85304 ",85304,0.8410753190517426,0.8288037836551666,0.6970864067690608,220000,https://www.zillow.com/homedetails/5226-W-Eugie-Ave-Glendale-AZ-85304/7911821_zpid/,33.608000000000004,-112.17200000000001,6473,2017-09-21
353592,23843404,"7913 W Whyman Ave, Phoenix, AZ 85043 ",85043,0.8157662212848663,0.853823047876358,0.6965200014120241,229900,https://www.zillow.com/homedetails/7913-W-Whyman-Ave-Phoenix-AZ-85043/23725365_zpid/,33.4271,-112.23100000000001,6542,2017-11-29
43395,23752723,"7911 W Hilton Ave, Phoenix, AZ 85043 ",85043,0.8242683649063111,0.8448519885540009,0.6963847671932517,232000,https://www.zillow.com/homedetails/7911-W-Hilton-Ave-Phoenix-AZ-85043/50893343_zpid/,33.4289,-112.23,6497,2017-10-15
524930,22304530,"9134 W Vernon Ave, Phoenix, AZ 85037 ",85037,0.8387886464595795,0.8264898657798767,0.6932503158300624,249000,https://www.zillow.com/homedetails/9134-W-Vernon-Ave-Phoenix-AZ-85037/67764424_zpid/,33.473,-112.257,6401,2017-07-11
9021527,23824183,"7384 W Greer Ave, Peoria, AZ 85345 ",85345,0.8122699022293091,0.8525686502456665,0.6925158541788216,209900,https://www.zillow.com/homedetails/7384-W-Greer-Ave-Peoria-AZ-85345/7701234_zpid/,33.5882,-112.21799999999999,6522,2017-11-09
1374907,23793911,"9008 W Nicolet Ave, Glendale, AZ 85305 ",85305,0.8508765727281571,0.8138082802295685,0.6924504003395309,231798,https://www.zillow.com/homedetails/9008-W-Nicolet-Ave-Glendale-AZ-85305/95082341_zpid/,33.5415,-112.25299999999999,6263,2017-02-23
502071,22116293,"3625 N 48th Ave, Phoenix, AZ 85031 ",85031,0.8657498002052307,0.7995371162891388,0.6921990986839882,158000,https://www.zillow.com/homedetails/3625-N-48th-Ave-Phoenix-AZ-85031/7508647_zpid/,33.4911,-112.163,6338,2017-05-09
1415032,23792388,"7420 N 69th Ln, Glendale, AZ 85303 ",85303,0.8505912065505982,0.8137822568416595,0.692196031716416,185000,https://www.zillow.com/homedetails/7420-N-69th-Ln-Glendale-AZ-85303/7704959_zpid/,33.5444,-112.21,6235,2017-01-26
5187848,21947200,"16030 N Lakeforest Dr, Sun City, AZ 85351 ",85351,0.8551485657691955,0.8087863385677337,0.6916324774399165,239900,https://www.zillow.com/homedetails/16030-N-Lakeforest-Dr-Sun-City-AZ-85351/7923097_zpid/,33.6324,-112.272,6375,2017-06-15
421990,23791113,"6451 W Sunnyslope Ln, Glendale, AZ 85302 ",85302,0.8636100471019745,0.8007751703262329,0.6915574825635297,219900,https://www.zillow.com/homedetails/6451-W-Sunnyslope-Ln-Glendale-AZ-85302/7703523_zpid/,33.5702,-112.199,6305,2017-04-06
243287,22690475,"3218 W Angela Dr, Phoenix, AZ 85053 ",85053,0.8219602569937706,0.8396634578704834,0.6901699916195005,209000,https://www.zillow.com/homedetails/3218-W-Angela-Dr-Phoenix-AZ-85053/7942085_zpid/,33.6461,-112.12899999999999,6470,2017-09-18
1090459,23810641,"631 W Caroline Ln, Chandler, AZ 85225 ",85225,0.7942302405834198,0.8687716066837311,0.690004682188464,230000,https://www.zillow.com/homedetails/631-W-Caroline-Ln-Chandler-AZ-85225/8183658_zpid/,33.3304,-111.851,6509,2017-10-27
7428103,23779456,"14238 N Lakeforest Dr, Sun City, AZ 85351 ",85351,0.8655768752098083,0.7964012086391449,0.6893464695871856,169900,https://www.zillow.com/homedetails/14238-N-Lakeforest-Dr-Sun-City-AZ-85351/7922322_zpid/,33.6141,-112.26700000000001,6265,2017-02-25
359302,23814410,"2021 S 83RD Dr, Tolleson, AZ 85353 ",85353,0.8136629015207291,0.8469251155853271,0.6891115469179361,197900,https://www.zillow.com/homedetails/2021-S-83rd-Dr-Tolleson-AZ-85353/59271300_zpid/,33.4288,-112.23899999999999,6511,2017-10-29
1409866,23835277,"7017 N 77th Dr, Glendale, AZ 85303 ",85303,0.8006720334291458,0.8604907512664794,0.6889708795635054,215000,https://www.zillow.com/homedetails/7017-N-77th-Dr-Glendale-AZ-85303/55260208_zpid/,33.5385,-112.225,6529,2017-11-16
8964694,23800320,"9084 N 80th Ln, Peoria, AZ 85345 ",85345,0.8304046466946602,0.829342246055603,0.688689654824759,170000,https://www.zillow.com/homedetails/9084-N-80th-Ln-Peoria-AZ-85345/50187199_zpid/,33.5677,-112.23299999999999,6422,2017-08-01
394310,23786762,"3560 W Wood Dr, Phoenix, AZ 85029 ",85029,0.8527354925870896,0.8071331799030304,0.6882711097479945,230000,https://www.zillow.com/homedetails/3560-W-Wood-Dr-Phoenix-AZ-85029/7741612_zpid/,33.6044,-112.137,6308,2017-04-09
2044933,22443059,"1446 W Bentley St, Mesa, AZ 85201 ",85201,0.8764942049980163,0.7851178288459778,0.6881512272241239,220000,https://www.zillow.com/homedetails/1446-W-Bentley-St-Mesa-AZ-85201/7610672_zpid/,33.4202,-111.86200000000001,6338,2017-05-09
401171,22726857,"14216 N 45th Dr, Glendale, AZ 85306 ",85306,0.8418085902929306,0.817462432384491,0.6881468978230185,199900,https://www.zillow.com/homedetails/14216-N-45th-Dr-Glendale-AZ-85306/7952135_zpid/,33.6149,-112.15700000000001,6478,2017-09-26
1960784,22678331,"7424 W Minnezona Ave, Phoenix, AZ 85033 ",85033,0.8240769788622856,0.8342426598072052,0.6874801707319592,175000,https://www.zillow.com/homedetails/7424-W-Minnezona-Ave-Phoenix-AZ-85033/7710976_zpid/,33.5028,-112.219,6467,2017-09-15
407925,23791005,"6023 W Redfield Rd, Glendale, AZ 85306 ",85306,0.848764356970787,0.8080302119255066,0.6858272432379213,179900,https://www.zillow.com/homedetails/6023-W-Redfield-Rd-Glendale-AZ-85306/7910719_zpid/,33.6135,-112.18799999999999,6309,2017-04-10
405134,21884112,"4532 W Bobbie Ter, Glendale, AZ 85306 ",85306,0.8719538033008576,0.7863695979118347,0.6856779616993904,234975,https://www.zillow.com/homedetails/4532-W-Bobbie-Ter-Glendale-AZ-85306/7950550_zpid/,33.635999999999996,-112.154,6281,2017-03-13
415104,23776939,"10015 N 45th Ave, Glendale, AZ 85302 ",85302,0.8491618067026139,0.8064570665359497,0.6848125396477571,192900,https://www.zillow.com/homedetails/10015-N-45th-Ave-Glendale-AZ-85302/7729213_zpid/,33.577,-112.156,6290,2017-03-22
458973,22036993,"5608 W Heatherbrae Dr, Phoenix, AZ 85031 ",85031,0.8600189805030822,0.7955801129341126,0.6842139976341225,165000,https://www.zillow.com/homedetails/5608-W-Heatherbrae-Dr-Phoenix-AZ-85031/7713127_zpid/,33.4974,-112.181,6348,2017-05-19
331776,22565895,"10418 N 18th Ave, Phoenix, AZ 85021 ",85021,0.8376469612121582,0.8167664468288421,0.6841619322062314,199000,https://www.zillow.com/homedetails/10418-N-18th-Ave-Phoenix-AZ-85021/7781375_zpid/,33.5813,-112.098,6444,2017-08-23
406363,23789864,"5213 W Evans Dr, Glendale, AZ 85306 ",85306,0.8390098094940186,0.8153202950954437,0.6840617254646353,209900,https://www.zillow.com/homedetails/5213-W-Evans-Dr-Glendale-AZ-85306/8097361_zpid/,33.6172,-112.17200000000001,6303,2017-04-04
483971,22688771,"2734 N 73rd Gln, Phoenix, AZ 85035 ",85035,0.8230227202177047,0.8300780594348908,0.6831731024691374,209900,https://www.zillow.com/homedetails/2734-N-73rd-Gln-Phoenix-AZ-85035/95167972_zpid/,33.4783,-112.21799999999999,6470,2017-09-18
9020725,23815067,"9537 W Sunnyslope Ln, Peoria, AZ 85345 ",85345,0.8061017751693725,0.847353196144104,0.6830529156072037,224000,https://www.zillow.com/homedetails/9537-W-Sunnyslope-Ln-Peoria-AZ-85345/7697879_zpid/,33.5693,-112.265,6512,2017-10-30
9022216,23813716,"8333 W Watkins St, Tolleson, AZ 85353 ",85353,0.8033181771636009,0.8502599239349365,0.6830292522106751,194900,https://www.zillow.com/homedetails/8333-W-Watkins-St-Tolleson-AZ-85353/54886336_zpid/,33.4265,-112.24,6510,2017-10-28
345142,23753531,"1739 E Bluefield Ave, Phoenix, AZ 85022 ",85022,0.8009622678160667,0.8518802344799041,0.6823239245167066,224900,https://www.zillow.com/homedetails/1739-E-Bluefield-Ave-Phoenix-AZ-85022/8001407_zpid/,33.6526,-112.044,6498,2017-10-16
230962,23796591,"19225 N 13th St, Phoenix, AZ 85024 ",85024,0.8147228211164474,0.8374216973781585,0.6822665677520572,228000,https://www.zillow.com/homedetails/19225-N-13th-St-Phoenix-AZ-85024/7995445_zpid/,33.6614,-112.054,6505,2017-10-23
9018003,23819878,"1842 W Alamo Dr, Chandler, AZ 85224 ",85224,0.7899687856435775,0.863493150472641,0.6821326354904191,244500,https://www.zillow.com/homedetails/1842-W-Alamo-Dr-Chandler-AZ-85224/8199834_zpid/,33.3482,-111.875,6516,2017-11-03
9013905,22694429,"2418 E Dahlia Dr, Phoenix, AZ 85032 ",85032,0.8476046711206436,0.8046815872192383,0.6820518720918001,225000,https://www.zillow.com/homedetails/2418-E-Dahlia-Dr-Phoenix-AZ-85032/7820474_zpid/,33.6034,-112.03,6470,2017-09-18
444887,22730839,"4607 N 92nd Ln, Phoenix, AZ 85037 ",85037,0.8299607619643211,0.8215735971927642,0.6818738487358749,214900,https://www.zillow.com/homedetails/4607-N-92nd-Ln-Phoenix-AZ-85037/7466411_zpid/,33.5044,-112.259,6480,2017-09-28
412062,23570538,"5339 W Cholla St, Glendale, AZ 85304 ",85304,0.8017136752605438,0.8505081474781037,0.6818640127537071,209000,https://www.zillow.com/homedetails/5339-W-Cholla-St-Glendale-AZ-85304/7736846_zpid/,33.5891,-112.175,6494,2017-10-12
380762,23785452,"2911 W Lawrence Ln, Phoenix, AZ 85051 ",85051,0.8826966345310211,0.7718499362468719,0.681309341088097,155000,https://www.zillow.com/homedetails/2911-W-Lawrence-Ln-Phoenix-AZ-85051/7750459_zpid/,33.5641,-112.12200000000001,6274,2017-03-06
828736,22708030,"3602 W Pasadena Ave, Phoenix, AZ 85019 ",85019,0.8760236978530884,0.7772730410099029,0.6809096036270104,197500,https://www.zillow.com/homedetails/3602-W-Pasadena-Ave-Phoenix-AZ-85019/7719981_zpid/,33.5109,-112.137,6472,2017-09-20
5187885,23794657,"9915 W Tarrytown Ave, Sun City, AZ 85351 ",85351,0.8652815520763397,0.7866047918796539,0.6806346151883131,179000,https://www.zillow.com/homedetails/9915-W-Tarrytown-Ave-Sun-City-AZ-85351/7688483_zpid/,33.5783,-112.274,6290,2017-03-22
380868,23801450,"12018 N 42nd Dr, Phoenix, AZ 85029 ",85029,0.8121007800102233,0.837829875946045,0.6804022957716518,189000,https://www.zillow.com/homedetails/12018-N-42nd-Dr-Phoenix-AZ-85029/7744164_zpid/,33.595,-112.15100000000001,6503,2017-10-21
227536,22735776,"15219 N 37th Ave, Phoenix, AZ 85053 ",85053,0.855237627029419,0.7946963667869568,0.6796542349397776,219000,https://www.zillow.com/homedetails/15219-N-37th-Ave-Phoenix-AZ-85053/7944373_zpid/,33.6242,-112.137,6474,2017-09-22
702422,23836601,"3144 S Rogers, Mesa, AZ 85202 ",85202,0.8030444458127022,0.8462071657180786,0.6795419644368119,244000,https://www.zillow.com/homedetails/3144-S-Rogers-Mesa-AZ-85202/8171993_zpid/,33.3577,-111.86399999999999,6529,2017-11-16
381842,23829311,"12409 N 36th Dr, Phoenix, AZ 85029 ",85029,0.8321199536323547,0.8160778284072876,0.6790746447346648,174900,https://www.zillow.com/homedetails/12409-N-36th-Dr-Phoenix-AZ-85029/7743051_zpid/,33.5986,-112.13600000000001,6424,2017-08-03
446554,23770921,"4817 N 92nd Dr, Phoenix, AZ 85037 ",85037,0.8607372462749481,0.7887117326259613,0.678873564845213,218000,http://www.zillow.com/homedetails/4817-N-92nd-Dr-Phoenix-AZ-85037/7466453_zpid,33.5076,-112.258,6266,2017-02-26
228141,22578193,"1602 W Morrow Dr, Phoenix, AZ 85027 ",85027,0.8492784231901169,0.79897540807724,0.6785525747395186,239900,https://www.zillow.com/homedetails/1602-W-Morrow-Dr-Phoenix-AZ-85027/7968856_zpid/,33.6572,-112.094,6445,2017-08-24
9024040,23847794,"2215 S 99th Ln, Tolleson, AZ 85353 ",85353,0.7939806573092938,0.854614382982254,0.6785472895462266,224000,https://www.zillow.com/homedetails/2215-S-99th-Ln-Tolleson-AZ-85353/95076703_zpid/,33.4261,-112.273,6547,2017-12-04
413085,21986995,"5754 W Shangri La Rd, Glendale, AZ 85304 ",85304,0.8264633774757385,0.8208184540271759,0.678376391809714,227500,https://www.zillow.com/homedetails/5754-W-Shangri-La-Rd-Glendale-AZ-85304/7736186_zpid/,33.586999999999996,-112.18299999999999,6311,2017-04-12
9025868,23860038,"11642 N 76th Ln, Peoria, AZ 85345 ",85345,0.7995426550507545,0.8484033286571503,0.6783346499484358,204900,https://www.zillow.com/homedetails/11642-N-76th-Ln-Peoria-AZ-85345/7681994_zpid/,33.5912,-112.22399999999999,6539,2017-11-26
8969477,23756066,"9324 W Mountain View Rd, Peoria, AZ 85345 ",85345,0.7986637011170388,0.8492791593074799,0.6782884366540791,214000,https://www.zillow.com/homedetails/9324-W-Mountain-View-Rd-Peoria-AZ-85345/7697441_zpid/,33.5733,-112.26100000000001,6500,2017-10-18
361380,23818137,"8601 W Flavia Hvn, Tolleson, AZ 85353 ",85353,0.7952726043760776,0.852729320526123,0.6781522675626529,245000,https://www.zillow.com/homedetails/8601-W-Flavia-Hvn-Tolleson-AZ-85353/59271170_zpid/,33.4241,-112.245,6515,2017-11-02
422412,23760087,"6622 W Golden Ln, Glendale, AZ 85302 ",85302,0.799588891863823,0.847821307182312,0.6779084995084427,190000,https://www.zillow.com/homedetails/6622-W-Golden-Ln-Glendale-AZ-85302/50187805_zpid/,33.5652,-112.20200000000001,6502,2017-10-20
1091154,23858452,"668 W Shawnee Dr, Chandler, AZ 85225 ",85225,0.7938323304057121,0.8537334620952606,0.6777212237604174,239900,https://www.zillow.com/homedetails/668-W-Shawnee-Dr-Chandler-AZ-85225/8200509_zpid/,33.3448,-111.852,6535,2017-11-22
8989019,22747254,"2049 N 77th Gln, Phoenix, AZ 85035 ",85035,0.8206227362155915,0.8257091820240021,0.6775957282708744,168250,https://www.zillow.com/homedetails/2049-N-77th-Gln-Phoenix-AZ-85035/95149994_zpid/,33.4706,-112.226,6487,2017-10-05
389970,22302502,"2910 W Altadena Ave, Phoenix, AZ 85029 ",85029,0.822368235886097,0.8239363253116607,0.6775790623290238,220000,https://www.zillow.com/homedetails/2910-W-Altadena-Ave-Phoenix-AZ-85029/7739875_zpid/,33.5927,-112.12200000000001,6401,2017-07-11
1372616,23837733,"8549 W Tuckey Ln, Glendale, AZ 85305 ",85305,0.7996569260954857,0.8472578644752502,0.6775156195165042,206000,https://www.zillow.com/homedetails/8549-W-Tuckey-Ln-Glendale-AZ-85305/7461499_zpid/,33.533,-112.245,6532,2017-11-19
650458,23850182,"2419 W Naranja Ave, Mesa, AZ 85202 ",85202,0.7847031008452177,0.8631232559680939,0.6772954953697838,235000,https://www.zillow.com/homedetails/2419-W-Naranja-Ave-Mesa-AZ-85202/8251330_zpid/,33.3643,-111.88600000000001,6551,2017-12-08
380897,23810921,"2920 W Townley Ave, Phoenix, AZ 85051 ",85051,0.8395055055618286,0.8067288339138031,0.6772532975661117,155000,https://www.zillow.com/homedetails/2920-W-Townley-Ave-Phoenix-AZ-85051/7750513_zpid/,33.5653,-112.12200000000001,6509,2017-10-27
7450958,21944041,"12172 N 86th Ln, Peoria, AZ 85345 ",85345,0.8335102796554565,0.8123734533786774,0.6771216243103304,215000,https://www.zillow.com/homedetails/12172-N-86th-Ln-Peoria-AZ-85345/7685390_zpid/,33.5947,-112.24600000000001,6289,2017-03-21
249880,23855701,"429 E Kristal Way, Phoenix, AZ 85024 ",85024,0.7869235564023256,0.8597391784191132,0.6765490118599821,239000,https://www.zillow.com/homedetails/429-E-Kristal-Way-Phoenix-AZ-85024/7972535_zpid/,33.6609,-112.068,6547,2017-12-04
8989020,22594955,"2518 N 73rd Dr, Phoenix, AZ 85035 ",85035,0.824467071890831,0.8205238282680511,0.6764948781088153,180500,https://www.zillow.com/homedetails/2518-N-73rd-Dr-Phoenix-AZ-85035/95083161_zpid/,33.4754,-112.21700000000001,6449,2017-08-28
9021813,23820289,"8528 W Eva St, Peoria, AZ 85345 ",85345,0.7883520990610122,0.8580531299114227,0.6764479860715414,186000,https://www.zillow.com/homedetails/8528-W-Eva-St-Peoria-AZ-85345/7696910_zpid/,33.5674,-112.243,6516,2017-11-03
432541,22734473,"7113 W Sheila Ln, Phoenix, AZ 85033 ",85033,0.8189804196357727,0.8257451236248017,0.6762690878584331,189000,https://www.zillow.com/homedetails/7113-W-Sheila-Ln-Phoenix-AZ-85033/55257199_zpid/,33.4878,-112.213,6485,2017-10-03
234640,23785215,"2751 W Acoma Dr, Phoenix, AZ 85053 ",85053,0.8191938057541848,0.8252000987529755,0.6759988094061791,210000,https://www.zillow.com/homedetails/2751-W-Acoma-Dr-Phoenix-AZ-85053/7942788_zpid/,33.6166,-112.12,6283,2017-03-15
1118623,23834612,"2101 N Tamarisk St, Chandler, AZ 85224 ",85224,0.7996949583292008,0.8452357769012451,0.6759307893873908,249900,https://www.zillow.com/homedetails/2101-N-Tamarisk-St-Chandler-AZ-85224/8192386_zpid/,33.3365,-111.881,6530,2017-11-17
362517,23822656,"8838 W Hilton Ave, Tolleson, AZ 85353 ",85353,0.7962827548384667,0.8486764132976532,0.6757863923470844,184900,https://www.zillow.com/homedetails/8838-W-Hilton-Ave-Tolleson-AZ-85353/62726881_zpid/,33.4279,-112.251,6519,2017-11-06
398347,23849790,"4148 W Bloomfield Rd, Phoenix, AZ 85029 ",85029,0.7862124757841229,0.8592759728431701,0.6755734899908395,224900,https://www.zillow.com/homedetails/4148-W-Bloomfield-Rd-Phoenix-AZ-85029/7742599_zpid/,33.5988,-112.149,6550,2017-12-07
1407463,23859178,"6826 N 77th Ln, Glendale, AZ 85303 ",85303,0.7987213358283043,0.8456791341304779,0.675461967694819,214500,https://www.zillow.com/homedetails/6826-N-77th-Ln-Glendale-AZ-85303/7463040_zpid/,33.5363,-112.227,6544,2017-12-01
1421352,23835289,"8016 W Sierra Vista Dr, Glendale, AZ 85303 ",85303,0.7986368596553802,0.8457272469997406,0.6754289526688629,235000,https://www.zillow.com/homedetails/8016-W-Sierra-Vista-Dr-Glendale-AZ-85303/7462651_zpid/,33.5314,-112.23299999999999,6528,2017-11-15
834955,22429468,"3614 W Sierra Vista Dr, Phoenix, AZ 85019 ",85019,0.8619635045528412,0.7835383355617523,0.6753814496723082,175000,https://www.zillow.com/homedetails/3614-W-Sierra-Vista-Dr-Phoenix-AZ-85019/7761685_zpid/,33.5322,-112.137,6327,2017-04-28
9022874,23843166,"5728 W Villa Maria Dr, Glendale, AZ 85308 ",85308,0.7864560648798943,0.8587442755699157,0.6753646437028514,219000,https://www.zillow.com/homedetails/5728-W-Villa-Maria-Dr-Glendale-AZ-85308/7901229_zpid/,33.6509,-112.18299999999999,6536,2017-11-23
629600,23810385,"1646 W Pecos Ave, Mesa, AZ 85202 ",85202,0.7968230187892914,0.8475672483444214,0.675361093452735,214900,https://www.zillow.com/homedetails/1646-W-Pecos-Ave-Mesa-AZ-85202/8191480_zpid/,33.3602,-111.87,6509,2017-10-27
1092802,23820224,"731 W Palomino Dr, Chandler, AZ 85225 ",85225,0.7989038601517677,0.8451415598392487,0.675186854530262,245900,https://www.zillow.com/homedetails/731-W-Palomino-Dr-Chandler-AZ-85225/8177603_zpid/,33.3404,-111.855,6516,2017-11-03
401493,23754956,"11221 N 58th Ave, Glendale, AZ 85304 ",85304,0.7916942663490772,0.8528168737888336,0.6751702292243642,209000,https://www.zillow.com/homedetails/11221-N-58th-Ave-Glendale-AZ-85304/7736227_zpid/,33.588,-112.184,6499,2017-10-17
400185,22494552,"10610 N 46th Ave, Glendale, AZ 85304 ",85304,0.8366546660661698,0.8069689810276032,0.6751543633474066,234900,https://www.zillow.com/homedetails/10610-N-46th-Ave-Glendale-AZ-85304/7727627_zpid/,33.5824,-112.15700000000001,6428,2017-08-07
1665023,22711430,"17403 N Hitching Post Dr, Sun City, AZ 85373 ",85373,0.8614956617355347,0.7829994559288025,0.6745506344239474,243000,https://www.zillow.com/homedetails/17403-N-Hitching-Post-Dr-Sun-City-AZ-85373/7898070_zpid/,33.6412,-112.266,6474,2017-09-22
359281,23846977,"2013 S 86th Ave, Tolleson, AZ 85353 ",85353,0.7933924876153469,0.8501357913017273,0.6744913502717188,215000,https://www.zillow.com/homedetails/2013-S-86th-Ave-Tolleson-AZ-85353/59271375_zpid/,33.4287,-112.244,6546,2017-12-03
359603,23858625,"2538 S 88th Ln, Tolleson, AZ 85353 ",85353,0.7889972612261772,0.8545783519744873,0.6742599792110505,205000,https://www.zillow.com/homedetails/2538-S-88th-Ln-Tolleson-AZ-85353/67772866_zpid/,33.4242,-112.251,6566,2017-12-23
1416084,23849882,"7583 W Krall St, Glendale, AZ 85303 ",85303,0.789225559681654,0.8538022398948669,0.6738425506384761,220000,https://www.zillow.com/homedetails/7583-W-Krall-St-Glendale-AZ-85303/7463213_zpid/,33.5346,-112.22200000000001,6550,2017-12-07
9019224,23831968,"8005 W Shaw Butte Dr, Peoria, AZ 85345 ",85345,0.8025737509131432,0.838611114025116,0.673047267340587,225500,https://www.zillow.com/homedetails/8005-W-Shaw-Butte-Dr-Peoria-AZ-85345/7680677_zpid/,33.5951,-112.23100000000001,6527,2017-11-14
409171,23815122,"6610 W Caribbean Ln, Glendale, AZ 85306 ",85306,0.8047500967979431,0.8362905323505402,0.6730048868603006,210000,https://www.zillow.com/homedetails/6610-W-Caribbean-Ln-Glendale-AZ-85306/8100447_zpid/,33.6248,-112.199,6512,2017-10-30
1885528,22710615,"8223 W Carol Ave, Peoria, AZ 85345 ",85345,0.8212862744927406,0.8193150758743286,0.6728922263005644,205000,https://www.zillow.com/homedetails/8223-W-Carol-Ave-Peoria-AZ-85345/60978276_zpid/,33.5706,-112.236,6473,2017-09-21
1866845,23763851,"1825 W Ray Rd, Chandler, AZ 85224 ",85224,0.8452588826417923,0.7959860444068909,0.6728142744938287,179000,http://www.zillow.com/homedetails/1825-W-Ray-Rd-Chandler-AZ-85224/2109892120_zpid/,33.318000000000005,-111.87299999999999,6236,2017-01-27
9025888,23860118,"8567 W Eva St, Peoria, AZ 85345 ",85345,0.7831783656030893,0.8585693061351776,0.6724129059359268,215000,https://www.zillow.com/homedetails/8567-W-Eva-St-Peoria-AZ-85345/7696902_zpid/,33.5674,-112.244,6538,2017-11-25
9024609,23859299,"18048 N 50th Ave, Glendale, AZ 85308 ",85308,0.7828860074281693,0.8587442755699157,0.6722988773027269,216000,https://www.zillow.com/homedetails/18048-N-50th-Ave-Glendale-AZ-85308/67085136_zpid/,33.6505,-112.169,6570,2017-12-27
8946570,21960648,"7614 W Turquoise Ave, Peoria, AZ 85345 ",85345,0.8688147783279419,0.7737013161182403,0.6722031374553058,219000,https://www.zillow.com/homedetails/7614-W-Turquoise-Ave-Peoria-AZ-85345/7682180_zpid/,33.5747,-112.223,6339,2017-05-10
7381600,22218425,"4317 N 72nd Dr, Phoenix, AZ 85033 ",85033,0.8211917012929917,0.8182322144508362,0.6719255042376142,190000,https://www.zillow.com/homedetails/4317-N-72nd-Dr-Phoenix-AZ-85033/7711467_zpid/,33.4989,-112.214,6377,2017-06-17
9025721,23858284,"4808 W Michigan Ave, Glendale, AZ 85308 ",85308,0.7831522602587938,0.8576658487319946,0.6716829479812383,224000,https://www.zillow.com/homedetails/4808-W-Michigan-Ave-Glendale-AZ-85308/7949548_zpid/,33.6511,-112.163,6563,2017-12-20
9021871,23807926,"12120 N 89th Dr, Peoria, AZ 85345 ",85345,0.8009214088320732,0.8385620474815368,0.6716222964620203,249900,https://www.zillow.com/homedetails/12120-N-89th-Dr-Peoria-AZ-85345/7685583_zpid/,33.5947,-112.25200000000001,6507,2017-10-25
459441,22441396,"5651 W Sells Dr, Phoenix, AZ 85031 ",85031,0.8554164826869964,0.784996074438095,0.6714985809189349,191000,https://www.zillow.com/homedetails/5651-W-Sells-Dr-Phoenix-AZ-85031/7712751_zpid/,33.4999,-112.182,6333,2017-05-04
8946285,22054871,"1612 W Andorra Dr, Phoenix, AZ 85029 ",85029,0.8327211111783981,0.8063368976116181,0.6714537573632888,219900,https://www.zillow.com/homedetails/1612-W-Andorra-Dr-Phoenix-AZ-85029/7784242_zpid/,33.6066,-112.094,6380,2017-06-20
8958977,23756263,"2545 E Piute Ave, Phoenix, AZ 85050 ",85050,0.7987916827201843,0.8404485583305359,0.6713433181486017,159000,https://www.zillow.com/homedetails/2545-E-Piute-Ave-Phoenix-AZ-85050/7994601_zpid/,33.6629,-112.027,6495,2017-10-13
9023033,23823351,"437 E Wescott Dr, Phoenix, AZ 85024 ",85024,0.7971014097332955,0.8420369505882264,0.6711888403614005,225000,https://www.zillow.com/homedetails/437-E-Wescott-Dr-Phoenix-AZ-85024/2092120604_zpid/,33.6585,-112.068,6521,2017-11-08
8977160,23825434,"16231 N 91st Dr, Peoria, AZ 85382 ",85382,0.7925545156002045,0.8468668341636658,0.6711881335284628,233000,https://www.zillow.com/homedetails/16231-N-91st-Dr-Peoria-AZ-85382/2123153916_zpid/,33.6316,-112.25200000000001,6526,2017-11-13
42777,23846103,"7112 W Watkins St, Phoenix, AZ 85043 ",85043,0.7939200289547443,0.8453515529632568,0.671141529405527,205000,https://www.zillow.com/homedetails/7112-W-Watkins-St-Phoenix-AZ-85043/52424087_zpid/,33.4264,-112.213,6543,2017-11-30
9012587,23846522,"4946 W Charleston Ave, Glendale, AZ 85308 ",85308,0.7861776486039161,0.8534171462059021,0.6709374852824207,244900,https://www.zillow.com/homedetails/4946-W-Charleston-Ave-Glendale-AZ-85308/7949618_zpid/,33.6487,-112.167,6544,2017-12-01
223014,23858249,"107 W Piute Ave, Phoenix, AZ 85027 ",85027,0.7855038639158011,0.8537783563137055,0.6706461978120972,220000,https://www.zillow.com/homedetails/107-W-Piute-Ave-Phoenix-AZ-85027/7972231_zpid/,33.6628,-112.07600000000001,6563,2017-12-20
469757,23786316,"3342 W Krall St, Phoenix, AZ 85017 ",85017,0.8655223071575164,0.7745223999023437,0.6703664145086531,139900,https://www.zillow.com/homedetails/3342-W-Krall-St-Phoenix-AZ-85017/82817782_zpid/,33.5343,-112.132,6289,2017-03-21
410268,23845604,"4731 W Shaw Butte Dr, Glendale, AZ 85304 ",85304,0.8048547074198723,0.8324259340763092,0.6699819316197018,227900,https://www.zillow.com/homedetails/4731-W-Shaw-Butte-Dr-Glendale-AZ-85304/7727518_zpid/,33.5947,-112.161,6536,2017-11-23
9022548,23847697,"6803 W Cherry Hills Dr, Peoria, AZ 85345 ",85345,0.8103465050458908,0.8267595112323761,0.6699616804406049,220000,https://www.zillow.com/homedetails/6803-W-Cherry-Hills-Dr-Peoria-AZ-85345/7700208_zpid/,33.5936,-112.205,6547,2017-12-04
629569,23853723,"1645 W Peralta Ave, Mesa, AZ 85202 ",85202,0.7845796260982751,0.8532528579235077,0.6694448082369103,222900,https://www.zillow.com/homedetails/1645-W-Peralta-Ave-Mesa-AZ-85202/8191627_zpid/,33.3572,-111.87,6553,2017-12-10
1121709,23858141,"2370 W Orchid Ln, Chandler, AZ 85224 ",85224,0.7813986850902438,0.8563974082469941,0.6691878087188938,223000,https://www.zillow.com/homedetails/2370-W-Orchid-Ln-Chandler-AZ-85224/8201830_zpid/,33.324,-111.883,6564,2017-12-21
8990467,22512781,"1711 E Harvard Street Phoenix Az, Phoenix, AZ 85006 ",85006,0.8265144169330597,0.8092676520347595,0.6688713815642955,100000,https://www.zillow.com/homedetails/1711-E-Harvard-Street-Phoenix-Az-Phoenix-AZ-85006/2093095994_zpid/,33.4742,-112.04700000000001,6437,2017-08-16
9021795,23854390,"747 W Rosal Pl, Chandler, AZ 85225 ",85225,0.7874915838241577,0.8493416845798493,0.6688494283976637,244800,https://www.zillow.com/homedetails/747-W-Rosal-Pl-Chandler-AZ-85225/8177685_zpid/,33.3412,-111.855,6551,2017-12-08
354621,23808089,"2310 E Winchcomb Dr, Phoenix, AZ 85022 ",85022,0.7931858852505684,0.8429878354072571,0.6686460524829657,224900,https://www.zillow.com/homedetails/2310-E-Winchcomb-Dr-Phoenix-AZ-85022/8010116_zpid/,33.6168,-112.03399999999999,6507,2017-10-25
9025707,23857419,"7108 W Palo Verde Ave, Peoria, AZ 85345 ",85345,0.7950040273368358,0.841014152765274,0.6686096384956698,215000,https://www.zillow.com/homedetails/7108-W-Palo-Verde-Ave-Peoria-AZ-85345/7702387_zpid/,33.5728,-112.212,6546,2017-12-03
404268,23780495,"16417 N 47th Dr, Glendale, AZ 85306 ",85306,0.8334849625825882,0.8018581867218018,0.668336740756363,245000,https://www.zillow.com/homedetails/16417-N-47th-Dr-Glendale-AZ-85306/7951226_zpid/,33.6345,-112.161,6277,2017-03-09
255668,23837407,"412 W Sandra Ter, Phoenix, AZ 85023 ",85023,0.7845693219453096,0.8518095135688781,0.6683036124872987,229999,https://www.zillow.com/homedetails/412-W-Sandra-Ter-Phoenix-AZ-85023/7965434_zpid/,33.6344,-112.08,6533,2017-11-20
1114416,23820184,"1617 W Stottler Dr, Chandler, AZ 85224 ",85224,0.7922265574336051,0.8434050977230072,0.6681679170910513,229900,https://www.zillow.com/homedetails/1617-W-Stottler-Dr-Chandler-AZ-85224/8193816_zpid/,33.3325,-111.87,6516,2017-11-03
1410517,23856547,"7108 N 73rd Dr, Glendale, AZ 85303 ",85303,0.7896225146949292,0.8461103320121766,0.6681077680728162,222000,https://www.zillow.com/homedetails/7108-N-73rd-Dr-Glendale-AZ-85303/82823489_zpid/,33.5387,-112.21700000000001,6532,2017-11-19
8989113,22740158,"19153 N 75th Dr, Glendale, AZ 85308 ",85308,0.7950977101922035,0.8401557624340057,0.6680059229160629,235000,https://www.zillow.com/homedetails/19153-N-75th-Dr-Glendale-AZ-85308/7892099_zpid/,33.6583,-112.221,6487,2017-10-05
1119338,23856054,"2144 N College Ct, Chandler, AZ 85224 ",85224,0.7868992693722248,0.8479929566383362,0.6672850380114994,240000,https://www.zillow.com/homedetails/2144-N-College-Ct-Chandler-AZ-85224/8199700_zpid/,33.3387,-111.874,6557,2017-12-14
7449241,23819586,"11935 N 68th Ave, Peoria, AZ 85345 ",85345,0.811650687456131,0.822022819519043,0.6671953865672583,245000,https://www.zillow.com/homedetails/11935-N-68th-Ave-Peoria-AZ-85345/7700139_zpid/,33.594,-112.204,6516,2017-11-03
830006,22432017,"3735 W Catalina Dr, Phoenix, AZ 85019 ",85019,0.8549735099077225,0.7800100803375244,0.6668879561495779,144000,https://www.zillow.com/homedetails/3735-W-Catalina-Dr-Phoenix-AZ-85019/7507455_zpid/,33.4817,-112.14,6334,2017-05-05
239765,21170292,"3054 W Acoma Dr, Phoenix, AZ 85053 ",85053,0.8324997633695602,0.8007964670658112,0.6666628693394676,198500,http://www.zillow.com/homedetails/3054-W-Acoma-Dr-Phoenix-AZ-85053/7942812_zpid/,33.6179,-112.125,6272,2017-03-04
9022649,23849873,"7133 W Mountain View Rd, Peoria, AZ 85345 ",85345,0.8127915889024735,0.8199284672737122,0.6664309617017703,209800,https://www.zillow.com/homedetails/7133-W-Mountain-View-Rd-Peoria-AZ-85345/7702397_zpid/,33.5743,-112.213,6547,2017-12-04
470656,22708029,"3446 W Montebello Ave, Phoenix, AZ 85017 ",85017,0.8804251372814178,0.7568083822727203,0.6663131238581875,169800,https://www.zillow.com/homedetails/3446-W-Montebello-Ave-Phoenix-AZ-85017/7762454_zpid/,33.5205,-112.134,6472,2017-09-20
8987452,23806670,"13360 N 79th Ave, Peoria, AZ 85381 ",85381,0.7864160910248756,0.8471998274326324,0.66625157660652,219000,https://www.zillow.com/homedetails/13360-N-79th-Ave-Peoria-AZ-85381/8100973_zpid/,33.6063,-112.229,6507,2017-10-25
2193730,23774667,"8021 W Roma Ave, Phoenix, AZ 85033 ",85033,0.8299271523952484,0.802713817358017,0.6661939926282585,151000,http://www.zillow.com/homedetails/8021-W-Roma-Ave-Phoenix-AZ-85033/7481703_zpid/,33.5004,-112.23200000000001,6278,2017-03-10
413890,23856832,"6209 W Bloomfield Rd, Glendale, AZ 85304 ",85304,0.7888259056955575,0.844149899482727,0.665887309002276,225000,https://www.zillow.com/homedetails/6209-W-Bloomfield-Rd-Glendale-AZ-85304/7912238_zpid/,33.5984,-112.19200000000001,6561,2017-12-18
8977168,23856014,"8979 W Bremen St, Peoria, AZ 85382 ",85382,0.784714849665761,0.8481704354286194,0.6655719357283121,220000,https://www.zillow.com/homedetails/8979-W-Bremen-St-Peoria-AZ-85382/67802266_zpid/,33.6443,-112.25200000000001,6554,2017-12-11
9023161,23824406,"18235 N 39th Dr, Glendale, AZ 85308 ",85308,0.7847630597651005,0.8480971395969391,0.6655553062481235,229900,https://www.zillow.com/homedetails/18235-N-39th-Dr-Glendale-AZ-85308/2126416075_zpid/,33.6523,-112.14399999999999,6522,2017-11-09
43124,23755414,"7301 W Payson Rd, Phoenix, AZ 85043 ",85043,0.7909965842962265,0.8413766324520111,0.6655260423762024,195000,https://www.zillow.com/homedetails/7301-W-Payson-Rd-Phoenix-AZ-85043/60975135_zpid/,33.4225,-112.21700000000001,6500,2017-10-18
633870,23848061,"1763 W Natal Ave, Mesa, AZ 85202 ",85202,0.7906848900020123,0.8415480792522431,0.6653993504749645,245000,https://www.zillow.com/homedetails/1763-W-Natal-Ave-Mesa-AZ-85202/8251610_zpid/,33.3665,-111.87200000000001,6544,2017-12-01
402515,23808878,"15205 N 51st Dr, Glendale, AZ 85306 ",85306,0.8043842256069184,0.8269453525543213,0.6651817970336479,189900,https://www.zillow.com/homedetails/15205-N-51st-Dr-Glendale-AZ-85306/7910980_zpid/,33.6226,-112.169,6508,2017-10-26
9023952,23835040,"3231 W Belmont Ave, Phoenix, AZ 85051 ",85051,0.8261942893266678,0.8049265801906585,0.6650257438807663,214900,https://www.zillow.com/homedetails/3231-W-Belmont-Ave-Phoenix-AZ-85051/7758304_zpid/,33.55,-112.12899999999999,6529,2017-11-16
225855,23847348,"1461 E Renee Dr, Phoenix, AZ 85024 ",85024,0.785548634827137,0.8465724050998688,0.6650237971085279,249000,https://www.zillow.com/homedetails/1461-E-Renee-Dr-Phoenix-AZ-85024/7996071_zpid/,33.6554,-112.05,6545,2017-12-02
224397,23833473,"1244 E Sequoia Dr, Phoenix, AZ 85024 ",85024,0.8112144887447357,0.8195594727993012,0.6648385187227902,228500,https://www.zillow.com/homedetails/1244-E-Sequoia-Dr-Phoenix-AZ-85024/7995359_zpid/,33.6631,-112.055,6523,2017-11-10
258476,23717515,"614 W Rosemonte Dr, Phoenix, AZ 85027 ",85027,0.8012001976370812,0.8296722650527955,0.6647335827343045,234900,https://www.zillow.com/homedetails/614-W-Rosemonte-Dr-Phoenix-AZ-85027/7968459_zpid/,33.657,-112.08200000000001,6494,2017-10-12
501018,22711998,"7420 W Alvarado Rd, Phoenix, AZ 85035 ",85035,0.8639739751815796,0.7693544864654541,0.6647022539953412,119900,https://www.zillow.com/homedetails/7420-W-Alvarado-Rd-Phoenix-AZ-85035/7474905_zpid/,33.4717,-112.22,6475,2017-09-23
976591,23840164,"803 N Laveen Dr, Chandler, AZ 85226 ",85226,0.7823447104543447,0.8490277886390686,0.6642323994705247,240000,https://www.zillow.com/homedetails/803-N-Laveen-Dr-Chandler-AZ-85226/8264997_zpid/,33.3165,-111.91,6535,2017-11-22
8945979,23814510,"9605 W Campana Dr, Sun City, AZ 85351 ",85351,0.7973459646105766,0.8330098867416382,0.6641970716741588,194300,https://www.zillow.com/homedetails/9605-W-Campana-Dr-Sun-City-AZ-85351/7905011_zpid/,33.6372,-112.26700000000001,6512,2017-10-30
9023660,23829074,"3140 E Michigan Ave, Phoenix, AZ 85032 ",85032,0.7804551973938942,0.8510346651077271,0.6641944275456978,205000,https://www.zillow.com/homedetails/3140-E-Michigan-Ave-Phoenix-AZ-85032/7999282_zpid/,33.652,-112.014,6523,2017-11-10
830198,23859357,"3747 W Oregon Ave, Phoenix, AZ 85019 ",85019,0.7915202021598816,0.8391132175922393,0.664175063623638,175000,https://www.zillow.com/homedetails/3747-W-Oregon-Ave-Phoenix-AZ-85019/50188145_zpid/,33.5141,-112.14,6569,2017-12-26
331152,23847346,"1025 E Annette Dr, Phoenix, AZ 85022 ",85022,0.7946348175406456,0.8356697678565979,0.6640522935049613,248000,https://www.zillow.com/homedetails/1025-E-Annette-Dr-Phoenix-AZ-85022/8002681_zpid/,33.6531,-112.059,6545,2017-12-02
740,23858292,"4741 W Sandra Ter, Glendale, AZ 85306 ",85306,0.7886550216004252,0.8416119992733002,0.6637415294660617,204900,https://www.zillow.com/homedetails/4741-W-Sandra-Ter-Glendale-AZ-85306/7951188_zpid/,33.6338,-112.161,6551,2017-12-08
9018704,22731861,"13229 N 99th Dr, Sun City, AZ 85351 ",85351,0.8654449820518494,0.7668687760829925,0.6636827341532692,152500,https://www.zillow.com/homedetails/13229-N-99th-Dr-Sun-City-AZ-85351/7914996_zpid/,33.6055,-112.27,6481,2017-09-29
408604,23849215,"6301 W Port Royale Ln, Glendale, AZ 85306 ",85306,0.7829406682401896,0.84766383767128,0.6636704915093955,249500,https://www.zillow.com/homedetails/6301-W-Port-Royale-Ln-Glendale-AZ-85306/8099500_zpid/,33.6208,-112.196,6549,2017-12-06
483705,23784850,"2639 N 49th Ave, Phoenix, AZ 85035 ",85035,0.8372621893882751,0.7924373626708985,0.6634778412229071,162499,https://www.zillow.com/homedetails/2639-N-49th-Ave-Phoenix-AZ-85035/7499042_zpid/,33.4778,-112.163,6270,2017-03-02
9022078,23810726,"1132 E Villa Maria Dr, Phoenix, AZ 85022 ",85022,0.7844762820750475,0.845355212688446,0.6631611142825932,215000,https://www.zillow.com/homedetails/1132-E-Villa-Maria-Dr-Phoenix-AZ-85022/8002438_zpid/,33.6518,-112.057,6509,2017-10-27
400927,23856414,"11014 N 59th Ln, Glendale, AZ 85304 ",85304,0.7882349099963903,0.8412795484066009,0.663125909120081,230000,https://www.zillow.com/homedetails/11014-N-59th-Ln-Glendale-AZ-85304/7698599_zpid/,33.5861,-112.18799999999999,6555,2017-12-12
1075269,23849641,"1803 N Cheri Lynn Dr, Chandler, AZ 85225 ",85225,0.7840127144008875,0.8453136563301087,0.6627366542195074,229900,https://www.zillow.com/homedetails/1803-N-Cheri-Lynn-Dr-Chandler-AZ-85225/8183501_zpid/,33.3321,-111.853,6550,2017-12-07
7520977,22428537,"7562 W Turquoise Ave, Peoria, AZ 85345 ",85345,0.8507118344306945,0.7789653658866882,0.6626750553714417,189900,https://www.zillow.com/homedetails/7562-W-Turquoise-Ave-Peoria-AZ-85345/7682178_zpid/,33.5747,-112.223,6327,2017-04-28
1373435,23850162,"8759 W Peppertree Ln, Glendale, AZ 85305 ",85305,0.78026466909796,0.8490899622440338,0.6625148984247403,249850,https://www.zillow.com/homedetails/8759-W-Peppertree-Ln-Glendale-AZ-85305/95158696_zpid/,33.5368,-112.24700000000001,6551,2017-12-08
413653,23822290,"6114 W Shaw Butte Dr, Glendale, AZ 85304 ",85304,0.7889884933829308,0.8396468877792358,0.662471732962606,249999,https://www.zillow.com/homedetails/6114-W-Shaw-Butte-Dr-Glendale-AZ-85304/7698065_zpid/,33.596,-112.191,6519,2017-11-06
9024365,23853286,"7311 W Coolidge St, Phoenix, AZ 85033 ",85033,0.7816749267280102,0.8474306106567383,0.6624152604921788,187000,https://www.zillow.com/homedetails/7311-W-Coolidge-St-Phoenix-AZ-85033/7710938_zpid/,33.5038,-112.21600000000001,6535,2017-11-22
1113142,23855230,"1515 W El Monte Pl, Chandler, AZ 85224 ",85224,0.7871403433382511,0.841500049829483,0.6623786381419347,225000,https://www.zillow.com/homedetails/1515-W-El-Monte-Pl-Chandler-AZ-85224/8199632_zpid/,33.3377,-111.869,6552,2017-12-09
1412890,23846613,"7253 W Aurelius Ave, Glendale, AZ 85303 ",85303,0.7860467471182346,0.8425967514514923,0.6623204356108371,219900,https://www.zillow.com/homedetails/7253-W-Aurelius-Ave-Glendale-AZ-85303/95170805_zpid/,33.5399,-112.214,6543,2017-11-30
1412767,23846610,"7238 W Ocotillo Rd, Glendale, AZ 85303 ",85303,0.7820092031732202,0.8468275666236877,0.6622269506005071,245000,https://www.zillow.com/homedetails/7238-W-Ocotillo-Rd-Glendale-AZ-85303/67800379_zpid/,33.5344,-112.215,6543,2017-11-30
377735,23842830,"10720 N 36th Ave, Phoenix, AZ 85029 ",85029,0.8112426787614823,0.8161957561969757,0.6621328316509882,228000,https://www.zillow.com/homedetails/10720-N-36th-Ave-Phoenix-AZ-85029/7743347_zpid/,33.5838,-112.137,6541,2017-11-28
411761,23859395,"5271 W Lupine Ave, Glendale, AZ 85304 ",85304,0.7846907440572977,0.8437118887901306,0.6620529097847155,240000,https://www.zillow.com/homedetails/5271-W-Lupine-Ave-Glendale-AZ-85304/7737196_zpid/,33.5897,-112.17299999999999,6564,2017-12-21
9023959,23850397,"5818 W Muriel Dr, Glendale, AZ 85308 ",85308,0.7807628612965345,0.8478847682476044,0.6619969377067486,245000,https://www.zillow.com/homedetails/5818-W-Muriel-Dr-Glendale-AZ-85308/8099884_zpid/,33.6459,-112.185,6552,2017-12-09
9023077,23849850,"5810 W Saint John Rd, Glendale, AZ 85308 ",85308,0.7799123730510473,0.848747980594635,0.661949051667846,238000,https://www.zillow.com/homedetails/5810-W-Saint-John-Rd-Glendale-AZ-85308/8099795_zpid/,33.6464,-112.184,6548,2017-12-05
355855,23833551,"702 E Rose Marie Ln, Phoenix, AZ 85022 ",85022,0.7913546428084374,0.8364613831043244,0.6619375990495742,247000,https://www.zillow.com/homedetails/702-E-Rose-Marie-Ln-Phoenix-AZ-85022/49942677_zpid/,33.6527,-112.065,6527,2017-11-14
647631,23846351,"2312 W Plata Ave, Mesa, AZ 85202 ",85202,0.7858397245407105,0.842168140411377,0.6618091794778389,214900,https://www.zillow.com/homedetails/2312-W-Plata-Ave-Mesa-AZ-85202/8170881_zpid/,33.3605,-111.883,6544,2017-12-01
8945113,23759637,"7920 W Sweetwater Ave, Peoria, AZ 85381 ",85381,0.78953802511096,0.838211464881897,0.6617998246082178,229900,https://www.zillow.com/homedetails/7920-W-Sweetwater-Ave-Peoria-AZ-85381/8100881_zpid/,33.6029,-112.23,6501,2017-10-19
8950821,23856307,"7245 W Brown St, Peoria, AZ 85345 ",85345,0.7963627647608519,0.8310175776481629,0.6617914557007569,197499,https://www.zillow.com/homedetails/7245-W-Brown-St-Peoria-AZ-85345/7701411_zpid/,33.5771,-112.215,6558,2017-12-15
406281,23859189,"5202 W Banff Ln, Glendale, AZ 85306 ",85306,0.7838852122426033,0.8434831917285919,0.6611940007712357,208000,https://www.zillow.com/homedetails/5202-W-Banff-Ln-Glendale-AZ-85306/7911062_zpid/,33.6195,-112.171,6548,2017-12-05
470397,23842202,"3425 W Citrus Way, Phoenix, AZ 85017 ",85017,0.8048631563782692,0.8209644019603729,0.6607639998360239,147000,https://www.zillow.com/homedetails/3425-W-Citrus-Way-Phoenix-AZ-85017/7758679_zpid/,33.5297,-112.133,6540,2017-11-27
9024556,23846751,"8422 W Sonora St, Tolleson, AZ 85353 ",85353,0.7971030227839947,0.8288402616977691,0.660671078004369,183000,https://www.zillow.com/homedetails/8422-W-Sonora-St-Tolleson-AZ-85353/57688731_zpid/,33.4336,-112.243,6545,2017-12-02
646338,23847131,"2249 W Portobello Ave, Mesa, AZ 85202 ",85202,0.7886704497039319,0.8376757323741912,0.6606500965576239,215000,https://www.zillow.com/homedetails/2249-W-Portobello-Ave-Mesa-AZ-85202/8170991_zpid/,33.3591,-111.882,6546,2017-12-03
244488,23837399,"1935 W Davis Rd, Phoenix, AZ 85023 ",85023,0.8021086037158967,0.8230961501598358,0.6602125037286359,199500,https://www.zillow.com/homedetails/1935-W-Davis-Rd-Phoenix-AZ-85023/81978440_zpid/,33.632,-112.101,6533,2017-11-20
8995968,22560409,"13818 N 43rd St, Phoenix, AZ 85032 ",85032,0.8277331322431565,0.7974570274353028,0.66008160314834,160000,https://www.zillow.com/homedetails/13818-N-43rd-St-Phoenix-AZ-85032/8030572_zpid/,33.6125,-111.99,6441,2017-08-20
9006564,23814082,"16612 N 28th Way, Phoenix, AZ 85032 ",85032,0.7894485339522361,0.8360526978969574,0.6600205766615648,194900,https://www.zillow.com/homedetails/16612-N-28th-Way-Phoenix-AZ-85032/8005824_zpid/,33.6376,-112.021,6511,2017-10-29
1406108,23854359,"6734 N 77th Dr, Glendale, AZ 85303 ",85303,0.7895738258957863,0.8358287155628205,0.6599484767404971,233000,https://www.zillow.com/homedetails/6734-N-77th-Dr-Glendale-AZ-85303/7463022_zpid/,33.5345,-112.226,6555,2017-12-12
251306,23858190,"533 E Taro Ln, Phoenix, AZ 85024 ",85024,0.7858468940481543,0.8397778451442719,0.659936811297078,239000,https://www.zillow.com/homedetails/533-E-Taro-Ln-Phoenix-AZ-85024/7972372_zpid/,33.6591,-112.066,6564,2017-12-21
382563,23778636,"12640 N 21st Ave, Phoenix, AZ 85029 ",85029,0.8316504925489425,0.7933998286724091,0.6598313583036557,189000,https://www.zillow.com/homedetails/12640-N-21st-Ave-Phoenix-AZ-85029/7739027_zpid/,33.6016,-112.104,6284,2017-03-16
1410407,23835273,"7080 W Glenn Dr, Glendale, AZ 85303 ",85303,0.7839900828897953,0.8416009843349457,0.6598068254688874,234900,https://www.zillow.com/homedetails/7080-W-Glenn-Dr-Glendale-AZ-85303/55173602_zpid/,33.5399,-112.211,6528,2017-11-15
836805,23790332,"5534 N 41st Ave, Phoenix, AZ 85019 ",85019,0.8555412352085113,0.7710752546787262,0.6596866758265548,194999,https://www.zillow.com/homedetails/5534-N-41st-Ave-Phoenix-AZ-85019/7718832_zpid/,33.5179,-112.148,6250,2017-02-10
7546896,22096492,"6102 W Mulberry Dr, Phoenix, AZ 85033 ",85033,0.8293168872594834,0.7954529225826263,0.6596825417176825,165000,https://www.zillow.com/homedetails/6102-W-Mulberry-Dr-Phoenix-AZ-85033/7498385_zpid/,33.4872,-112.19200000000001,6321,2017-04-22
8923062,23858948,"1402 E Charleston Ave, Phoenix, AZ 85022 ",85022,0.7806763663887978,0.8449624896049499,0.6596422461196246,244900,https://www.zillow.com/homedetails/1402-E-Charleston-Ave-Phoenix-AZ-85022/8001924_zpid/,33.6491,-112.052,6564,2017-12-21
450270,23853373,"8713 W Wilshire Dr, Phoenix, AZ 85037 ",85037,0.7914653420448303,0.8331425845623016,0.659403480662716,200000,https://www.zillow.com/homedetails/8713-W-Wilshire-Dr-Phoenix-AZ-85037/7473941_zpid/,33.4756,-112.24700000000001,6526,2017-11-13
9025884,23860106,"7932 W Wethersfield Rd, Peoria, AZ 85381 ",85381,0.7834402397274971,0.841567987203598,0.6593182256417741,228888,https://www.zillow.com/homedetails/7932-W-Wethersfield-Rd-Peoria-AZ-85381/8100789_zpid/,33.5962,-112.23,6566,2017-12-23
226007,23837043,"1415 W Topeka Dr, Phoenix, AZ 85027 ",85027,0.7923871666193009,0.8320091605186463,0.6592733813046732,248000,https://www.zillow.com/homedetails/1415-W-Topeka-Dr-Phoenix-AZ-85027/7971784_zpid/,33.6594,-112.089,6529,2017-11-16
43503,23828145,"7939 W Lumbee St, Phoenix, AZ 85043 ",85043,0.8016043215990066,0.8223286688327789,0.6591822147111139,178900,https://www.zillow.com/homedetails/7939-W-Lumbee-St-Phoenix-AZ-85043/59271818_zpid/,33.434,-112.23100000000001,6526,2017-11-13
1421999,23820040,"8134 W Mclellan Rd, Glendale, AZ 85303 ",85303,0.7903719544410706,0.8340092122554779,0.6591774911122197,222500,https://www.zillow.com/homedetails/8134-W-Mclellan-Rd-Glendale-AZ-85303/7462575_zpid/,33.5326,-112.235,6516,2017-11-03
8988163,23818314,"2650 E Hartford Ave, Phoenix, AZ 85032 ",85032,0.7827622104436159,0.8417677044868469,0.6589039490441727,249500,https://www.zillow.com/homedetails/2650-E-Hartford-Ave-Phoenix-AZ-85032/59266670_zpid/,33.6425,-112.025,6515,2017-11-02
9025872,23860172,"15168 N 90th Ln, Peoria, AZ 85381 ",85381,0.7923236235976219,0.8315672039985657,0.6588703403370864,218700,https://www.zillow.com/homedetails/15168-N-90th-Ln-Peoria-AZ-85381/7908827_zpid/,33.6229,-112.25399999999999,6546,2017-12-03
23626,23858260,"19237 N 4th St, Phoenix, AZ 85024 ",85024,0.785836367495358,0.8383806824684144,0.6588300300892579,235000,https://www.zillow.com/homedetails/19237-N-4th-St-Phoenix-AZ-85024/7972456_zpid/,33.6614,-112.069,6558,2017-12-15
416538,23843127,"4527 W Cochise Dr, Glendale, AZ 85302 ",85302,0.7872140720486641,0.8369098365306854,0.6588272003529027,219900,https://www.zillow.com/homedetails/4527-W-Cochise-Dr-Glendale-AZ-85302/7729060_zpid/,33.5803,-112.15799999999999,6541,2017-11-28
354125,22802972,"2231 E Everett Dr, Phoenix, AZ 85022 ",85022,0.7922942698001861,0.8314601182937622,0.6587610872915327,206900,https://www.zillow.com/homedetails/2231-E-Everett-Dr-Phoenix-AZ-85022/8014080_zpid/,33.6195,-112.03399999999999,6492,2017-10-10
526828,22737450,"9418 W Sheridan St, Phoenix, AZ 85037 ",85037,0.822681775689125,0.80051389336586,0.6585681912580406,214500,https://www.zillow.com/homedetails/9418-W-Sheridan-St-Phoenix-AZ-85037/67773035_zpid/,33.475,-112.262,6480,2017-09-28
259474,23856235,"19668 N 48th Ln, Glendale, AZ 85308 ",85308,0.7813902925699949,0.8422323822975158,0.6581122076153797,214000,https://www.zillow.com/homedetails/19668-N-48th-Ln-Glendale-AZ-85308/7937775_zpid/,33.6642,-112.165,6558,2017-12-15
423926,23859183,"8921 N 65th Dr, Glendale, AZ 85302 ",85302,0.7834659539163112,0.8397613227367401,0.6579244057799634,229890,https://www.zillow.com/homedetails/8921-N-65th-Dr-Glendale-AZ-85302/50187782_zpid/,33.5665,-112.2,6559,2017-12-16
9022274,23854949,"5736 W Libby St, Glendale, AZ 85308 ",85308,0.7807646301575005,0.8426134347915649,0.6578827667807774,235000,https://www.zillow.com/homedetails/5736-W-Libby-St-Glendale-AZ-85308/7900965_zpid/,33.6479,-112.18299999999999,6551,2017-12-08
226063,23841398,"1510 E Taro Ln, Phoenix, AZ 85024 ",85024,0.7939950704574585,0.8281816661357879,0.6575721603550604,220000,https://www.zillow.com/homedetails/1510-E-Taro-Ln-Phoenix-AZ-85024/7995792_zpid/,33.6596,-112.04899999999999,6535,2017-11-22
8999939,23837041,"1334 W Utopia Rd, Phoenix, AZ 85027 ",85027,0.8152820467948914,0.8065382599830627,0.6575561634173815,243000,https://www.zillow.com/homedetails/1334-W-Utopia-Rd-Phoenix-AZ-85027/7971426_zpid/,33.6619,-112.089,6530,2017-11-17
9021767,23840851,"1139 W Auburn St, Mesa, AZ 85201 ",85201,0.8079662412405014,0.8137767612934113,0.6575041510311063,215000,https://www.zillow.com/homedetails/1139-W-Auburn-St-Mesa-AZ-85201/81997574_zpid/,33.4176,-111.85600000000001,6536,2017-11-23
9001633,23837695,"4038 W Laurel Ln, Phoenix, AZ 85029 ",85029,0.7866874471306801,0.8357437372207641,0.6574691070896569,214900,https://www.zillow.com/homedetails/4038-W-Laurel-Ln-Phoenix-AZ-85029/7744075_zpid/,33.5946,-112.147,6533,2017-11-20
8985924,22488235,"7609 W Avalon Dr, Phoenix, AZ 85033 ",85033,0.825822913646698,0.7960959911346436,0.6574343109412673,190000,https://www.zillow.com/homedetails/7609-W-Avalon-Dr-Phoenix-AZ-85033/7469546_zpid/,33.4829,-112.223,6426,2017-08-05
230822,23837058,"19206 N 4th St, Phoenix, AZ 85024 ",85024,0.7863042548298835,0.8361033916473388,0.6574316543299991,225000,https://www.zillow.com/homedetails/19206-N-4th-St-Phoenix-AZ-85024/7972304_zpid/,33.6605,-112.07,6529,2017-11-16
422210,23835261,"6538 W Vogel Ave, Glendale, AZ 85302 ",85302,0.7959377631545067,0.8259651362895966,0.6574168430219488,209000,https://www.zillow.com/homedetails/6538-W-Vogel-Ave-Glendale-AZ-85302/7703283_zpid/,33.5724,-112.20100000000001,6529,2017-11-16
1166,23837694,"8039 N 29th Ave, Phoenix, AZ 85051 ",85051,0.832605704665184,0.7890500009059906,0.6569675320203965,180000,https://www.zillow.com/homedetails/8039-N-29th-Ave-Phoenix-AZ-85051/7751052_zpid/,33.5545,-112.12100000000001,6533,2017-11-20
496469,22536294,"6526 W Holly St, Phoenix, AZ 85035 ",85035,0.8318290412425995,0.7897280275821685,0.6569187080260844,169499,https://www.zillow.com/homedetails/6526-W-Holly-St-Phoenix-AZ-85035/7490333_zpid/,33.471,-112.20100000000001,6408,2017-07-18
415049,23846150,"10006 N 66th Ave, Glendale, AZ 85302 ",85302,0.7845319222658873,0.8373328745365143,0.6569143696365526,199000,https://www.zillow.com/homedetails/10006-N-66th-Ave-Glendale-AZ-85302/7706542_zpid/,33.5765,-112.20100000000001,6544,2017-12-01
8970849,23830064,"3715 E Delcoa Dr, Phoenix, AZ 85032 ",85032,0.7846308924257756,0.837173855304718,0.6568724692032679,220000,https://www.zillow.com/homedetails/3715-E-Delcoa-Dr-Phoenix-AZ-85032/7813615_zpid/,33.6109,-112.00200000000001,6507,2017-10-25
482837,22692547,"2605 N 50th Ave, Phoenix, AZ 85035 ",85035,0.8361426055431366,0.7854392051696777,0.6567391835063046,180000,https://www.zillow.com/homedetails/2605-N-50th-Ave-Phoenix-AZ-85035/7494002_zpid/,33.4773,-112.165,6471,2017-09-19
1413516,22924606,"7311 N 73rd Dr, Glendale, AZ 85303 ",85303,0.7899139851331711,0.8310136318206787,0.6564292896114621,248700,https://www.zillow.com/homedetails/7311-N-73rd-Dr-Glendale-AZ-85303/59270763_zpid/,33.5425,-112.21600000000001,6489,2017-10-07
8992552,23527037,"6029 W Mary Jane Ln, Glendale, AZ 85306 ",85306,0.8105718970298768,0.8097957253456116,0.6563976573000775,239000,https://www.zillow.com/homedetails/6029-W-Mary-Jane-Ln-Glendale-AZ-85306/8097193_zpid/,33.6273,-112.189,6493,2017-10-11
224188,23754064,"14213 N 35th Dr, Phoenix, AZ 85053 ",85053,0.8067359894514083,0.813617217540741,0.6563742910274315,200000,https://www.zillow.com/homedetails/14213-N-35th-Dr-Phoenix-AZ-85053/7944539_zpid/,33.6154,-112.135,6498,2017-10-16
233618,23860511,"18243 N 31st Ave, Phoenix, AZ 85053 ",85053,0.7804933022707701,0.8409636855125427,0.6563665239954819,210775,https://www.zillow.com/homedetails/18243-N-31st-Ave-Phoenix-AZ-85053/7940528_zpid/,33.6526,-112.126,6572,2017-12-29
9000590,22678276,"2725 N 40th Ave, Phoenix, AZ 85009 ",85009,0.8410939753055573,0.7802326321601868,0.6562489662467301,162900,https://www.zillow.com/homedetails/2725-N-40th-Ave-Phoenix-AZ-85009/7512795_zpid/,33.4798,-112.145,6467,2017-09-15
973060,23854336,"600 N Aspen Dr, Chandler, AZ 85226 ",85226,0.7698484126478433,0.8522946774959564,0.6561377045784677,239900,https://www.zillow.com/homedetails/600-N-Aspen-Dr-Chandler-AZ-85226/8262023_zpid/,33.3128,-111.945,6556,2017-12-13
1404598,23856830,"6113 N 71st Ln, Glendale, AZ 85303 ",85303,0.7826060954481363,0.8383500277996063,0.6560978418750865,189990,https://www.zillow.com/homedetails/6113-N-71st-Ln-Glendale-AZ-85303/7707065_zpid/,33.5257,-112.214,6561,2017-12-18
330587,22131299,"4508 N 17th Ave, Phoenix, AZ 85015 ",85015,0.861187869310379,0.7617542743682861,0.6560135404812982,185000,https://www.zillow.com/homedetails/4508-N-17th-Ave-Phoenix-AZ-85015/7772361_zpid/,33.5027,-112.096,6321,2017-04-22
402730,23831013,"15243 N 66th Dr, Glendale, AZ 85306 ",85306,0.7938501432538032,0.8261512875556946,0.6558403179754021,239900,https://www.zillow.com/homedetails/15243-N-66th-Dr-Glendale-AZ-85306/8100497_zpid/,33.6248,-112.20100000000001,6524,2017-11-11
393461,22738571,"4244 W Butler Dr, Phoenix, AZ 85051 ",85051,0.8350267022848129,0.7853598117828369,0.6557964137400436,185900,https://www.zillow.com/homedetails/4244-W-Butler-Dr-Phoenix-AZ-85051/7752975_zpid/,33.5601,-112.15100000000001,6481,2017-09-29
450725,23853431,"8746 W Granada Rd, Phoenix, AZ 85037 ",85037,0.7908996134996414,0.8291617929935455,0.6557837416072648,209900,https://www.zillow.com/homedetails/8746-W-Granada-Rd-Phoenix-AZ-85037/7487519_zpid/,33.4683,-112.249,6551,2017-12-08
331783,22651353,"10428 N 13th Ave, Phoenix, AZ 85021 ",85021,0.8569241523742676,0.7651223301887512,0.6556518042596201,195000,https://www.zillow.com/homedetails/10428-N-13th-Ave-Phoenix-AZ-85021/7781474_zpid/,33.5811,-112.089,6463,2017-09-11
9005024,23860569,"3522 W Bluefield Ave, Glendale, AZ 85308 ",85308,0.7805805700831115,0.8397309482097626,0.6554776622700083,234900,https://www.zillow.com/homedetails/3522-W-Bluefield-Ave-Glendale-AZ-85308/7947939_zpid/,33.6525,-112.135,6571,2017-12-28
640835,22743106,"622 W Portobello Ave, Mesa, AZ 85210 ",85210,0.7883131876587868,0.8313696086406708,0.6553796263101652,240000,https://www.zillow.com/homedetails/622-W-Portobello-Ave-Mesa-AZ-85210/8190949_zpid/,33.3608,-111.84700000000001,6488,2017-10-06
337751,23859119,"14407 N 23rd St, Phoenix, AZ 85022 ",85022,0.7817091472446919,0.8383870542049408,0.6553748292035335,225000,https://www.zillow.com/homedetails/14407-N-23rd-St-Phoenix-AZ-85022/8010507_zpid/,33.618,-112.03399999999999,6550,2017-12-07
415299,23818783,"10119 N 65th Ln, Glendale, AZ 85302 ",85302,0.7913167349994182,0.8281820118427277,0.6553542855966368,179998,https://www.zillow.com/homedetails/10119-N-65th-Ln-Glendale-AZ-85302/65235466_zpid/,33.5779,-112.2,6515,2017-11-02
377620,23849017,"10632 N 39th Ave, Phoenix, AZ 85029 ",85029,0.784898919519037,0.8346892118453979,0.6551466605116494,241999,https://www.zillow.com/homedetails/10632-N-39th-Ave-Phoenix-AZ-85029/7744895_zpid/,33.5831,-112.14299999999999,6548,2017-12-05
43818,23819082,"8128 W Papago St, Phoenix, AZ 85043 ",85043,0.8017504855990409,0.8169552028179169,0.6549942305719278,199900,https://www.zillow.com/homedetails/8128-W-Papago-St-Phoenix-AZ-85043/60047290_zpid/,33.4345,-112.235,6515,2017-11-02
8996162,23846649,"8420 W Butler Dr, Peoria, AZ 85345 ",85345,0.7836070008575916,0.8356742918491363,0.6548402255296935,235900,https://www.zillow.com/homedetails/8420-W-Butler-Dr-Peoria-AZ-85345/7683722_zpid/,33.5593,-112.241,6542,2017-11-29
408219,23834499,"6118 W Tierra Buena Ln, Glendale, AZ 85306 ",85306,0.7949543580412864,0.8235960304737091,0.6547212536905792,199000,https://www.zillow.com/homedetails/6118-W-Tierra-Buena-Ln-Glendale-AZ-85306/8096943_zpid/,33.6295,-112.18700000000001,6529,2017-11-16
256906,23848601,"609 W Beverly Ln, Phoenix, AZ 85023 ",85023,0.7825584290549159,0.8365899622440338,0.6546805266168025,224900,https://www.zillow.com/homedetails/609-W-Beverly-Ln-Phoenix-AZ-85023/7965493_zpid/,33.6333,-112.08200000000001,6547,2017-12-04
8996157,23841902,"11202 N 69th Dr, Peoria, AZ 85345 ",85345,0.7932143315672875,0.8252776026725769,0.6546220219613815,208000,https://www.zillow.com/homedetails/11202-N-69th-Dr-Peoria-AZ-85345/7699586_zpid/,33.5869,-112.208,6537,2017-11-24
450526,23793670,"8731 W Earll Dr, Phoenix, AZ 85037 ",85037,0.8257268890738487,0.7927778482437133,0.6546179863569411,149000,https://www.zillow.com/homedetails/8731-W-Earll-Dr-Phoenix-AZ-85037/7479986_zpid/,33.4833,-112.24799999999999,6284,2017-03-16
9012276,23755797,"5861 W Grovers Ave, Glendale, AZ 85308 ",85308,0.7842272076755762,0.8346133053302764,0.6545264619280458,207000,https://www.zillow.com/homedetails/5861-W-Grovers-Ave-Glendale-AZ-85308/8099781_zpid/,33.6472,-112.186,6500,2017-10-18
8988082,23849229,"6914 W Sierra St, Peoria, AZ 85345 ",85345,0.7922729901969433,0.8260250329971314,0.654437322870166,198900,https://www.zillow.com/homedetails/6914-W-Sierra-St-Peoria-AZ-85345/7699742_zpid/,33.5904,-112.208,6548,2017-12-05
412045,23860611,"5337 W Mercer Ln, Glendale, AZ 85304 ",85304,0.7811900489032269,0.837707805633545,0.6544090016494839,238799,https://www.zillow.com/homedetails/5337-W-Mercer-Ln-Glendale-AZ-85304/92352572_zpid/,33.5846,-112.175,6572,2017-12-29
9023241,23843236,"7710 W Cheryl Dr, Peoria, AZ 85345 ",85345,0.7943270102143287,0.8237098753452301,0.654295002566994,194900,https://www.zillow.com/homedetails/7710-W-Cheryl-Dr-Peoria-AZ-85345/7682371_zpid/,33.5776,-112.225,6539,2017-11-26
448988,23831998,"8504 W College Dr, Phoenix, AZ 85037 ",85037,0.7927282713353634,0.82535360455513,0.6542811361793993,184900,https://www.zillow.com/homedetails/8504-W-College-Dr-Phoenix-AZ-85037/7483600_zpid/,33.5084,-112.243,6526,2017-11-13
422357,23752505,"6612 W Brown St, Glendale, AZ 85302 ",85302,0.7985151126980782,0.8193216860294342,0.6542407484557731,199000,https://www.zillow.com/homedetails/6612-W-Brown-St-Glendale-AZ-85302/7706362_zpid/,33.5783,-112.20100000000001,6496,2017-10-14
8999379,22680357,"9308 W Glen Oaks Cir, Sun City, AZ 85351 ",85351,0.8355954319238663,0.7828509747982025,0.6541466984185238,249800,https://www.zillow.com/homedetails/9308-W-Glen-Oaks-Cir-Sun-City-AZ-85351/7922796_zpid/,33.6312,-112.26,6465,2017-09-13
404082,23831516,"16245 N 43rd Dr, Glendale, AZ 85306 ",85306,0.788291784375906,0.8297950983047485,0.6541206587090305,244900,https://www.zillow.com/homedetails/16245-N-43rd-Dr-Glendale-AZ-85306/7950704_zpid/,33.6339,-112.152,6527,2017-11-14
329167,22718810,"2340 W Mulberry Dr, Phoenix, AZ 85015 ",85015,0.8407077312469482,0.7779195129871368,0.6540029488561466,210000,https://www.zillow.com/homedetails/2340-W-Mulberry-Dr-Phoenix-AZ-85015/7517577_zpid/,33.4872,-112.11,6477,2017-09-25
9012843,23859978,"8708 W Diana Ave, Peoria, AZ 85345 ",85345,0.7823227904736996,0.8356742918491363,0.6537670439265492,229000,https://www.zillow.com/homedetails/8708-W-Diana-Ave-Peoria-AZ-85345/7683831_zpid/,33.5613,-112.24700000000001,6569,2017-12-26
9021086,23815044,"8137 W Aster Dr, Peoria, AZ 85381 ",85381,0.7927269265055656,0.8246294140815735,0.6537059409309712,239000,https://www.zillow.com/homedetails/8137-W-Aster-Dr-Peoria-AZ-85381/8100990_zpid/,33.6013,-112.235,6512,2017-10-30
409707,23564615,"4513 W Sunnyside Ave, Glendale, AZ 85304 ",85304,0.8056354194879531,0.8112213730812072,0.6535486711998717,239900,https://www.zillow.com/homedetails/4513-W-Sunnyside-Ave-Glendale-AZ-85304/7726914_zpid/,33.5922,-112.156,6495,2017-10-13
354848,22739897,"2320 E Beck Ln, Phoenix, AZ 85022 ",85022,0.8316849291324615,0.7857823550701142,0.6535233422900266,170000,https://www.zillow.com/homedetails/2320-E-Beck-Ln-Phoenix-AZ-85022/8007959_zpid/,33.626999999999995,-112.03299999999999,6486,2017-10-04
400671,23831009,"14003 N 54th Ave, Glendale, AZ 85306 ",85306,0.7941753409802914,0.8227081954479217,0.6533745616471335,120000,https://www.zillow.com/homedetails/14003-N-54th-Ave-Glendale-AZ-85306/8097997_zpid/,33.6132,-112.176,6527,2017-11-14
9022833,23859108,"8602 W Roma Ave, Phoenix, AZ 85037 ",85037,0.7870172433555126,0.8301203489303589,0.6533190286684873,235000,https://www.zillow.com/homedetails/8602-W-Roma-Ave-Phoenix-AZ-85037/7480533_zpid/,33.5006,-112.245,6569,2017-12-26
356416,23858282,"830 E Michelle Dr, Phoenix, AZ 85022 ",85022,0.7818328499794006,0.8352406859397888,0.6530186059070546,193500,https://www.zillow.com/homedetails/830-E-Michelle-Dr-Phoenix-AZ-85022/8002212_zpid/,33.6507,-112.06200000000001,6551,2017-12-08
447418,23856851,"8311 W Coolidge St, Phoenix, AZ 85037 ",85037,0.7873351484537124,0.8293899476528168,0.6530078575612474,189900,https://www.zillow.com/homedetails/8311-W-Coolidge-St-Phoenix-AZ-85037/7480994_zpid/,33.5048,-112.238,6560,2017-12-17
9005657,23842655,"10439 W Papago St, Tolleson, AZ 85353 ",85353,0.803568197786808,0.8126327693462372,0.6530058499260586,229900,https://www.zillow.com/homedetails/10439-W-Papago-St-Tolleson-AZ-85353/125986296_zpid/,33.4338,-112.24600000000001,6540,2017-11-27
404277,23846221,"13213 N 55th Ave, Glendale, AZ 85304 ",85304,0.7874046366661787,0.8292253494262696,0.6529358849793768,214900,https://www.zillow.com/homedetails/13213-N-55th-Ave-Glendale-AZ-85304/7911876_zpid/,33.6045,-112.177,6544,2017-12-01
640201,23837467,"613 W Peralta Ave, Mesa, AZ 85210 ",85210,0.7869249150156975,0.8297095179557801,0.6529190919050676,229000,https://www.zillow.com/homedetails/613-W-Peralta-Ave-Mesa-AZ-85210/8190639_zpid/,33.3572,-111.84700000000001,6533,2017-11-20
405768,23846514,"4845 W Evans Dr, Glendale, AZ 85306 ",85306,0.7909023441374302,0.8254727244377136,0.6528683127792987,192900,https://www.zillow.com/homedetails/4845-W-Evans-Dr-Glendale-AZ-85306/7952529_zpid/,33.6169,-112.164,6544,2017-12-01
1959564,23823575,"18402 N 30th Pl, Phoenix, AZ 85032 ",85032,0.7833498097956181,0.8332752406597137,0.6527460012781846,210000,https://www.zillow.com/homedetails/18402-N-30th-Pl-Phoenix-AZ-85032/7999245_zpid/,33.6532,-112.01799999999999,6521,2017-11-08
9023869,23833553,"3749 W Angela Dr, Glendale, AZ 85308 ",85308,0.7860395245254039,0.8303229868412018,0.6526666857791714,249900,https://www.zillow.com/homedetails/3749-W-Angela-Dr-Glendale-AZ-85308/7947470_zpid/,33.6455,-112.14,6528,2017-11-15
394541,23859355,"3622 W Charter Oak Rd, Phoenix, AZ 85029 ",85029,0.7800587420351803,0.8366047501564026,0.6526008489876597,199999,https://www.zillow.com/homedetails/3622-W-Charter-Oak-Rd-Phoenix-AZ-85029/7742894_zpid/,33.5978,-112.137,6566,2017-12-23
445188,23853143,"4627 N 91st Dr, Phoenix, AZ 85037 ",85037,0.7819372668862343,0.8345006585121155,0.6525271641317264,240000,https://www.zillow.com/homedetails/4627-N-91st-Dr-Phoenix-AZ-85037/7466477_zpid/,33.5051,-112.256,6551,2017-12-08
450692,23753402,"8742 W Edgemont Ave, Phoenix, AZ 85037 ",85037,0.8102654695510865,0.8053023040294647,0.652508649505006,190000,https://www.zillow.com/homedetails/8742-W-Edgemont-Ave-Phoenix-AZ-85037/7473770_zpid/,33.4794,-112.249,6494,2017-10-12
410719,23854939,"4923 W Larkspur Dr, Glendale, AZ 85304 ",85304,0.7877968240529298,0.8282602667808533,0.6525008076591886,236000,https://www.zillow.com/homedetails/4923-W-Larkspur-Dr-Glendale-AZ-85304/7954371_zpid/,33.5993,-112.165,6557,2017-12-14
447466,23853329,"8314 W Avalon Dr, Phoenix, AZ 85037 ",85037,0.7937271490693092,0.8216953873634338,0.65220193721538,184900,https://www.zillow.com/homedetails/8314-W-Avalon-Dr-Phoenix-AZ-85037/55257045_zpid/,33.4824,-112.23899999999999,6528,2017-11-15
422149,23860623,"6523 W Brown St, Glendale, AZ 85302 ",85302,0.7833280894905329,0.8324435114860534,0.6520763854611608,209749,https://www.zillow.com/homedetails/6523-W-Brown-St-Glendale-AZ-85302/7706599_zpid/,33.5779,-112.2,6571,2017-12-28
408761,23856425,"6339 W Aire Libre Ave, Glendale, AZ 85306 ",85306,0.7813827082514763,0.8345119595527649,0.6520732150235858,225000,https://www.zillow.com/homedetails/6339-W-Aire-Libre-Ave-Glendale-AZ-85306/7901988_zpid/,33.6361,-112.197,6549,2017-12-06
264257,23752112,"7723 W Oraibi Dr, Glendale, AZ 85308 ",85308,0.778207377716899,0.8378375709056854,0.6520113790072098,244995,https://www.zillow.com/homedetails/7723-W-Oraibi-Dr-Glendale-AZ-85308/7891683_zpid/,33.6615,-112.22399999999999,6495,2017-10-13
9023830,23833574,"4019 W Woodridge Dr, Glendale, AZ 85308 ",85308,0.785480996221304,0.8300620198249817,0.6519979422575944,217500,https://www.zillow.com/homedetails/4019-W-Woodridge-Dr-Glendale-AZ-85308/7946693_zpid/,33.64,-112.146,6524,2017-11-11
246021,23837074,"2211 W Morrow Dr, Phoenix, AZ 85027 ",85027,0.7871554046869278,0.8282925426959992,0.6519949516450336,223500,https://www.zillow.com/homedetails/2211-W-Morrow-Dr-Phoenix-AZ-85027/7969868_zpid/,33.6564,-112.10700000000001,6530,2017-11-17
9023267,23849910,"8546 W Caribbean Ln, Peoria, AZ 85381 ",85381,0.7817077092826367,0.8340406656265259,0.6519760181754771,228000,https://www.zillow.com/homedetails/8546-W-Caribbean-Ln-Peoria-AZ-85381/8103097_zpid/,33.624,-112.245,6547,2017-12-04
9021585,23824122,"12612 N 79th Ave, Peoria, AZ 85381 ",85381,0.7920183360576629,0.8229616165161133,0.6518006901524166,225000,https://www.zillow.com/homedetails/12612-N-79th-Ave-Peoria-AZ-85381/8101178_zpid/,33.5997,-112.229,6522,2017-11-09
9023486,23827318,"9908 W Crosby Cir N, Sun City, AZ 85351 ",85351,0.8065862327814102,0.8080947279930115,0.6517980823824016,140000,https://www.zillow.com/homedetails/9908-W-Crosby-Cir-N-Sun-City-AZ-85351/7694583_zpid/,33.5838,-112.273,6526,2017-11-13
389338,23787313,"3912 W Townley Ave, Phoenix, AZ 85051 ",85051,0.8325916320085526,0.7828352332115174,0.6517820644133732,184900,https://www.zillow.com/homedetails/3912-W-Townley-Ave-Phoenix-AZ-85051/7754475_zpid/,33.5662,-112.14399999999999,6291,2017-03-23
1466624,23831203,"17462 N 92nd Gln, Peoria, AZ 85382 ",85382,0.7833111695945263,0.8320622205734253,0.6517636311727885,228000,https://www.zillow.com/homedetails/17462-N-92nd-Gln-Peoria-AZ-85382/95103614_zpid/,33.6425,-112.259,6527,2017-11-14
1413226,22747483,"7301 W Cavalier Dr, Glendale, AZ 85303 ",85303,0.7913570664823055,0.8234862089157104,0.6516716305761716,179900,https://www.zillow.com/homedetails/7301-W-Cavalier-Dr-Glendale-AZ-85303/7707198_zpid/,33.5243,-112.21600000000001,6492,2017-10-10
410068,23846510,"4632 W Mescal St, Glendale, AZ 85304 ",85304,0.7754490710794926,0.8403750061988831,0.6516680179153467,202900,https://www.zillow.com/homedetails/4632-W-Mescal-St-Glendale-AZ-85304/7727760_zpid/,33.5869,-112.16,6544,2017-12-01
9015636,23825624,"7118 W Sells Dr, Phoenix, AZ 85033 ",85033,0.7818670518696308,0.8334582090377808,0.6516535127569121,182900,https://www.zillow.com/homedetails/7118-W-Sells-Dr-Phoenix-AZ-85033/88889219_zpid/,33.5022,-112.213,6523,2017-11-10
9011933,22678376,"7934 W Mitchell Dr, Phoenix, AZ 85033 ",85033,0.8400999128818512,0.7756699204444886,0.6516402325904873,155000,https://www.zillow.com/homedetails/7934-W-Mitchell-Dr-Phoenix-AZ-85033/7478637_zpid/,33.4893,-112.23,6464,2017-09-12
244451,23841407,"1933 W Davis Rd, Phoenix, AZ 85023 ",85023,0.7907776020467281,0.8238494634628296,0.65148170316462,200000,https://www.zillow.com/homedetails/1933-W-Davis-Rd-Phoenix-AZ-85023/81995109_zpid/,33.6318,-112.101,6537,2017-11-24
9025900,23860183,"7635 W Desert Cove Ave, Peoria, AZ 85345 ",85345,0.793635080754757,0.820842033624649,0.6514490336425973,178000,https://www.zillow.com/homedetails/7635-W-Desert-Cove-Ave-Peoria-AZ-85345/7681678_zpid/,33.5849,-112.22399999999999,6537,2017-11-24
9024207,23837704,"3545 W Gardenia Ave, Phoenix, AZ 85051 ",85051,0.8213168323040009,0.7930368900299072,0.6513345464195797,224500,https://www.zillow.com/homedetails/3545-W-Gardenia-Ave-Phoenix-AZ-85051/7756303_zpid/,33.5441,-112.13600000000001,6533,2017-11-20
486164,22539632,"4802 W Encanto Blvd, Phoenix, AZ 85035 ",85035,0.84041448533535,0.7748801171779632,0.6512204748747137,148000,https://www.zillow.com/homedetails/4802-W-Encanto-Blvd-Phoenix-AZ-85035/7499173_zpid/,33.4734,-112.163,6437,2017-08-16
8975652,23829621,"18232 N 26th Pl, Phoenix, AZ 85032 ",85032,0.7861874751746655,0.8280430555343627,0.650997079166476,190000,https://www.zillow.com/homedetails/18232-N-26th-Pl-Phoenix-AZ-85032/8000048_zpid/,33.6526,-112.025,6524,2017-11-11
258179,23843719,"417 W Renee Dr, Phoenix, AZ 85027 ",85027,0.7736465785652399,0.8413447499275207,0.6509034871752538,212500,https://www.zillow.com/homedetails/417-W-Renee-Dr-Phoenix-AZ-85027/7972590_zpid/,33.6551,-112.08,6542,2017-11-29
390667,23787702,"4029 W Caron St, Phoenix, AZ 85051 ",85051,0.8220517784357071,0.7917297601699829,0.6508428573882102,189900,https://www.zillow.com/homedetails/4029-W-Caron-St-Phoenix-AZ-85051/7746120_zpid/,33.5682,-112.146,6265,2017-02-25
230590,23848573,"1832 W Wescott Dr, Phoenix, AZ 85027 ",85027,0.7815704034641385,0.8326943159103394,0.6508092324483388,229000,https://www.zillow.com/homedetails/1832-W-Wescott-Dr-Phoenix-AZ-85027/7969386_zpid/,33.6586,-112.09899999999999,6549,2017-12-06
9019482,23822508,"8505 W Oraibi Dr, Peoria, AZ 85382 ",85382,0.787035359442234,0.8268656075000763,0.6507724706092437,240000,https://www.zillow.com/homedetails/8505-W-Oraibi-Dr-Peoria-AZ-85382/8105887_zpid/,33.6616,-112.242,6518,2017-11-05
237449,23848566,"1633 W Michigan Ave, Phoenix, AZ 85023 ",85023,0.7807485212571919,0.833415549993515,0.6506879582501861,202900,https://www.zillow.com/homedetails/1633-W-Michigan-Ave-Phoenix-AZ-85023/7957245_zpid/,33.6508,-112.095,6548,2017-12-05
9017511,23846619,"7346 W Coolidge St, Phoenix, AZ 85033 ",85033,0.7827504966408014,0.831207525730133,0.6506281035768333,199900,https://www.zillow.com/homedetails/7346-W-Coolidge-St-Phoenix-AZ-85033/7710836_zpid/,33.5042,-112.21799999999999,6544,2017-12-01
976127,23846057,"734 N Tangerine Dr, Chandler, AZ 85226 ",85226,0.7826856516301632,0.8311370074748993,0.6505190102894354,204900,https://www.zillow.com/homedetails/734-N-Tangerine-Dr-Chandler-AZ-85226/8156625_zpid/,33.3162,-111.928,6544,2017-12-01
639679,23857945,"606 W Laguna Azul Ave, Mesa, AZ 85210 ",85210,0.7810182587243617,0.8329031527042389,0.6505125700110957,234900,https://www.zillow.com/homedetails/606-W-Laguna-Azul-Ave-Mesa-AZ-85210/8170728_zpid/,33.3729,-111.84700000000001,6553,2017-12-10
411351,23831053,"5194 W Paradise Dr, Glendale, AZ 85304 ",85304,0.775191605836153,0.8391167759895325,0.6504762810633812,214900,https://www.zillow.com/homedetails/5194-W-Paradise-Dr-Glendale-AZ-85304/60978690_zpid/,33.5953,-112.171,6526,2017-11-13
1469883,23825764,"8507 W Oraibi Dr, Peoria, AZ 85382 ",85382,0.7866646863520146,0.8268656075000763,0.6504659737793156,237500,https://www.zillow.com/homedetails/8507-W-Oraibi-Dr-Peoria-AZ-85382/8105886_zpid/,33.6613,-112.242,6524,2017-11-11
8977430,22376634,"1505 W Hadley St, Phoenix, AZ 85007 ",85007,0.8703904032707215,0.7472100675106048,0.6503644719884983,180000,https://www.zillow.com/homedetails/1505-W-Hadley-St-Phoenix-AZ-85007/2112748542_zpid/,33.4392,-112.09200000000001,6414,2017-07-24
397462,23833776,"4040 W Desert Cove Ave, Phoenix, AZ 85029 ",85029,0.8051701202988625,0.80770845413208,0.6503427131799351,227000,https://www.zillow.com/homedetails/4040-W-Desert-Cove-Ave-Phoenix-AZ-85029/7744743_zpid/,33.5857,-112.146,6528,2017-11-15
402050,23849580,"14629 N 63rd Dr, Glendale, AZ 85306 ",85306,0.7783546175807714,0.8354842662811279,0.6503030365759987,209000,https://www.zillow.com/homedetails/14629-N-63rd-Dr-Glendale-AZ-85306/8098816_zpid/,33.6179,-112.193,6549,2017-12-06
255987,23850390,"506 W Beverly Ln, Phoenix, AZ 85023 ",85023,0.7807212389074266,0.8328509092330932,0.6502243936816373,229900,https://www.zillow.com/homedetails/506-W-Beverly-Ln-Phoenix-AZ-85023/7965481_zpid/,33.6337,-112.081,6552,2017-12-09
9022117,23811077,"15145 N 86th Dr, Peoria, AZ 85381 ",85381,0.7946844592690467,0.8181695461273193,0.6501866233545901,209900,https://www.zillow.com/homedetails/15145-N-86th-Dr-Peoria-AZ-85381/7908510_zpid/,33.6217,-112.245,6509,2017-10-27
9025882,23860074,"7140 W Desert Cove Ave, Peoria, AZ 85345 ",85345,0.7922318793833256,0.8205409109592438,0.6500586680001478,247500,https://www.zillow.com/homedetails/7140-W-Desert-Cove-Ave-Peoria-AZ-85345/7701093_zpid/,33.585,-112.213,6562,2017-12-19
400129,23859177,"13807 N 52nd Ave, Glendale, AZ 85306 ",85306,0.7815095031633973,0.831740778684616,0.6500133227105515,219900,https://www.zillow.com/homedetails/13807-N-52nd-Ave-Glendale-AZ-85306/8097449_zpid/,33.6112,-112.171,6557,2017-12-14
9021889,23808090,"2926 E Charleston Ave, Phoenix, AZ 85032 ",85032,0.7856051083654165,0.8272149741649628,0.6498643094203609,175000,https://www.zillow.com/homedetails/2926-E-Charleston-Ave-Phoenix-AZ-85032/7998861_zpid/,33.6495,-112.01899999999999,6507,2017-10-25
556266,23783983,"2325 N 28th Pl, Phoenix, AZ 85008 ",85008,0.8471624255180359,0.7670603215694427,0.6498246825394136,144000,https://www.zillow.com/homedetails/2325-N-28th-Pl-Phoenix-AZ-85008/7542977_zpid/,33.4742,-112.02,6305,2017-04-06
410753,23759090,"4934 W Becker Ln, Glendale, AZ 85304 ",85304,0.7920276626944542,0.8199327707290649,0.6494094359671291,238500,https://www.zillow.com/homedetails/4934-W-Becker-Ln-Glendale-AZ-85304/67083499_zpid/,33.5826,-112.166,6502,2017-10-20
337488,23779389,"1424 E Le Marche Ave, Phoenix, AZ 85022 ",85022,0.8229544088244438,0.7891137778759003,0.6494046625670851,223000,https://www.zillow.com/homedetails/1424-E-Le-Marche-Ave-Phoenix-AZ-85022/8003944_zpid/,33.6325,-112.051,6285,2017-03-17
387630,23847157,"3746 W Puget Ave, Phoenix, AZ 85051 ",85051,0.783715744689107,0.8281543791294098,0.6490376259569505,189400,https://www.zillow.com/homedetails/3746-W-Puget-Ave-Phoenix-AZ-85051/7754271_zpid/,33.567,-112.141,6545,2017-12-02
9021586,23838024,"8142 W Sweetwater Ave, Peoria, AZ 85381 ",85381,0.7923017084598541,0.8191018164157867,0.6489757685487976,240000,https://www.zillow.com/homedetails/8142-W-Sweetwater-Ave-Peoria-AZ-85381/7913307_zpid/,33.6028,-112.235,6529,2017-11-16
9011928,23753384,"7411 W Wolf St, Phoenix, AZ 85033 ",85033,0.7769085727632046,0.8351870894432067,0.6488640096495766,229900,https://www.zillow.com/homedetails/7411-W-Wolf-St-Phoenix-AZ-85033/95184996_zpid/,33.5059,-112.219,6494,2017-10-12
9023958,23844516,"5637 W Wagoner Rd, Glendale, AZ 85308 ",85308,0.7826603405177593,0.8290086984634399,0.6488322302315804,239000,https://www.zillow.com/homedetails/5637-W-Wagoner-Rd-Glendale-AZ-85308/7901184_zpid/,33.6525,-112.181,6543,2017-11-30
359220,23854837,"1816 S 84th Dr, Tolleson, AZ 85353 ",85353,0.791010458022356,0.8202163755893708,0.648799730932385,225000,https://www.zillow.com/homedetails/1816-S-84th-Dr-Tolleson-AZ-85353/59249294_zpid/,33.4304,-112.241,6557,2017-12-14
1109968,23827087,"1231 W Tulsa St, Chandler, AZ 85224 ",85224,0.7812051709741354,0.8304679930210114,0.6487658904765263,245000,https://www.zillow.com/homedetails/1231-W-Tulsa-St-Chandler-AZ-85224/8185626_zpid/,33.3123,-111.865,6524,2017-11-11
416225,23831022,"4436 W Palo Verde Ave, Glendale, AZ 85302 ",85302,0.7826530739665032,0.8286763787269592,0.6485661151340848,219000,https://www.zillow.com/homedetails/4436-W-Palo-Verde-Ave-Glendale-AZ-85302/7729529_zpid/,33.5732,-112.156,6523,2017-11-10
258487,23844522,"619 W Wescott Dr, Phoenix, AZ 85027 ",85027,0.7851463831961155,0.8258103549480438,0.648382013393357,239900,https://www.zillow.com/homedetails/619-W-Wescott-Dr-Phoenix-AZ-85027/7968519_zpid/,33.6581,-112.08200000000001,6543,2017-11-30
410898,23823665,"5031 W Windrose Dr, Glendale, AZ 85304 ",85304,0.7988280445337296,0.8116094470024109,0.6483363874740375,229000,https://www.zillow.com/homedetails/5031-W-Windrose-Dr-Glendale-AZ-85304/7954728_zpid/,33.6006,-112.167,6521,2017-11-08
9019108,23831803,"4229 W Aster Dr, Phoenix, AZ 85029 ",85029,0.7993068039417267,0.8108947038650512,0.6481536540796471,189700,https://www.zillow.com/homedetails/4229-W-Aster-Dr-Phoenix-AZ-85029/7742210_zpid/,33.6019,-112.15100000000001,6523,2017-11-10
232170,23847359,"17834 N 33rd Dr, Phoenix, AZ 85053 ",85053,0.7817616442218422,0.8289392590522766,0.6480329181167434,249999,https://www.zillow.com/homedetails/17834-N-33rd-Dr-Phoenix-AZ-85053/7941287_zpid/,33.6484,-112.131,6543,2017-11-30
9012842,23849895,"8008 W Corrine Dr, Peoria, AZ 85381 ",85381,0.7817643318325281,0.8287776708602905,0.647908822097814,210000,https://www.zillow.com/homedetails/8008-W-Corrine-Dr-Peoria-AZ-85381/8101079_zpid/,33.6,-112.23200000000001,6550,2017-12-07
342960,23847789,"1722 S 64th Ave, Phoenix, AZ 85043 ",85043,0.788920046389103,0.8212490320205689,0.6478998244386731,175000,https://www.zillow.com/homedetails/1722-S-64th-Ave-Phoenix-AZ-85043/55257220_zpid/,33.4323,-112.198,6548,2017-12-05
9023480,23827276,"13854 N Cameo Dr, Sun City, AZ 85351 ",85351,0.8126040875911713,0.7971607625484467,0.6477760941141629,229900,https://www.zillow.com/homedetails/13854-N-Cameo-Dr-Sun-City-AZ-85351/7922140_zpid/,33.6128,-112.265,6521,2017-11-08
227870,23854036,"1420 W Michelle Dr, Phoenix, AZ 85023 ",85023,0.7808518749661744,0.829468435049057,0.6476919827333145,247900,https://www.zillow.com/homedetails/1420-W-Michelle-Dr-Phoenix-AZ-85023/7956946_zpid/,33.6498,-112.09100000000001,6551,2017-12-08
9022109,23811012,"13037 N 56th Ave, Glendale, AZ 85304 ",85304,0.7871210470795631,0.8228171169757843,0.6476566706689667,214900,https://www.zillow.com/homedetails/13037-N-56th-Ave-Glendale-AZ-85304/7896749_zpid/,33.6024,-112.177,6509,2017-10-27
384150,23834117,"3417 W Diana Ave, Phoenix, AZ 85051 ",85051,0.8079687044024467,0.8014378666877746,0.6475367148067821,179900,https://www.zillow.com/homedetails/3417-W-Diana-Ave-Phoenix-AZ-85051/7753849_zpid/,33.5627,-112.133,6526,2017-11-13
9023962,23859982,"8819 N 67th Ln, Peoria, AZ 85345 ",85345,0.7867929685860873,0.8230031132698059,0.6475330626451424,244900,https://www.zillow.com/homedetails/8819-N-67th-Ln-Peoria-AZ-85345/50187857_zpid/,33.5661,-112.205,6569,2017-12-26
246567,22745687,"3407 W Port Au Prince Ln, Phoenix, AZ 85053 ",85053,0.8036242678761483,0.8055942952632904,0.6473951257361634,175000,https://www.zillow.com/homedetails/3407-W-Port-Au-Prince-Ln-Phoenix-AZ-85053/7943671_zpid/,33.6229,-112.132,6491,2017-10-09
331642,22613792,"5025 N 20th Ave, Phoenix, AZ 85015 ",85015,0.8405162543058395,0.7702057540416718,0.6473704554319107,199900,https://www.zillow.com/homedetails/5025-N-20th-Ave-Phoenix-AZ-85015/7765209_zpid/,33.5105,-112.102,6451,2017-08-30
420158,23823709,"5666 W Laurie Ln, Glendale, AZ 85302 ",85302,0.7847281575202942,0.8249578416347504,0.6473676470979564,209000,https://www.zillow.com/homedetails/5666-W-Laurie-Ln-Glendale-AZ-85302/7732919_zpid/,33.5593,-112.181,6520,2017-11-07
9023942,23834986,"3552 E Le Marche Ave, Phoenix, AZ 85032 ",85032,0.7825540529564023,0.8272224724292755,0.6473462984961453,205000,https://www.zillow.com/homedetails/3552-E-Le-Marche-Ave-Phoenix-AZ-85032/8007139_zpid/,33.6329,-112.005,6530,2017-11-17
9025718,23858301,"2944 W Villa Theresa Dr, Phoenix, AZ 85053 ",85053,0.7805247693322599,0.8292836725711823,0.6472764472446314,225000,https://www.zillow.com/homedetails/2944-W-Villa-Theresa-Dr-Phoenix-AZ-85053/7940561_zpid/,33.6541,-112.12299999999999,6556,2017-12-13
434601,23841755,"1838 N 83rd Ln, Phoenix, AZ 85037 ",85037,0.7919743362814188,0.8172295331954956,0.6472248171420764,195000,https://www.zillow.com/homedetails/1838-N-83rd-Ln-Phoenix-AZ-85037/7487940_zpid/,33.4683,-112.24,6536,2017-11-23
1410581,23857972,"7111 N 76th Dr, Glendale, AZ 85303 ",85303,0.7896007794886828,0.8194799065589905,0.6470619729942918,157000,https://www.zillow.com/homedetails/7111-N-76th-Dr-Glendale-AZ-85303/7684804_zpid/,33.5398,-112.223,6562,2017-12-19
8984109,23843223,"7426 W Carol Ave, Peoria, AZ 85345 ",85345,0.7918766506016255,0.8171163618564605,0.6470553677786798,195000,https://www.zillow.com/homedetails/7426-W-Carol-Ave-Peoria-AZ-85345/7702134_zpid/,33.5726,-112.219,6537,2017-11-24
1409526,23835276,"7001 N 77th Ave, Glendale, AZ 85303 ",85303,0.7944203943014145,0.8144629001617432,0.6470259382903656,169900,https://www.zillow.com/homedetails/7001-N-77th-Ave-Glendale-AZ-85303/7684833_zpid/,33.5382,-112.22399999999999,6531,2017-11-18
8996166,23838042,"8901 W Malapai Dr, Peoria, AZ 85345 ",85345,0.7850897401571274,0.8241338908672333,0.6470190622356387,194000,https://www.zillow.com/homedetails/8901-W-Malapai-Dr-Peoria-AZ-85345/7684242_zpid/,33.5749,-112.251,6529,2017-11-16
253328,23860541,"2435 W Paradise Ln, Phoenix, AZ 85023 ",85023,0.7800843787379563,0.8293752074241638,0.6469826434241425,219000,https://www.zillow.com/homedetails/2435-W-Paradise-Ln-Phoenix-AZ-85023/7961316_zpid/,33.6323,-112.113,6570,2017-12-27
9025886,23860116,"8342 W Dreyfus Dr, Peoria, AZ 85381 ",85381,0.7856380015611648,0.8234994173049927,0.6469724364982782,239500,https://www.zillow.com/homedetails/8342-W-Dreyfus-Dr-Peoria-AZ-85381/7914250_zpid/,33.6034,-112.23899999999999,6537,2017-11-24
419676,23859179,"5520 W Golden Ln, Glendale, AZ 85302 ",85302,0.7818662269040942,0.8273042857646942,0.6468412804124279,199500,https://www.zillow.com/homedetails/5520-W-Golden-Ln-Glendale-AZ-85302/7733492_zpid/,33.5652,-112.179,6551,2017-12-08
392666,23759961,"4208 W El Camino Dr, Phoenix, AZ 85051 ",85051,0.7987227126955986,0.8098287522792816,0.6468286178393997,215000,https://www.zillow.com/homedetails/4208-W-El-Camino-Dr-Phoenix-AZ-85051/7752812_zpid/,33.5573,-112.15,6503,2017-10-21
9018953,23821610,"1515 W Utopia Rd, Phoenix, AZ 85027 ",85027,0.7936719492077827,0.814975905418396,0.646823515410796,210000,https://www.zillow.com/homedetails/1515-W-Utopia-Rd-Phoenix-AZ-85027/7969635_zpid/,33.6617,-112.09200000000001,6518,2017-11-05
522232,23840964,"9009 W Windsor Ave, Phoenix, AZ 85037 ",85037,0.7892246350646019,0.8195078909397125,0.6467758161594562,193000,https://www.zillow.com/homedetails/9009-W-Windsor-Ave-Phoenix-AZ-85037/7474216_zpid/,33.4762,-112.25399999999999,6536,2017-11-23
525075,23853525,"9142 W Palm Ln, Phoenix, AZ 85037 ",85037,0.7851909164339304,0.823717725276947,0.6467756755930785,204000,https://www.zillow.com/homedetails/9142-W-Palm-Ln-Phoenix-AZ-85037/60047154_zpid/,33.4689,-112.257,6548,2017-12-05
408459,23860621,"6211 W Carol Ann Way, Glendale, AZ 85306 ",85306,0.7842136103659868,0.8247377514839173,0.6467705696963287,189000,https://www.zillow.com/homedetails/6211-W-Carol-Ann-Way-Glendale-AZ-85306/8096840_zpid/,33.6279,-112.193,6572,2017-12-29
497542,23839609,"6805 W Coronado Rd, Phoenix, AZ 85035 ",85035,0.8018603667616844,0.8065310776233673,0.6467253057077699,210000,https://www.zillow.com/homedetails/6805-W-Coronado-Rd-Phoenix-AZ-85035/7481637_zpid/,33.4678,-112.205,6524,2017-11-11
436097,23857124,"2311 N 91st Gln, Phoenix, AZ 85037 ",85037,0.7820392917841673,0.8269655466079712,0.6467195503992046,224650,https://www.zillow.com/homedetails/2311-N-91st-Gln-Phoenix-AZ-85037/60974969_zpid/,33.4747,-112.257,6563,2017-12-20
484005,23821708,"2696 N 73rd Gln, Phoenix, AZ 85035 ",85035,0.7843291662633419,0.82443807721138,0.6466308297349543,210000,https://www.zillow.com/homedetails/2696-N-73rd-Gln-Phoenix-AZ-85035/95155175_zpid/,33.4779,-112.21799999999999,6513,2017-10-31
225614,23844378,"1303 W Michelle Dr, Phoenix, AZ 85023 ",85023,0.7827620323747396,0.8260561347007751,0.6466053788540004,249900,https://www.zillow.com/homedetails/1303-W-Michelle-Dr-Phoenix-AZ-85023/7956957_zpid/,33.6494,-112.09,6543,2017-11-30
408027,23819948,"6041 W Mary Jane Ln, Glendale, AZ 85306 ",85306,0.79583680331707,0.8123514354228973,0.6464991695369918,234000,https://www.zillow.com/homedetails/6041-W-Mary-Jane-Ln-Glendale-AZ-85306/8097191_zpid/,33.6273,-112.19,6516,2017-11-03
415297,23835189,"10114 N 66th Ln, Glendale, AZ 85302 ",85302,0.7835244201123714,0.8250802099704743,0.6464704930633095,197500,https://www.zillow.com/homedetails/10114-N-66th-Ln-Glendale-AZ-85302/67083300_zpid/,33.5779,-112.20299999999999,6528,2017-11-15
394581,23831766,"3626 W Rue De Lamour Ave, Phoenix, AZ 85029 ",85029,0.7954395592212677,0.8127139925956726,0.6464648600432584,199900,https://www.zillow.com/homedetails/3626-W-Rue-De-Lamour-Ave-Phoenix-AZ-85029/7741437_zpid/,33.6102,-112.137,6522,2017-11-09
9020875,23856264,"319 W Utopia Rd, Phoenix, AZ 85027 ",85027,0.7857169264927506,0.8227365851402283,0.6464380609895214,229900,https://www.zillow.com/homedetails/319-W-Utopia-Rd-Phoenix-AZ-85027/7968688_zpid/,33.6617,-112.079,6558,2017-12-15
9021060,23754387,"3522 W Michelle Dr, Glendale, AZ 85308 ",85308,0.79023682102561,0.8180294990539551,0.6464370308375696,232500,https://www.zillow.com/homedetails/3522-W-Michelle-Dr-Glendale-AZ-85308/7947823_zpid/,33.6498,-112.135,6498,2017-10-16
232395,23858251,"19615 N 6th Pl, Phoenix, AZ 85024 ",85024,0.7868157610297203,0.8213726282119751,0.6462689295555867,179990,https://www.zillow.com/homedetails/19615-N-6th-Pl-Phoenix-AZ-85024/7967758_zpid/,33.6645,-112.066,6553,2017-12-10
342843,23840815,"1701 S 65th Dr, Phoenix, AZ 85043 ",85043,0.7906565733253956,0.817359858751297,0.6462509450940299,176000,https://www.zillow.com/homedetails/1701-S-65th-Dr-Phoenix-AZ-85043/52621334_zpid/,33.4331,-112.2,6537,2017-11-24
1345978,23817191,"4812 W Sierra Vista Dr, Glendale, AZ 85301 ",85301,0.7981059163808822,0.8097111940383911,0.6462352945218685,179900,https://www.zillow.com/homedetails/4812-W-Sierra-Vista-Dr-Glendale-AZ-85301/7722682_zpid/,33.533,-112.163,6514,2017-11-01
561112,23847992,"1043 W Frito Ave, Mesa, AZ 85210 ",85210,0.7946399137377739,0.8132285118103028,0.6462238344740372,195000,https://www.zillow.com/homedetails/1043-W-Frito-Ave-Mesa-AZ-85210/7598695_zpid/,33.3951,-111.854,6543,2017-11-30
8989092,22502911,"2617 E Waltann Ln, Phoenix, AZ 85032 ",85032,0.8193165168166161,0.788585489988327,0.6461011168693606,150000,https://www.zillow.com/homedetails/2617-E-Waltann-Ln-Phoenix-AZ-85032/8007629_zpid/,33.6283,-112.02600000000001,6433,2017-08-12
222394,23848564,"1010 W Campo Bello Dr, Phoenix, AZ 85023 ",85023,0.7807989283464849,0.827453887462616,0.6460751085869434,199900,https://www.zillow.com/homedetails/1010-W-Campo-Bello-Dr-Phoenix-AZ-85023/7963596_zpid/,33.644,-112.087,6549,2017-12-06
8954944,23859326,"2414 E Dahlia Dr, Phoenix, AZ 85032 ",85032,0.7817155763506889,0.826455581188202,0.6460532009767789,225000,https://www.zillow.com/homedetails/2414-E-Dahlia-Dr-Phoenix-AZ-85032/7820475_zpid/,33.6034,-112.03,6564,2017-12-21
248492,23858268,"2204 W Le Marche Ave, Phoenix, AZ 85023 ",85023,0.7812921542674303,0.826900452375412,0.6460508358010982,229000,https://www.zillow.com/homedetails/2204-W-Le-Marche-Ave-Phoenix-AZ-85023/89457012_zpid/,33.632,-112.10600000000001,6558,2017-12-15
9025735,23858371,"14401 N 34th Way, Phoenix, AZ 85032 ",85032,0.7799027747474611,0.8283588409423828,0.6460393585375551,249900,https://www.zillow.com/homedetails/14401-N-34th-Way-Phoenix-AZ-85032/8012303_zpid/,33.6173,-112.008,6556,2017-12-13
9020028,23830547,"7509 W Sells Dr, Phoenix, AZ 85033 ",85033,0.7834404963999987,0.8244344055652618,0.6458952999452866,175000,https://www.zillow.com/homedetails/7509-W-Sells-Dr-Phoenix-AZ-85033/67081789_zpid/,33.5016,-112.221,6522,2017-11-09
1878732,23856317,"8133 W Larkspur Dr, Peoria, AZ 85381 ",85381,0.7843089818954467,0.8234994173049927,0.6458779895779724,237500,https://www.zillow.com/homedetails/8133-W-Larkspur-Dr-Peoria-AZ-85381/8100861_zpid/,33.5992,-112.235,6558,2017-12-15
499623,23853309,"7113 W Holly St, Phoenix, AZ 85035 ",85035,0.7850245751440525,0.8226956248283386,0.6458362833537373,135000,https://www.zillow.com/homedetails/7113-W-Holly-St-Phoenix-AZ-85035/7475387_zpid/,33.4699,-112.213,6548,2017-12-05
1093584,23859955,"781 W Del Rio St, Chandler, AZ 85225 ",85225,0.7802468154579401,0.8276687860488892,0.6457859345685849,248900,https://www.zillow.com/homedetails/781-W-Del-Rio-St-Chandler-AZ-85225/8186554_zpid/,33.3158,-111.854,6565,2017-12-22
394115,23856901,"7134 N 27th Ln, Phoenix, AZ 85051 ",85051,0.7808166796341538,0.8270615577697754,0.6457834593908469,215000,https://www.zillow.com/homedetails/7134-N-27th-Ln-Phoenix-AZ-85051/82776195_zpid/,33.5417,-112.118,6559,2017-12-16
8982670,23842974,"1934 N Iowa St, Chandler, AZ 85225 ",85225,0.7849550053477288,0.8225614070892334,0.6456736937005645,212500,https://www.zillow.com/homedetails/1934-N-Iowa-St-Chandler-AZ-85225/8182675_zpid/,33.3331,-111.85,6540,2017-11-27
8995966,23860580,"3707 E Joan De Arc Ave, Phoenix, AZ 85032 ",85032,0.7799793973565101,0.8272812306880951,0.6452623157564524,244900,https://www.zillow.com/homedetails/3707-E-Joan-De-Arc-Ave-Phoenix-AZ-85032/7813697_zpid/,33.6089,-112.00200000000001,6571,2017-12-28
9022123,23854977,"8026 W Windrose Dr, Peoria, AZ 85381 ",85381,0.7817363049834967,0.8252989530563355,0.645166154069008,237000,https://www.zillow.com/homedetails/8026-W-Windrose-Dr-Peoria-AZ-85381/8101102_zpid/,33.6007,-112.23200000000001,6557,2017-12-14
332059,23858248,"115 E Hartford Ave, Phoenix, AZ 85022 ",85022,0.7808818113058805,0.826118004322052,0.6451005235674032,215000,https://www.zillow.com/homedetails/115-E-Hartford-Ave-Phoenix-AZ-85022/79527909_zpid/,33.6426,-112.073,6562,2017-12-19
415138,23856167,"10020 N 44th Dr, Glendale, AZ 85302 ",85302,0.7816239468753338,0.8253188669681549,0.6450889902303277,219800,https://www.zillow.com/homedetails/10020-N-44th-Dr-Glendale-AZ-85302/7729319_zpid/,33.5772,-112.156,6558,2017-12-15
225687,23849553,"1306 W Charleston Ave, Phoenix, AZ 85023 ",85023,0.7808518749661744,0.8260561347007751,0.645027481608411,245000,https://www.zillow.com/homedetails/1306-W-Charleston-Ave-Phoenix-AZ-85023/7956977_zpid/,33.6491,-112.09,6550,2017-12-07
325706,22378352,"1718 W Indian School Rd, Phoenix, AZ 85015 ",85015,0.841532775759697,0.7663958549499512,0.6449472311467586,246600,https://www.zillow.com/homedetails/1718-W-Indian-School-Rd-Phoenix-AZ-85015/7772146_zpid/,33.4953,-112.09700000000001,6378,2017-06-18
9012841,23819608,"8121 W Hatcher Rd, Peoria, AZ 85345 ",85345,0.7893954060971737,0.8168397307395935,0.6448095309634875,239000,https://www.zillow.com/homedetails/8121-W-Hatcher-Rd-Peoria-AZ-85345/7682649_zpid/,33.57,-112.234,6515,2017-11-02
524462,23860656,"9116 W Cambridge Ave, Phoenix, AZ 85037 ",85037,0.7818931635469198,0.8245787382125854,0.6447324782145658,249900,https://www.zillow.com/homedetails/9116-W-Cambridge-Ave-Phoenix-AZ-85037/60974874_zpid/,33.4768,-112.256,6572,2017-12-29
255186,23860587,"4022 W Dailey St, Phoenix, AZ 85053 ",85053,0.7807818275876344,0.8257408797740936,0.6447234732238378,239500,https://www.zillow.com/homedetails/4022-W-Dailey-St-Phoenix-AZ-85053/7945098_zpid/,33.6135,-112.146,6570,2017-12-27
233478,23794869,"19046 N 15th Ave, Phoenix, AZ 85027 ",85027,0.7977258950471878,0.8080965101718902,0.64463951186138,229900,https://www.zillow.com/homedetails/19046-N-15th-Ave-Phoenix-AZ-85027/7969522_zpid/,33.6598,-112.09200000000001,6504,2017-10-22
9023875,23833720,"14623 N 38th St, Phoenix, AZ 85032 ",85032,0.7820251513272524,0.8242664575576782,0.6445971012055216,244900,https://www.zillow.com/homedetails/14623-N-38th-St-Phoenix-AZ-85032/8013505_zpid/,33.6199,-112.0,6528,2017-11-15
8456513,23856311,"7372 W Mescal St, Peoria, AZ 85345 ",85345,0.7930031202733516,0.8127933442592621,0.6445476581350073,199850,https://www.zillow.com/homedetails/7372-W-Mescal-St-Peoria-AZ-85345/7700861_zpid/,33.5857,-112.21799999999999,6558,2017-12-15
452056,23828606,"8831 W Mariposa St, Phoenix, AZ 85037 ",85037,0.7925645396113395,0.8132316708564759,0.6445385848097231,214900,https://www.zillow.com/homedetails/8831-W-Mariposa-St-Phoenix-AZ-85037/7483281_zpid/,33.5074,-112.25,6516,2017-11-03
9025869,23860030,"11848 N 79th Dr, Peoria, AZ 85345 ",85345,0.7816489197313785,0.8245823383331299,0.644533893987665,215000,https://www.zillow.com/homedetails/11848-N-79th-Dr-Peoria-AZ-85345/2091778016_zpid/,33.5928,-112.23,6557,2017-12-14
1859,23650472,"9128 W Alvarado St, Phoenix, AZ 85037 ",85037,0.7879601389169693,0.8179536461830139,0.6445148686740092,214000,https://www.zillow.com/homedetails/9128-W-Alvarado-St-Phoenix-AZ-85037/60047210_zpid/,33.4712,-112.257,6494,2017-10-12
555720,23856779,"2327 N 41st Dr, Phoenix, AZ 85009 ",85009,0.7906226113438606,0.8151838779449463,0.6445028063062483,165000,https://www.zillow.com/homedetails/2327-N-41st-Dr-Phoenix-AZ-85009/7512998_zpid/,33.4743,-112.148,6561,2017-12-18
386006,23854095,"1749 W Surrey Ave, Phoenix, AZ 85029 ",85029,0.7818129030987621,0.8243328392505646,0.6444740501741291,220000,https://www.zillow.com/homedetails/1749-W-Surrey-Ave-Phoenix-AZ-85029/7784365_zpid/,33.6053,-112.098,6555,2017-12-12
456948,23848755,"4931 W Cheery Lynn Rd, Phoenix, AZ 85031 ",85031,0.7804181396961212,0.8257833957672119,0.6444563415165934,169950,https://www.zillow.com/homedetails/4931-W-Cheery-Lynn-Rd-Phoenix-AZ-85031/7509876_zpid/,33.485,-112.165,6547,2017-12-04
396990,23849167,"4008 W Windrose Dr, Phoenix, AZ 85029 ",85029,0.7890548214316369,0.8164964258670807,0.6442604415121191,194500,https://www.zillow.com/homedetails/4008-W-Windrose-Dr-Phoenix-AZ-85029/7742420_zpid/,33.6012,-112.146,6547,2017-12-04
9020195,23820290,"8638 W Laurel Ln, Peoria, AZ 85345 ",85345,0.7922290377318859,0.8132046461105347,0.6442443342672477,247700,https://www.zillow.com/homedetails/8638-W-Laurel-Ln-Peoria-AZ-85345/7685468_zpid/,33.5934,-112.245,6516,2017-11-03
398630,23849176,"4215 W Surrey Ave, Phoenix, AZ 85029 ",85029,0.7816745776683092,0.8241472721099854,0.6442149708630619,248000,https://www.zillow.com/homedetails/4215-W-Surrey-Ave-Phoenix-AZ-85029/7741797_zpid/,33.6049,-112.15,6548,2017-12-05
388589,23838914,"2338 W Altadena Ave, Phoenix, AZ 85029 ",85029,0.7859111905097962,0.8197020709514617,0.6442130304448087,189900,https://www.zillow.com/homedetails/2338-W-Altadena-Ave-Phoenix-AZ-85029/7749198_zpid/,33.5925,-112.11,6520,2017-11-07
233458,23847110,"18230 N 33rd Ave, Phoenix, AZ 85053 ",85053,0.7829745676368475,0.8227570533752442,0.6441978481366485,189900,https://www.zillow.com/homedetails/18230-N-33rd-Ave-Phoenix-AZ-85053/7941211_zpid/,33.652,-112.13,6546,2017-12-03
8850973,23814108,"2525 E Michigan Ave, Phoenix, AZ 85032 ",85032,0.7854609418660402,0.8199832141399384,0.6440647876926989,225000,https://www.zillow.com/homedetails/2525-E-Michigan-Ave-Phoenix-AZ-85032/7999906_zpid/,33.6507,-112.027,6511,2017-10-29
433071,23853324,"7217 W Sunderland Ave, Phoenix, AZ 85033 ",85033,0.7808204896748066,0.8246697604656219,0.6439190461867723,182000,https://www.zillow.com/homedetails/7217-W-Sunderland-Ave-Phoenix-AZ-85033/55257159_zpid/,33.4887,-112.215,6551,2017-12-08
409111,23815119,"6540 W Phelps Rd, Glendale, AZ 85306 ",85306,0.7969489082694053,0.807926493883133,0.6438761372620913,209900,https://www.zillow.com/homedetails/6540-W-Phelps-Rd-Glendale-AZ-85306/7901955_zpid/,33.6361,-112.20100000000001,6512,2017-10-30
