property_id,transaction_id,address,zipcode,any_sell,good_sell,bayesian,list,url,lat,long,date_listed,transaction_date
9034546,23940259,"10960 N 67th Ave LOT 77, Glendale, AZ 85304 ",85304,0.4909959137439728,0.999899685382843,0.4909466596768599,51500,https://www.zillow.com/homedetails/10960-N-67th-Ave-LOT-77-Glendale-AZ-85304/2123701142_zpid/,33.5847,-112.205,6674,2018-04-10
9030467,23907928,"1105 S 6th Ave, Phoenix, AZ 85003 ",85003,0.4909959137439728,0.9998940229415894,0.49094387944134255,50000,https://www.zillow.com/homedetails/1105-S-6th-Ave-Phoenix-AZ-85003/2091048360_zpid/,33.437,-112.08200000000001,6619,2018-02-14
9033237,23929791,"2405 S 90TH Gln, Tolleson, AZ 85353 ",85353,0.4909959137439728,0.9642321169376373,0.47343402931708045,210000,https://www.zillow.com/homedetails/2405-S-90TH-Gln-Tolleson-AZ-85353/67772731_zpid/,33.4252,-112.255,6633,2018-02-28
362997,23929962,"9017 W Hilton Ave, Tolleson, AZ 85353 ",85353,0.4909959137439728,0.961015373468399,0.47185462141812184,210000,https://www.zillow.com/homedetails/9017-W-Hilton-Ave-Tolleson-AZ-85353/62726889_zpid/,33.4271,-112.25399999999999,6638,2018-03-05
363090,23874641,"9025 W Hilton Ave, Tolleson, AZ 85353 ",85353,0.4909959137439728,0.960535079240799,0.4716187989149754,189900,https://www.zillow.com/homedetails/9025-W-Hilton-Ave-Tolleson-AZ-85353/67772691_zpid/,33.4271,-112.25399999999999,6608,2018-02-03
365838,23892504,"9923 W Whyman Ave, Tolleson, AZ 85353 ",85353,0.4909959137439728,0.9586473107337952,0.47069191229194196,224000,https://www.zillow.com/homedetails/9923-W-Whyman-Ave-Tolleson-AZ-85353/95149673_zpid/,33.4254,-112.274,6634,2018-03-01
9024040,23873322,"2215 S 99TH Ln, Tolleson, AZ 85353 ",85353,0.4909959137439728,0.9583880603313446,0.47056462140370225,213999,https://www.zillow.com/homedetails/2215-S-99TH-Ln-Tolleson-AZ-85353/95076703_zpid/,33.4261,-112.273,6610,2018-02-05
9033248,23941288,"8937 W Hess St, Tolleson, AZ 85353 ",85353,0.4909959137439728,0.9572460651397705,0.4700039064311241,199000,https://www.zillow.com/homedetails/8937-W-Hess-St-Tolleson-AZ-85353/62726927_zpid/,33.428000000000004,-112.25399999999999,6653,2018-03-20
1126522,23920569,"2802 N Pennington Dr, Chandler, AZ 85224 ",85224,0.4909959137439728,0.957152783870697,0.4699581057091802,249000,https://www.zillow.com/homedetails/2802-N-Pennington-Dr-Chandler-AZ-85224/8176474_zpid/,33.3465,-111.87100000000001,6634,2018-03-01
1112872,23885785,"1482 W Orchid Ln, Chandler, AZ 85224 ",85224,0.4909959137439728,0.9570200741291046,0.4698929457683443,249900,https://www.zillow.com/homedetails/1482-W-Orchid-Ln-Chandler-AZ-85224/8203452_zpid/,33.3237,-111.867,6614,2018-02-09
354449,23889724,"8137 W Hess Ave, Phoenix, AZ 85043 ",85043,0.4909959137439728,0.957008570432663,0.4698872975003985,205000,https://www.zillow.com/homedetails/8137-W-Hess-Ave-Phoenix-AZ-85043/40371664_zpid/,33.4291,-112.236,6624,2018-02-19
972334,23939582,"58 S Tercera Pl, Chandler, AZ 85226 ",85226,0.4909959137439728,0.9563356339931488,0.4695568884583876,239900,https://www.zillow.com/homedetails/58-S-Tercera-Pl-Chandler-AZ-85226/55273356_zpid/,33.3023,-111.90799999999999,6663,2018-03-30
43394,23929854,"7910 W Winslow Ave, Phoenix, AZ 85043 ",85043,0.4909959137439728,0.9559597671031952,0.46937233935130873,239950,https://www.zillow.com/homedetails/7910-W-Winslow-Ave-Phoenix-AZ-85043/67764464_zpid/,33.4221,-112.23,6644,2018-03-11
354297,23929964,"8118 W Whyman Ave, Phoenix, AZ 85043 ",85043,0.4909959137439728,0.955854743719101,0.4693207732988709,205000,https://www.zillow.com/homedetails/8118-W-Whyman-Ave-Phoenix-AZ-85043/52423847_zpid/,33.4273,-112.235,6640,2018-03-07
354192,23874622,"8108 W Magnolia St, Phoenix, AZ 85043 ",85043,0.4909959137439728,0.9547889530658722,0.46879747444322906,217000,https://www.zillow.com/homedetails/8108-W-Magnolia-St-Phoenix-AZ-85043/50884736_zpid/,33.425,-112.234,6613,2018-02-08
352885,23929847,"7223 W Zak Rd, Phoenix, AZ 85043 ",85043,0.4909959137439728,0.9541151225566864,0.4684666264166628,179900,https://www.zillow.com/homedetails/7223-W-Zak-Rd-Phoenix-AZ-85043/52424200_zpid/,33.4269,-112.21600000000001,6646,2018-03-13
43860,23874625,"8140 W Gibson Ln, Phoenix, AZ 85043 ",85043,0.4909959137439728,0.9534904360771179,0.4681599079078236,214900,https://www.zillow.com/homedetails/8140-W-Gibson-Ln-Phoenix-AZ-85043/52423784_zpid/,33.4279,-112.236,6615,2018-02-10
976364,23921519,"77 S Tercera Pl, Chandler, AZ 85226 ",85226,0.4909959137439728,0.9534558951854706,0.46814294847116766,224900,https://www.zillow.com/homedetails/77-S-Tercera-Pl-Chandler-AZ-85226/55273352_zpid/,33.3021,-111.90700000000001,6650,2018-03-17
9026868,23897793,"1302 W Cortez Ct, Chandler, AZ 85224 ",85224,0.4909959137439728,0.9534229040145874,0.4681267499410744,249500,https://www.zillow.com/homedetails/1302-W-Cortez-Ct-Chandler-AZ-85224/8172446_zpid/,33.3554,-111.86399999999999,6624,2018-02-19
1113152,23930028,"1516 W Cheyenne Dr, Chandler, AZ 85224 ",85224,0.4909959137439728,0.9530748426914215,0.4679558532536676,205000,https://www.zillow.com/homedetails/1516-W-Cheyenne-Dr-Chandler-AZ-85224/8176581_zpid/,33.3469,-111.869,6656,2018-03-23
40027,23874516,"2248 S 82ND Ln, Phoenix, AZ 85043 ",85043,0.4909959137439728,0.9527735114097595,0.46780790082568835,210000,https://www.zillow.com/homedetails/2248-S-82ND-Ln-Phoenix-AZ-85043/52423821_zpid/,33.4267,-112.238,6612,2018-02-07
361380,23886784,"8601 W Flavia Hvn, Tolleson, AZ 85353 ",85353,0.4909959137439728,0.9524986743927002,0.46767295697336664,245000,https://www.zillow.com/homedetails/8601-W-Flavia-Hvn-Tolleson-AZ-85353/59271170_zpid/,33.4241,-112.245,6621,2018-02-16
959786,23890197,"3817 W Folley St, Chandler, AZ 85226 ",85226,0.4909959137439728,0.9523750841617584,0.46761227467499555,235000,https://www.zillow.com/homedetails/3817-W-Folley-St-Chandler-AZ-85226/8156123_zpid/,33.2977,-111.90799999999999,6625,2018-02-20
361198,23929894,"8529 W Hughes Dr, Tolleson, AZ 85353 ",85353,0.4909959137439728,0.9519175887107849,0.4673876462780111,239900,https://www.zillow.com/homedetails/8529-W-Hughes-Dr-Tolleson-AZ-85353/59271124_zpid/,33.4249,-112.244,6635,2018-03-02
9029776,23905062,"7441 W Eva St, Peoria, AZ 85345 ",85345,0.4909959137439728,0.9510294497013092,0.4669515736535219,246800,https://www.zillow.com/homedetails/7441-W-Eva-St-Peoria-AZ-85345/7702466_zpid/,33.5683,-112.219,6615,2018-02-10
349674,23890334,"6325 W Magnolia St, Phoenix, AZ 85043 ",85043,0.4909959137439728,0.9508881568908691,0.46688219946095444,193000,https://www.zillow.com/homedetails/6325-W-Magnolia-St-Phoenix-AZ-85043/54948469_zpid/,33.4246,-112.197,6625,2018-02-20
39857,23889258,"1810 S 82nd Dr, Phoenix, AZ 85043 ",85043,0.4909959137439728,0.9505325853824615,0.46670761530328253,179900,https://www.zillow.com/homedetails/1810-S-82nd-Dr-Phoenix-AZ-85043/60047254_zpid/,33.4316,-112.238,6624,2018-02-19
9033245,23929967,"8536 W Magnolia St, Tolleson, AZ 85353 ",85353,0.4909959137439728,0.9503419101238251,0.46661399453043995,230000,https://www.zillow.com/homedetails/8536-W-Magnolia-St-Tolleson-AZ-85353/59271181_zpid/,33.4238,-112.245,6643,2018-03-10
44030,23941268,"8228 W Mohave St, Phoenix, AZ 85043 ",85043,0.4909959137439728,0.950194925069809,0.4665418254695366,191500,https://www.zillow.com/homedetails/8228-W-Mohave-St-Phoenix-AZ-85043/60047250_zpid/,33.4324,-112.238,6665,2018-04-01
359281,23890314,"2013 S 86TH Ave, Tolleson, AZ 85353 ",85353,0.4909959137439728,0.9501834511756897,0.4665361918344093,211000,https://www.zillow.com/homedetails/2013-S-86TH-Ave-Tolleson-AZ-85353/59271375_zpid/,33.4287,-112.244,6624,2018-02-19
1370662,23883178,"6798 N 87TH Ln, Glendale, AZ 85305 ",85305,0.4909959137439728,0.949498325586319,0.46619979796962685,247900,https://www.zillow.com/homedetails/6798-N-87TH-Ln-Glendale-AZ-85305/95111567_zpid/,33.5346,-112.24799999999999,6598,2018-01-24
359526,23874541,"2429 S 83RD Dr, Tolleson, AZ 85353 ",85353,0.4909959137439728,0.948809951543808,0.46586180912762654,209999,https://www.zillow.com/homedetails/2429-S-83RD-Dr-Tolleson-AZ-85353/59271229_zpid/,33.4258,-112.23899999999999,6600,2018-01-26
1373435,23873994,"8759 W Peppertree Ln, Glendale, AZ 85305 ",85305,0.4909959137439728,0.9486871361732483,0.4658015072825368,240000,https://www.zillow.com/homedetails/8759-W-Peppertree-Ln-Glendale-AZ-85305/95158696_zpid/,33.5368,-112.24700000000001,6612,2018-02-07
359511,23875667,"2422 S 84th Ln, Tolleson, AZ 85353 ",85353,0.4909959137439728,0.9483787417411804,0.46565008687657006,197500,https://www.zillow.com/homedetails/2422-S-84th-Ln-Tolleson-AZ-85353/59271244_zpid/,33.4258,-112.242,6605,2018-01-31
350839,23886786,"6514 W Sonora St, Phoenix, AZ 85043 ",85043,0.4909959137439728,0.9483571648597717,0.46563949271596705,175000,https://www.zillow.com/homedetails/6514-W-Sonora-St-Phoenix-AZ-85043/7500079_zpid/,33.4338,-112.2,6621,2018-02-16
1128437,23920629,"3298 N Ash Dr, Chandler, AZ 85224 ",85224,0.4909959137439728,0.9483546912670135,0.4656382781920305,240000,https://www.zillow.com/homedetails/3298-N-Ash-Dr-Chandler-AZ-85224/8191971_zpid/,33.3549,-111.87100000000001,6636,2018-03-03
350150,23874570,"6406 W Preston Ln, Phoenix, AZ 85043 ",85043,0.4909959137439728,0.9482095241546631,0.46556700173305643,169900,https://www.zillow.com/homedetails/6406-W-Preston-Ln-Phoenix-AZ-85043/55257443_zpid/,33.4237,-112.198,6606,2018-02-01
359527,23941084,"2430 S 83RD Dr, Tolleson, AZ 85353 ",85353,0.4909959137439728,0.9476628005504608,0.46529856267744574,195000,https://www.zillow.com/homedetails/2430-S-83RD-Dr-Tolleson-AZ-85353/59271226_zpid/,33.4258,-112.23899999999999,6663,2018-03-30
1375062,23920152,"9054 W Nicolet Ave, Glendale, AZ 85305 ",85305,0.4909959137439728,0.9476373791694641,0.4652860808832546,245000,https://www.zillow.com/homedetails/9054-W-Nicolet-Ave-Glendale-AZ-85305/95083641_zpid/,33.5409,-112.25399999999999,6642,2018-03-09
1115843,23930034,"1725 W Loughlin Dr, Chandler, AZ 85224 ",85224,0.4909959137439728,0.9475622773170471,0.4652492061806033,225000,https://www.zillow.com/homedetails/1725-W-Loughlin-Dr-Chandler-AZ-85224/8176421_zpid/,33.3451,-111.874,6655,2018-03-22
9031505,23914209,"7312 W Emile Zola Ave, Peoria, AZ 85381 ",85381,0.4909959137439728,0.9473993182182312,0.46516919392897726,242000,https://www.zillow.com/homedetails/7312-W-Emile-Zola-Ave-Peoria-AZ-85381/7925066_zpid/,33.6077,-112.21700000000001,6656,2018-03-23
830487,23937786,"3817 W Oregon Ave, Phoenix, AZ 85019 ",85019,0.4909959137439728,0.9473698437213898,0.46515472207146846,174500,https://www.zillow.com/homedetails/3817-W-Oregon-Ave-Phoenix-AZ-85019/50188137_zpid/,33.5143,-112.141,6662,2018-03-29
9026756,23893480,"1033 W Orchid Ln, Chandler, AZ 85224 ",85224,0.4909959137439728,0.9473695456981659,0.46515457574328334,249900,https://www.zillow.com/homedetails/1033-W-Orchid-Ln-Chandler-AZ-85224/8203649_zpid/,33.3236,-111.86,6619,2018-02-14
1416563,23872427,"7608 W Peck Dr, Glendale, AZ 85303 ",85303,0.4909959137439728,0.9471802711486816,0.46506164271291084,249900,https://www.zillow.com/homedetails/7608-W-Peck-Dr-Glendale-AZ-85303/95094058_zpid/,33.5268,-112.22399999999999,6605,2018-01-31
1113596,23885766,"1567 W Kesler Ln, Chandler, AZ 85224 ",85224,0.4909959137439728,0.9470962584018707,0.4650203927975243,245000,https://www.zillow.com/homedetails/1567-W-Kesler-Ln-Chandler-AZ-85224/8226104_zpid/,33.2918,-111.869,6596,2018-01-22
40196,23874530,"2907 S 71st Dr, Phoenix, AZ 85043 ",85043,0.4909959137439728,0.9470297694206238,0.464987746979423,240000,https://www.zillow.com/homedetails/2907-S-71st-Dr-Phoenix-AZ-85043/71604365_zpid/,33.4222,-112.213,6613,2018-02-08
972984,23921177,"5975 W Del Rio St, Chandler, AZ 85226 ",85226,0.4909959137439728,0.9462224543094635,0.46459135855873956,220000,https://www.zillow.com/homedetails/5975-W-Del-Rio-St-Chandler-AZ-85226/8262022_zpid/,33.3128,-111.945,6648,2018-03-15
9018003,23920413,"1842 W Alamo Dr, Chandler, AZ 85224 ",85224,0.4909959137439728,0.946147620677948,0.46455461555145483,244000,https://www.zillow.com/homedetails/1842-W-Alamo-Dr-Chandler-AZ-85224/8199834_zpid/,33.3482,-111.875,6639,2018-03-06
1094758,23892220,"818 W Nopal Pl, Chandler, AZ 85225 ",85225,0.4909959137439728,0.9461003243923187,0.4645313932684756,249990,https://www.zillow.com/homedetails/818-W-Nopal-Pl-Chandler-AZ-85225/8177792_zpid/,33.3423,-111.85799999999999,6627,2018-02-22
1118177,23920469,"2027 N Villas Ln, Chandler, AZ 85224 ",85224,0.4909959137439728,0.945614218711853,0.4642927173657192,220000,https://www.zillow.com/homedetails/2027-N-Villas-Ln-Chandler-AZ-85224/8199734_zpid/,33.3361,-111.87200000000001,6632,2018-02-27
647766,23941812,"2317 W Osage Ave, Mesa, AZ 85202 ",85202,0.4909959137439728,0.9455206394195557,0.46424677031559014,209000,https://www.zillow.com/homedetails/2317-W-Osage-Ave-Mesa-AZ-85202/8171718_zpid/,33.3624,-111.884,6662,2018-03-29
1078091,23885832,"2052 N Holguin Way, Chandler, AZ 85225 ",85225,0.4909959137439728,0.9453839063644409,0.46417963494425507,219000,https://www.zillow.com/homedetails/2052-N-Holguin-Way-Chandler-AZ-85225/60985138_zpid/,33.3362,-111.84899999999999,6593,2018-01-19
9027233,23895214,"8406 W Hamster Ln, Tolleson, AZ 85353 ",85353,0.4909959137439728,0.9447194933891296,0.46385341088833876,189000,https://www.zillow.com/homedetails/8406-W-Hamster-Ln-Tolleson-AZ-85353/58883271_zpid/,33.4288,-112.241,6614,2018-02-09
353901,23941246,"8007 W Whyman Ave, Phoenix, AZ 85043 ",85043,0.4909959137439728,0.9447044134140015,0.46384600668217146,215000,https://www.zillow.com/homedetails/8007-W-Whyman-Ave-Phoenix-AZ-85043/38433056_zpid/,33.427,-112.23200000000001,6662,2018-03-29
9022216,23869757,"8333 W Watkins St, Tolleson, AZ 85353 ",85353,0.4909959137439728,0.9445968866348267,0.4637932114729786,190000,https://www.zillow.com/homedetails/8333-W-Watkins-St-Tolleson-AZ-85353/54886336_zpid/,33.4265,-112.24,6594,2018-01-20
343269,23941092,"2230 S 63RD Dr, Phoenix, AZ 85043 ",85043,0.4909959137439728,0.944579541683197,0.46378469517260434,197000,https://www.zillow.com/homedetails/2230-S-63RD-Dr-Phoenix-AZ-85043/55257493_zpid/,33.4273,-112.196,6654,2018-03-21
359312,23869360,"2024 S 85TH Ln, Tolleson, AZ 85353 ",85353,0.4909959137439728,0.9443796277046204,0.4636865382260229,185000,https://www.zillow.com/homedetails/2024-S-85th-Ln-Tolleson-AZ-85353/59271383_zpid/,33.4284,-112.244,6595,2018-01-21
9034648,23940861,"8829 W Royal Palm Rd, Peoria, AZ 85345 ",85345,0.4909959137439728,0.9441244006156921,0.4635612227682824,247000,https://www.zillow.com/homedetails/8829-W-Royal-Palm-Rd-Peoria-AZ-85345/50187417_zpid/,33.5542,-112.249,6664,2018-03-31
501561,23888074,"7826 W Palm Ln, Phoenix, AZ 85035 ",85035,0.4909959137439728,0.9440537691116333,0.4635265429884079,172000,https://www.zillow.com/homedetails/7826-W-Palm-Ln-Phoenix-AZ-85035/95097689_zpid/,33.469,-112.228,6622,2018-02-17
348526,23935280,"1814 E Juniper Ave, Phoenix, AZ 85022 ",85022,0.4909959137439728,0.9437147676944733,0.4633600946778289,245000,https://www.zillow.com/homedetails/1814-E-Juniper-Ave-Phoenix-AZ-85022/8004962_zpid/,33.6392,-112.04299999999999,6662,2018-03-29
21550,23880121,"8329 W Gross Ave, Tolleson, AZ 85353 ",85353,0.4909959137439728,0.9431518912315369,0.46308372463458447,198000,https://www.zillow.com/homedetails/8329-W-Gross-Ave-Tolleson-AZ-85353/59271315_zpid/,33.4293,-112.24,6620,2018-02-15
9031745,23915938,"754 E Rosemonte Dr, Phoenix, AZ 85024 ",85024,0.4909959137439728,0.9428002238273621,0.4629110573761377,249999,https://www.zillow.com/homedetails/754-E-Rosemonte-Dr-Phoenix-AZ-85024/7997468_zpid/,33.6572,-112.064,6656,2018-03-23
9029938,23905383,"8872 W Cameron Dr, Peoria, AZ 85345 ",85345,0.4909959137439728,0.9427125453948975,0.4628680076240741,249999,https://www.zillow.com/homedetails/8872-W-Cameron-Dr-Peoria-AZ-85345/95166649_zpid/,33.5898,-112.249,6613,2018-02-08
962858,23920761,"4276 W Park Ave, Chandler, AZ 85226 ",85226,0.4909959137439728,0.9424799084663391,0.462753783842766,215000,https://www.zillow.com/homedetails/4276-W-Park-Ave-Chandler-AZ-85226/8153857_zpid/,33.3215,-111.91799999999999,6635,2018-03-02
9027265,23895296,"8555 W Sonora St, Tolleson, AZ 85353 ",85353,0.4909959137439728,0.9422392249107361,0.46263560920045954,190500,https://www.zillow.com/homedetails/8555-W-Sonora-St-Tolleson-AZ-85353/58494114_zpid/,33.4325,-112.244,6608,2018-02-03
958473,23930110,"3534 W Carla Vista Dr, Chandler, AZ 85226 ",85226,0.4909959137439728,0.9422040581703186,0.46261834247461486,234000,https://www.zillow.com/homedetails/3534-W-Carla-Vista-Dr-Chandler-AZ-85226/8154923_zpid/,33.3095,-111.905,6656,2018-03-23
6833,23886010,"3873 W Commonwealth Ave, Chandler, AZ 85226 ",85226,0.4909959137439728,0.9420982599258423,0.4625663959688957,230000,https://www.zillow.com/homedetails/3873-W-Commonwealth-Ave-Chandler-AZ-85226/55273361_zpid/,33.3027,-111.90899999999999,6618,2018-02-13
1422434,23920133,"8207 W Tuckey Ln, Glendale, AZ 85303 ",85303,0.4909959137439728,0.9420899152755737,0.4625622987797122,245000,https://www.zillow.com/homedetails/8207-W-Tuckey-Ln-Glendale-AZ-85303/7462558_zpid/,33.5327,-112.23700000000001,6648,2018-03-15
41792,23874571,"6411 W Winslow Ave, Phoenix, AZ 85043 ",85043,0.4909959137439728,0.9418339133262634,0.46243660286869037,210000,https://www.zillow.com/homedetails/6411-W-Winslow-Ave-Phoenix-AZ-85043/49641685_zpid/,33.4219,-112.198,6610,2018-02-05
350370,23890327,"6417 W Preston Ln, Phoenix, AZ 85043 ",85043,0.4909959137439728,0.9416693449020386,0.4623558004448647,203800,https://www.zillow.com/homedetails/6417-W-Preston-Ln-Phoenix-AZ-85043/55257431_zpid/,33.4233,-112.199,6626,2018-02-21
1092216,23939633,"716 W Palomino Dr, Chandler, AZ 85225 ",85225,0.4909959137439728,0.9416506886482239,0.4623466403004759,249999,https://www.zillow.com/homedetails/716-W-Palomino-Dr-Chandler-AZ-85225/8177692_zpid/,33.3408,-111.854,6657,2018-03-24
352675,23874598,"7143 W Zak Rd, Phoenix, AZ 85043 ",85043,0.4909959137439728,0.9415280818939209,0.4622864408851157,190000,https://www.zillow.com/homedetails/7143-W-Zak-Rd-Phoenix-AZ-85043/52424124_zpid/,33.4268,-112.214,6606,2018-02-01
1111311,23885718,"1319 W Straford Dr, Chandler, AZ 85224 ",85224,0.4909959137439728,0.941452831029892,0.4622494930183718,209000,https://www.zillow.com/homedetails/1319-W-Straford-Dr-Chandler-AZ-85224/8172355_zpid/,33.353,-111.865,6618,2018-02-13
1406713,23920009,"6787 N 79TH Dr, Glendale, AZ 85303 ",85303,0.4909959137439728,0.9412693083286285,0.4621593841219722,229900,https://www.zillow.com/homedetails/6787-N-79TH-Dr-Glendale-AZ-85303/60974481_zpid/,33.5353,-112.229,6655,2018-03-22
39873,23876462,"1904 S 82nd Dr, Phoenix, AZ 85043 ",85043,0.4909959137439728,0.9411320984363556,0.46209201462554095,207000,https://www.zillow.com/homedetails/1904-S-82nd-Dr-Phoenix-AZ-85043/58770129_zpid/,33.4313,-112.238,6619,2018-02-14
9030034,23905759,"7410 W Sierra St, Peoria, AZ 85345 ",85345,0.4909959137439728,0.9405923783779144,0.4618270142822807,249777,https://www.zillow.com/homedetails/7410-W-Sierra-St-Peoria-AZ-85345/7700341_zpid/,33.5901,-112.219,6599,2018-01-25
351880,23929813,"6625 W Polk St, Phoenix, AZ 85043 ",85043,0.4909959137439728,0.9404472410678864,0.4617557524561251,178000,https://www.zillow.com/homedetails/6625-W-Polk-St-Phoenix-AZ-85043/67788414_zpid/,33.453,-112.20200000000001,6651,2018-03-18
9029090,23901746,"2331 W Comstock Dr, Chandler, AZ 85224 ",85224,0.4909959137439728,0.9403171539306641,0.4616918802033183,245000,https://www.zillow.com/homedetails/2331-W-Comstock-Dr-Chandler-AZ-85224/8201985_zpid/,33.3471,-111.882,6625,2018-02-20
9004887,23940825,"8900 W Cameron Dr, Peoria, AZ 85345 ",85345,0.4909959137439728,0.9402730762958527,0.4616702382647384,242000,https://www.zillow.com/homedetails/8900-W-Cameron-Dr-Peoria-AZ-85345/95133083_zpid/,33.5906,-112.25,6660,2018-03-27
1472398,23914717,"9845 W Oraibi Dr, Peoria, AZ 85382 ",85382,0.4909959137439728,0.9400817453861237,0.46157629556988855,249000,https://www.zillow.com/homedetails/9845-W-Oraibi-Dr-Peoria-AZ-85382/7893585_zpid/,33.6613,-112.272,6655,2018-03-22
41532,23941213,"6314 W Hilton Ave, Phoenix, AZ 85043 ",85043,0.4909959137439728,0.9399718642234802,0.4615223443680332,200000,https://www.zillow.com/homedetails/6314-W-Hilton-Ave-Phoenix-AZ-85043/53206229_zpid/,33.428000000000004,-112.196,6661,2018-03-28
435409,23915054,"7910 W Catalina Dr, Phoenix, AZ 85033 ",85033,0.4909959137439728,0.9399428963661194,0.4615081212684391,217000,https://www.zillow.com/homedetails/7910-W-Catalina-Dr-Phoenix-AZ-85033/7469393_zpid/,33.4815,-112.228,6629,2018-02-24
1374748,23938379,"8975 W Nicolet Ave, Glendale, AZ 85305 ",85305,0.4909959137439728,0.9397602677345276,0.46141845135659487,225000,https://www.zillow.com/homedetails/8975-W-Nicolet-Ave-Glendale-AZ-85305/95133442_zpid/,33.541,-112.25200000000001,6662,2018-03-29
973060,23891307,"600 N Aspen Dr, Chandler, AZ 85226 ",85226,0.4909959137439728,0.9394578337669373,0.46126995751433064,223900,https://www.zillow.com/homedetails/600-N-Aspen-Dr-Chandler-AZ-85226/8262023_zpid/,33.3128,-111.945,6624,2018-02-19
448361,23888250,"8402 W Coolidge St, Phoenix, AZ 85037 ",85037,0.4909959137439728,0.939043402671814,0.46106647354009667,183500,https://www.zillow.com/homedetails/8402-W-Coolidge-St-Phoenix-AZ-85037/7481009_zpid/,33.5049,-112.24,6622,2018-02-17
9030029,23905726,"8997 W Alda Way, Peoria, AZ 85382 ",85382,0.4909959137439728,0.9388913214206696,0.4609918022672277,249900,https://www.zillow.com/homedetails/8997-W-Alda-Way-Peoria-AZ-85382/61629760_zpid/,33.6511,-112.25299999999999,6603,2018-01-29
523764,23888833,"9034 W Avalon Dr, Phoenix, AZ 85037 ",85037,0.4909959137439728,0.9388329982757568,0.46096316584139885,180000,https://www.zillow.com/homedetails/9034-W-Avalon-Dr-Phoenix-AZ-85037/54948475_zpid/,33.4832,-112.25399999999999,6623,2018-02-18
341987,23888290,"16633 N 19th Pl, Phoenix, AZ 85022 ",85022,0.4909959137439728,0.938751220703125,0.4609230133874007,244900,https://www.zillow.com/homedetails/16633-N-19th-Pl-Phoenix-AZ-85022/55267888_zpid/,33.6381,-112.04,6621,2018-02-16
9029845,23913752,"17748 N 89TH Dr, Peoria, AZ 85382 ",85382,0.4909959137439728,0.9386624395847321,0.46087942222105216,241900,https://www.zillow.com/homedetails/17748-N-89TH-Dr-Peoria-AZ-85382/81952280_zpid/,33.6443,-112.251,6638,2018-03-05
8989493,23890965,"3646 N 79TH Dr, Phoenix, AZ 85033 ",85033,0.4909959137439728,0.938189297914505,0.4606471115943487,169900,https://www.zillow.com/homedetails/3646-N-79th-Dr-Phoenix-AZ-85033/7478627_zpid/,33.4902,-112.23100000000001,6625,2018-02-20
976190,23921531,"739 N Valencia Pl, Chandler, AZ 85226 ",85226,0.4909959137439728,0.9377093613147736,0.46041146468502436,244900,https://www.zillow.com/homedetails/739-N-Valencia-Pl-Chandler-AZ-85226/8155195_zpid/,33.3161,-111.90899999999999,6651,2018-03-18
398139,23888411,"4133 W Bloomfield Rd, Phoenix, AZ 85029 ",85029,0.4909959137439728,0.9377047717571259,0.46040921123097345,230000,https://www.zillow.com/homedetails/4133-W-Bloomfield-Rd-Phoenix-AZ-85029/7742616_zpid/,33.5986,-112.148,6622,2018-02-17
249467,23927324,"413 E Rimrock Dr, Phoenix, AZ 85024 ",85024,0.4909959137439728,0.937679260969162,0.4603966855383268,222000,https://www.zillow.com/homedetails/413-E-Rimrock-Dr-Phoenix-AZ-85024/7968011_zpid/,33.6625,-112.068,6637,2018-03-04
9029967,23940804,"8765 W Port Au Prince Ln, Peoria, AZ 85381 ",85381,0.4909959137439728,0.9375745952129364,0.4603452950797111,249500,https://www.zillow.com/homedetails/8765-W-Port-Au-Prince-Ln-Peoria-AZ-85381/7909199_zpid/,33.623000000000005,-112.24799999999999,6627,2018-02-22
9029597,23903877,"9147 W Minnezona Ave, Phoenix, AZ 85037 ",85037,0.4909959137439728,0.9373355209827423,0.46022791060960433,249990,https://www.zillow.com/homedetails/9147-W-Minnezona-Ave-Phoenix-AZ-85037/2091007381_zpid/,33.5024,-112.251,6622,2018-02-17
7452531,23914721,"9318 W Vogel Ave, Peoria, AZ 85345 ",85345,0.4909959137439728,0.9373353719711304,0.46022783744551177,225000,https://www.zillow.com/homedetails/9318-W-Vogel-Ave-Peoria-AZ-85345/7697363_zpid/,33.5718,-112.26,6640,2018-03-07
7474886,23914732,"9316 W Palmer Dr, Peoria, AZ 85345 ",85345,0.4909959137439728,0.9372525811195374,0.4601871874756842,249000,https://www.zillow.com/homedetails/9316-W-Palmer-Dr-Peoria-AZ-85345/7697300_zpid/,33.5703,-112.26,6627,2018-02-22
9029821,23904953,"8011 N 87th Dr, Peoria, AZ 85345 ",85345,0.4909959137439728,0.9371179938316345,0.46012110566728204,214900,https://www.zillow.com/homedetails/8011-N-87th-Dr-Peoria-AZ-85345/50187488_zpid/,33.5525,-112.24700000000001,6614,2018-02-09
1466624,23913753,"17462 N 92ND Gln, Peoria, AZ 85382 ",85382,0.4909959137439728,0.9369302093982697,0.46002890427783516,224000,https://www.zillow.com/homedetails/17462-N-92ND-Gln-Peoria-AZ-85382/95142094_zpid/,33.6425,-112.259,6638,2018-03-05
9026853,23923313,"9920 W Cameo Dr, Sun City, AZ 85351 ",85351,0.4909959137439728,0.936782956123352,0.4599566035215652,149900,https://www.zillow.com/homedetails/9920-W-Cameo-Dr-Sun-City-AZ-85351/7907926_zpid/,33.6129,-112.26899999999999,6632,2018-02-27
9031587,23914701,"9318 W Brown St, Peoria, AZ 85345 ",85345,0.4909959137439728,0.9364174604415894,0.45977714663532865,219900,https://www.zillow.com/homedetails/9318-W-Brown-St-Peoria-AZ-85345/7697571_zpid/,33.5757,-112.26100000000001,6635,2018-03-02
9030011,23905769,"9138 W Kimberly Way, Peoria, AZ 85382 ",85382,0.4909959137439728,0.9362219274044037,0.45968114071306854,239900,https://www.zillow.com/homedetails/9138-W-Kimberly-Way-Peoria-AZ-85382/7896528_zpid/,33.6559,-112.257,6600,2018-01-26
9031500,23914158,"7009 W Cherry Hills Dr, Peoria, AZ 85345 ",85345,0.4909959137439728,0.9361020028591156,0.4596222582513745,245000,https://www.zillow.com/homedetails/7009-W-Cherry-Hills-Dr-Peoria-AZ-85345/7699971_zpid/,33.5931,-112.21,6642,2018-03-09
349981,23889261,"6342 W Whyman Ave, Phoenix, AZ 85043 ",85043,0.4909959137439728,0.9357509911060333,0.459449912914935,179900,https://www.zillow.com/homedetails/6342-W-Whyman-Ave-Phoenix-AZ-85043/53206189_zpid/,33.4274,-112.198,6624,2018-02-19
434384,23888835,"7629 W Flower St, Phoenix, AZ 85033 ",85033,0.4909959137439728,0.935696542263031,0.45942317875551275,175900,https://www.zillow.com/homedetails/7629-W-Flower-St-Phoenix-AZ-85033/7469131_zpid/,33.4849,-112.22399999999999,6623,2018-02-18
352694,23941236,"7205 W Hess Ave, Phoenix, AZ 85043 ",85043,0.4909959137439728,0.9355135560035706,0.4593333332498464,199900,https://www.zillow.com/homedetails/7205-W-Hess-Ave-Phoenix-AZ-85043/52424247_zpid/,33.4296,-112.215,6661,2018-03-28
445075,23888238,"4620 N 92ND Dr, Phoenix, AZ 85037 ",85037,0.4909959137439728,0.9354178011417389,0.4592863180039659,241000,https://www.zillow.com/homedetails/4620-N-92ND-Dr-Phoenix-AZ-85037/7466545_zpid/,33.5049,-112.259,6622,2018-02-17
965657,23939562,"4724 W Del Rio St, Chandler, AZ 85226 ",85226,0.4909959137439728,0.9353508055210114,0.45925342342794995,230000,https://www.zillow.com/homedetails/4724-W-Del-Rio-St-Chandler-AZ-85226/8156655_zpid/,33.3162,-111.925,6668,2018-04-04
402846,23919717,"12115 N 66TH Ave, Glendale, AZ 85304 ",85304,0.4909959137439728,0.9352577924728394,0.4592077544013726,229990,https://www.zillow.com/homedetails/12115-N-66TH-Ave-Glendale-AZ-85304/67401338_zpid/,33.5959,-112.20100000000001,6646,2018-03-13
625494,23866146,"1522 W Plana Ave, Mesa, AZ 85202 ",85202,0.4909959137439728,0.9351232647895813,0.4591417018586075,242500,https://www.zillow.com/homedetails/1522-W-Plana-Ave-Mesa-AZ-85202/8172015_zpid/,33.3588,-111.866,6585,2018-01-11
1108960,23920279,"1170 W Butler Dr, Chandler, AZ 85224 ",85224,0.4909959137439728,0.9349180161952972,0.4590409256375123,249900,https://www.zillow.com/homedetails/1170-W-Butler-Dr-Chandler-AZ-85224/8207445_zpid/,33.3013,-111.86200000000001,6642,2018-03-09
969298,23939580,"5237 W Boston Way S, Chandler, AZ 85226 ",85226,0.4909959137439728,0.9349170923233032,0.4590404720201384,220000,https://www.zillow.com/homedetails/5237-W-Boston-Way-S-Chandler-AZ-85226/8166306_zpid/,33.3017,-111.932,6662,2018-03-29
1421529,23938351,"8028 W Sierra Vista Dr, Glendale, AZ 85303 ",85303,0.4909959137439728,0.9348725378513336,0.4590185959564623,239900,https://www.zillow.com/homedetails/8028-W-Sierra-Vista-Dr-Glendale-AZ-85303/7462653_zpid/,33.5316,-112.23299999999999,6661,2018-03-28
9034600,23940572,"6833 W Cherry Hills Dr, Peoria, AZ 85345 ",85345,0.4909959137439728,0.9348326325416565,0.45899900261247417,241000,https://www.zillow.com/homedetails/6833-W-Cherry-Hills-Dr-Peoria-AZ-85345/7700203_zpid/,33.5936,-112.205,6659,2018-03-26
440506,23914803,"2405 N 83RD Dr, Phoenix, AZ 85037 ",85037,0.4909959137439728,0.9348318576812744,0.45899862215919285,169900,https://www.zillow.com/homedetails/2405-N-83RD-Dr-Phoenix-AZ-85037/81976574_zpid/,33.4739,-112.238,6643,2018-03-10
9031631,23915099,"7706 W Mariposa Dr, Phoenix, AZ 85033 ",85033,0.4909959137439728,0.9342323839664459,0.45870428301481514,217000,https://www.zillow.com/homedetails/7706-W-Mariposa-Dr-Phoenix-AZ-85033/7467863_zpid/,33.5074,-112.23,6653,2018-03-20
9031620,23915002,"4723 N 79TH Ave, Phoenix, AZ 85033 ",85033,0.4909959137439728,0.9341427981853485,0.45866029676236675,179900,https://www.zillow.com/homedetails/4723-N-79TH-Ave-Phoenix-AZ-85033/7467782_zpid/,33.5072,-112.228,6656,2018-03-23
9032285,23920247,"7579 W Wikieup Ln, Glendale, AZ 85308 ",85308,0.4909959137439728,0.9338602423667908,0.4585215630100503,249900,https://www.zillow.com/homedetails/7579-W-Wikieup-Ln-Glendale-AZ-85308/7892240_zpid/,33.6639,-112.221,6640,2018-03-07
9021871,23872703,"12120 N 89th Dr, Peoria, AZ 85345 ",85345,0.4909959137439728,0.9336476624011993,0.4584171871156011,239900,https://www.zillow.com/homedetails/12120-N-89th-Dr-Peoria-AZ-85345/7685583_zpid/,33.5947,-112.25200000000001,6606,2018-02-01
7529744,23939322,"2316 W Mcnair St, Chandler, AZ 85224 ",85224,0.4909959137439728,0.9333546757698059,0.4582733318768053,249900,https://www.zillow.com/homedetails/2316-W-Mcnair-St-Chandler-AZ-85224/8197005_zpid/,33.3514,-111.885,6658,2018-03-25
4884,23920046,"6839 N 81ST Ln, Glendale, AZ 85303 ",85303,0.4909959137439728,0.9331279098987579,0.45816199076074415,159000,https://www.zillow.com/homedetails/6839-N-81ST-Ln-Glendale-AZ-85303/7462434_zpid/,33.5373,-112.235,6656,2018-03-23
1851930,23885755,"1315 W Manor St, Chandler, AZ 85224 ",85224,0.4909959137439728,0.9329715073108673,0.4580851977291909,247500,https://www.zillow.com/homedetails/1315-W-Manor-St-Chandler-AZ-85224/8194266_zpid/,33.328,-111.86399999999999,6605,2018-01-31
343494,23875666,"2518 S 66th Dr, Phoenix, AZ 85043 ",85043,0.4909959137439728,0.9329436123371124,0.45807150141106323,194900,https://www.zillow.com/homedetails/2518-S-66th-Dr-Phoenix-AZ-85043/67773235_zpid/,33.425,-112.20200000000001,6581,2018-01-07
1466691,23869657,"17797 N 89TH Dr, Peoria, AZ 85382 ",85382,0.4909959137439728,0.9329132735729218,0.45805660520181757,241500,https://www.zillow.com/homedetails/17797-N-89TH-Dr-Peoria-AZ-85382/71616751_zpid/,33.6449,-112.251,6594,2018-01-20
9030023,23905783,"8112 W Laurel Ln, Peoria, AZ 85345 ",85345,0.4909959137439728,0.932826429605484,0.4580139651686723,243000,https://www.zillow.com/homedetails/8112-W-Laurel-Ln-Peoria-AZ-85345/7680881_zpid/,33.5932,-112.234,6580,2018-01-06
1414408,23870613,"7359 N 70th Ave, Glendale, AZ 85303 ",85303,0.4909959137439728,0.9327806234359741,0.4579914745266187,174900,https://www.zillow.com/homedetails/7359-N-70th-Ave-Glendale-AZ-85303/7704942_zpid/,33.5441,-112.21,6598,2018-01-24
9026899,23893911,"1318 W Boxelder Ct, Chandler, AZ 85224 ",85224,0.4909959137439728,0.9326465725898743,0.45792565610894975,239900,https://www.zillow.com/homedetails/1318-W-Boxelder-Ct-Chandler-AZ-85224/8172413_zpid/,33.3542,-111.865,6604,2018-01-30
10609,23938177,"5166 W Laurel Ave, Glendale, AZ 85304 ",85304,0.4909959137439728,0.932619571685791,0.4579123987753775,215000,https://www.zillow.com/homedetails/5166-W-Laurel-Ave-Glendale-AZ-85304/60978642_zpid/,33.5946,-112.17,6664,2018-03-31
830047,23937775,"3735 W Claremont St, Phoenix, AZ 85019 ",85019,0.4909959137439728,0.932548314332962,0.45787741170631424,177000,https://www.zillow.com/homedetails/3735-W-Claremont-St-Phoenix-AZ-85019/7761245_zpid/,33.5281,-112.14,6656,2018-03-23
446025,23914909,"4721 N 91ST Ln, Phoenix, AZ 85037 ",85037,0.4909959137439728,0.9323994517326355,0.4578043207778446,179900,https://www.zillow.com/homedetails/4721-N-91ST-Ln-Phoenix-AZ-85037/7466510_zpid/,33.5063,-112.256,6643,2018-03-10
396381,23937383,"3923 W Desert Cove Ave, Phoenix, AZ 85029 ",85029,0.4909959137439728,0.9321895241737366,0.457701247204243,216500,https://www.zillow.com/homedetails/3923-W-Desert-Cove-Ave-Phoenix-AZ-85029/7745007_zpid/,33.5853,-112.14399999999999,6661,2018-03-28
1126602,23890192,"2807 N Central Dr, Chandler, AZ 85224 ",85224,0.4909959137439728,0.9320899546146393,0.45765235895759293,180000,https://www.zillow.com/homedetails/2807-N-Central-Dr-Chandler-AZ-85224/8199127_zpid/,33.3475,-111.866,6625,2018-02-20
419109,23938183,"5326 W Vogel Ave, Glendale, AZ 85302 ",85302,0.4909959137439728,0.931686520576477,0.45745427449339005,245000,https://www.zillow.com/homedetails/5326-W-Vogel-Ave-Glendale-AZ-85302/7734302_zpid/,33.5723,-112.176,6657,2018-03-24
351354,23929786,"6558 W Nez Perce St, Phoenix, AZ 85043 ",85043,0.4909959137439728,0.9315557777881622,0.457390080318576,185000,https://www.zillow.com/homedetails/6558-W-Nez-Perce-St-Phoenix-AZ-85043/54938704_zpid/,33.431999999999995,-112.20100000000001,6643,2018-03-10
9030024,23905709,"7267 W Charter Oak Rd, Peoria, AZ 85381 ",85381,0.4909959137439728,0.9315361082553864,0.45738042265835777,248000,https://www.zillow.com/homedetails/7267-W-Charter-Oak-Rd-Peoria-AZ-85381/7912731_zpid/,33.5972,-112.21600000000001,6614,2018-02-09
351243,23874592,"6540 W Gross Ave, Phoenix, AZ 85043 ",85043,0.4909959137439728,0.9315333068370819,0.4573790471734176,229900,https://www.zillow.com/homedetails/6540-W-Gross-Ave-Phoenix-AZ-85043/62727279_zpid/,33.4297,-112.20200000000001,6613,2018-02-08
353909,23881508,"2219 E Aire Libre Ave, Phoenix, AZ 85022 ",85022,0.4909959137439728,0.931418389081955,0.45732262302523363,239900,https://www.zillow.com/homedetails/2219-E-Aire-Libre-Ave-Phoenix-AZ-85022/8005158_zpid/,33.637,-112.03399999999999,6620,2018-02-15
519544,23891946,"8906 W Cypress St, Phoenix, AZ 85037 ",85037,0.4909959137439728,0.9313662946224213,0.4572970448584739,219000,https://www.zillow.com/homedetails/8906-W-Cypress-St-Phoenix-AZ-85037/7487715_zpid/,33.4719,-112.251,6627,2018-02-22
9026594,23892782,"9941 W Gulf Hills Dr, Sun City, AZ 85351 ",85351,0.4909959137439728,0.9312562048435211,0.45724299122688894,193500,https://www.zillow.com/homedetails/9941-W-Gulf-Hills-Dr-Sun-City-AZ-85351/7905903_zpid/,33.6258,-112.273,6600,2018-01-26
9031561,23914546,"8741 W Port Au Prince Ln, Peoria, AZ 85381 ",85381,0.4909959137439728,0.9311909079551697,0.4572109307215282,239900,https://www.zillow.com/homedetails/8741-W-Port-Au-Prince-Ln-Peoria-AZ-85381/7909203_zpid/,33.6228,-112.24700000000001,6655,2018-03-22
1409638,23920035,"7005 W Cactus Wren Dr, Glendale, AZ 85303 ",85303,0.4909959137439728,0.9311776459217072,0.45720441911729015,230000,https://www.zillow.com/homedetails/7005-W-Cactus-Wren-Dr-Glendale-AZ-85303/55260444_zpid/,33.5388,-112.21,6648,2018-03-15
248862,23915551,"306 E Piute Ave, Phoenix, AZ 85024 ",85024,0.4909959137439728,0.9309309720993042,0.4570833032784627,199900,https://www.zillow.com/homedetails/306-E-Piute-Ave-Phoenix-AZ-85024/7967866_zpid/,33.6635,-112.07,6656,2018-03-23
650458,23872026,"2419 W Naranja Ave, Mesa, AZ 85202 ",85202,0.4909959137439728,0.9308663606643677,0.4570515793279277,218000,https://www.zillow.com/homedetails/2419-W-Naranja-Ave-Mesa-AZ-85202/8251330_zpid/,33.3643,-111.88600000000001,6603,2018-01-29
9032259,23919953,"19410 N 75TH Dr, Glendale, AZ 85308 ",85308,0.4909959137439728,0.9308498799800873,0.45704348737929035,240000,https://www.zillow.com/homedetails/19410-N-75TH-Dr-Glendale-AZ-85308/8101537_zpid/,33.6602,-112.221,6656,2018-03-23
421278,23938240,"6282 W Cochise Dr, Glendale, AZ 85302 ",85302,0.4909959137439728,0.9308054149150848,0.4570216552140698,239900,https://www.zillow.com/homedetails/6282-W-Cochise-Dr-Glendale-AZ-85302/7703782_zpid/,33.5807,-112.194,6662,2018-03-29
9029809,23904890,"17460 N 92ND Ave, Peoria, AZ 85382 ",85382,0.4909959137439728,0.930726557970047,0.4569829367762859,226000,https://www.zillow.com/homedetails/17460-N-92ND-Ave-Peoria-AZ-85382/95103614_zpid/,33.6425,-112.258,6621,2018-02-16
832280,23887119,"4141 W Mulberry Dr, Phoenix, AZ 85019 ",85019,0.4909959137439728,0.9306982755661011,0.45696905023151757,159000,https://www.zillow.com/homedetails/4141-W-Mulberry-Dr-Phoenix-AZ-85019/7507323_zpid/,33.4867,-112.149,6621,2018-02-16
1120647,23919574,"2302 W Ironwood Dr, Chandler, AZ 85224 ",85224,0.4909959137439728,0.9306597709655762,0.4569501446299995,240000,https://www.zillow.com/homedetails/2302-W-Ironwood-Dr-Chandler-AZ-85224/8193050_zpid/,33.3247,-111.882,6656,2018-03-23
445988,23949941,"4719 N 92nd Ave, Phoenix, AZ 85037 ",85037,0.4909959137439728,0.9306209087371826,0.4569310634346593,130000,https://www.zillow.com/homedetails/4719-N-92nd-Ave-Phoenix-AZ-85037/7466534_zpid/,33.5063,-112.258,6664,2018-03-31
40028,23875647,"2304 S 66TH Ln, Phoenix, AZ 85043 ",85043,0.4909959137439728,0.9304409921169281,0.4568427251092997,219900,https://www.zillow.com/homedetails/2304-S-66TH-Ln-Phoenix-AZ-85043/67773205_zpid/,33.427,-112.204,6617,2018-02-12
634391,23941763,"1814 W Onza Ave, Mesa, AZ 85202 ",85202,0.4909959137439728,0.9303019046783447,0.45677443374530213,239900,https://www.zillow.com/homedetails/1814-W-Onza-Ave-Mesa-AZ-85202/8191340_zpid/,33.3622,-111.87299999999999,6668,2018-04-04
1123841,23911895,"2713 W Estrella Dr, Chandler, AZ 85224 ",85224,0.4909959137439728,0.9303009212017059,0.4567739508622912,218700,https://www.zillow.com/homedetails/2713-W-Estrella-Dr-Chandler-AZ-85224/8193175_zpid/,33.3327,-111.889,6646,2018-03-13
9029948,23905431,"8835 W Rimrock Dr, Peoria, AZ 85382 ",85382,0.4909959137439728,0.9302630424499512,0.4567553525499619,232500,https://www.zillow.com/homedetails/8835-W-Rimrock-Dr-Peoria-AZ-85382/7892874_zpid/,33.6632,-112.25,6593,2018-01-19
9005657,23871977,"10439 W Papago St, Tolleson, AZ 85353 ",85353,0.4909959137439728,0.9301454424858093,0.45669761144811183,220000,https://www.zillow.com/homedetails/10439-W-Papago-St-Tolleson-AZ-85353/125986296_zpid/,33.4338,-112.24600000000001,6603,2018-01-29
1108948,23885722,"1169 W Nopal Pl, Chandler, AZ 85224 ",85224,0.4909959137439728,0.9300281405448914,0.45664001667444687,244900,https://www.zillow.com/homedetails/1169-W-Nopal-Pl-Chandler-AZ-85224/8175911_zpid/,33.341,-111.86200000000001,6602,2018-01-28
828067,23914869,"3308 N 39TH Ave, Phoenix, AZ 85019 ",85019,0.4909959137439728,0.9298100769519806,0.45653294834139135,159900,https://www.zillow.com/homedetails/3308-N-39TH-Ave-Phoenix-AZ-85019/7509252_zpid/,33.486,-112.14299999999999,6647,2018-03-14
423474,23920179,"8651 N 57TH Dr, Glendale, AZ 85302 ",85302,0.4909959137439728,0.9297132790088654,0.45648542094686295,245000,https://www.zillow.com/homedetails/8651-N-57TH-Dr-Glendale-AZ-85302/55260816_zpid/,33.5631,-112.182,6639,2018-03-06
5231985,23914892,"4221 N 79TH Dr, Phoenix, AZ 85033 ",85033,0.4909959137439728,0.9296404421329498,0.45644965833841855,183000,https://www.zillow.com/homedetails/4221-N-79TH-Dr-Phoenix-AZ-85033/7481959_zpid/,33.4971,-112.229,6630,2018-02-25
9031420,23913768,"15881 N 74TH Ave, Peoria, AZ 85382 ",85382,0.4909959137439728,0.9295145571231842,0.456387849313022,235000,https://www.zillow.com/homedetails/15881-N-74TH-Ave-Peoria-AZ-85382/71605894_zpid/,33.6293,-112.21799999999999,6653,2018-03-20
5187827,23885628,"13232 N 100th Ave, Sun City, AZ 85351 ",85351,0.4909959137439728,0.9294595420360565,0.45636083713004805,135000,https://www.zillow.com/homedetails/13232-N-100th-Ave-Sun-City-AZ-85351/7916258_zpid/,33.6043,-112.273,6600,2018-01-26
447841,23877841,"8329 W Mulberry Dr, Phoenix, AZ 85037 ",85037,0.4909959137439728,0.9294408559799194,0.45635166235284075,175000,https://www.zillow.com/homedetails/8329-W-Mulberry-Dr-Phoenix-AZ-85037/7470394_zpid/,33.486,-112.23899999999999,6597,2018-01-23
500715,23888248,"7341 W Cypress St, Phoenix, AZ 85035 ",85035,0.4909959137439728,0.9293743669986725,0.4563190165347395,172000,https://www.zillow.com/homedetails/7341-W-Cypress-St-Phoenix-AZ-85035/7474860_zpid/,33.472,-112.21799999999999,6622,2018-02-17
9031575,23914636,"9138 W John Cabot Rd, Peoria, AZ 85382 ",85382,0.4909959137439728,0.9292552471160889,0.4562605291591453,225000,https://www.zillow.com/homedetails/9138-W-John-Cabot-Rd-Peoria-AZ-85382/8104798_zpid/,33.6484,-112.256,6654,2018-03-21
414666,23919968,"6513 W Mescal St, Glendale, AZ 85304 ",85304,0.4909959137439728,0.9290139973163605,0.4561420764932871,204900,https://www.zillow.com/homedetails/6513-W-Mescal-St-Glendale-AZ-85304/7699113_zpid/,33.586,-112.199,6648,2018-03-15
251570,23881419,"710 E Sack Dr, Phoenix, AZ 85024 ",85024,0.4909959137439728,0.9289854466915131,0.45612805825315217,240000,https://www.zillow.com/homedetails/710-E-Sack-Dr-Phoenix-AZ-85024/7997524_zpid/,33.6583,-112.065,6620,2018-02-15
1116516,23920475,"1806 N Arrowhead Dr, Chandler, AZ 85224 ",85224,0.4909959137439728,0.9288996756076813,0.45608594500147337,225000,https://www.zillow.com/homedetails/1806-N-Arrowhead-Dr-Chandler-AZ-85224/8193583_zpid/,33.3327,-111.866,6639,2018-03-06
9031657,23915259,"1122 E Villa Theresa Dr, Phoenix, AZ 85022 ",85022,0.4909959137439728,0.9288443028926849,0.45605875722467726,247500,https://www.zillow.com/homedetails/1122-E-Villa-Theresa-Dr-Phoenix-AZ-85022/8002659_zpid/,33.6538,-112.057,6648,2018-03-15
460994,23890564,"2924 N 53RD Pkwy, Phoenix, AZ 85031 ",85031,0.4909959137439728,0.9284341931343079,0.4558573950091276,174500,https://www.zillow.com/homedetails/2924-N-53RD-Pkwy-Phoenix-AZ-85031/7497218_zpid/,33.4826,-112.176,6626,2018-02-21
9031597,23914748,"9745 W Mcrae Way, Peoria, AZ 85382 ",85382,0.4909959137439728,0.928370863199234,0.45582630026978865,246650,https://www.zillow.com/homedetails/9745-W-Mcrae-Way-Peoria-AZ-85382/7896606_zpid/,33.6529,-112.27,6647,2018-03-14
418443,23938166,"5127 W Mountain View Rd, Glendale, AZ 85302 ",85302,0.4909959137439728,0.9282781183719635,0.45578076293857794,130000,https://www.zillow.com/homedetails/5127-W-Mountain-View-Rd-Glendale-AZ-85302/7734363_zpid/,33.5744,-112.17,6661,2018-03-28
433021,23914975,"7211 W Pierson St, Phoenix, AZ 85033 ",85033,0.4909959137439728,0.9281271696090698,0.45570664771281244,160000,https://www.zillow.com/homedetails/7211-W-Pierson-St-Phoenix-AZ-85033/7710763_zpid/,33.5068,-112.214,6650,2018-03-17
832308,23877784,"4147 W Pinchot Ave, Phoenix, AZ 85019 ",85019,0.4909959137439728,0.9281078577041626,0.4556971656464164,175000,https://www.zillow.com/homedetails/4147-W-Pinchot-Ave-Phoenix-AZ-85019/7509015_zpid/,33.482,-112.149,6604,2018-01-30
9029774,23904701,"7414 W Paradise Dr, Peoria, AZ 85345 ",85345,0.4909959137439728,0.9276898503303528,0.4554919257339609,179900,https://www.zillow.com/homedetails/7414-W-Paradise-Dr-Peoria-AZ-85345/7700773_zpid/,33.5939,-112.219,6620,2018-02-15
523366,23877920,"9026 W Windsor Ave, Phoenix, AZ 85037 ",85037,0.4909959137439728,0.9276768565177917,0.4554855458250895,191000,https://www.zillow.com/homedetails/9026-W-Windsor-Ave-Phoenix-AZ-85037/7474171_zpid/,33.4766,-112.255,6606,2018-02-01
387752,23937311,"2222 W Shaw Butte Dr, Phoenix, AZ 85029 ",85029,0.4909959137439728,0.9276539981365204,0.45547432245329045,177000,https://www.zillow.com/homedetails/2222-W-Shaw-Butte-Dr-Phoenix-AZ-85029/7748975_zpid/,33.5961,-112.10700000000001,6662,2018-03-29
450133,23873086,"8659 W Palm Ln, Phoenix, AZ 85037 ",85037,0.4909959137439728,0.9276448488235474,0.45546983017800713,179900,https://www.zillow.com/homedetails/8659-W-Palm-Ln-Phoenix-AZ-85037/7487502_zpid/,33.47,-112.244,6607,2018-02-02
391172,23937321,"3115 W Sahuaro Dr, Phoenix, AZ 85029 ",85029,0.4909959137439728,0.927613765001297,0.45545456814829866,249900,https://www.zillow.com/homedetails/3115-W-Sahuaro-Dr-Phoenix-AZ-85029/7740851_zpid/,33.5836,-112.126,6659,2018-03-26
483296,23891539,"2625 N 73RD Dr, Phoenix, AZ 85035 ",85035,0.4909959137439728,0.9276096820831299,0.45545256345216245,205000,https://www.zillow.com/homedetails/2625-N-73rd-Dr-Phoenix-AZ-85035/95093273_zpid/,33.4771,-112.21600000000001,6623,2018-02-18
441079,23933550,"2725 N 90TH Dr, Phoenix, AZ 85037 ",85037,0.4909959137439728,0.927586704492569,0.45544128154908936,210000,https://www.zillow.com/homedetails/2725-N-90TH-Dr-Phoenix-AZ-85037/7487853_zpid/,33.4779,-112.25299999999999,6662,2018-03-29
9029736,23904559,"14462 N Lakeforest Dr, Sun City, AZ 85351 ",85351,0.4909959137439728,0.9275146424770355,0.4554058993939263,170000,https://www.zillow.com/homedetails/14462-N-Lakeforest-Dr-Sun-City-AZ-85351/7922311_zpid/,33.6164,-112.26700000000001,6625,2018-02-20
478050,23914790,"1807 N 77TH Dr, Phoenix, AZ 85035 ",85035,0.4909959137439728,0.9274331629276276,0.4553658932681133,189900,https://www.zillow.com/homedetails/1807-N-77TH-Dr-Phoenix-AZ-85035/95087672_zpid/,33.4676,-112.225,6646,2018-03-13
9031576,23914627,"9130 W Topeka Dr, Peoria, AZ 85382 ",85382,0.4909959137439728,0.927415519952774,0.4553572306395539,228700,https://www.zillow.com/homedetails/9130-W-Topeka-Dr-Peoria-AZ-85382/67084737_zpid/,33.6583,-112.257,6649,2018-03-16
413457,23938220,"6021 W Shangri La Rd, Glendale, AZ 85304 ",85304,0.4909959137439728,0.9271156489849091,0.45520999521968175,225000,https://www.zillow.com/homedetails/6021-W-Shangri-La-Rd-Glendale-AZ-85304/7698519_zpid/,33.586999999999996,-112.189,6662,2018-03-29
7436448,23881415,"757 E Rosemonte Dr, Phoenix, AZ 85024 ",85024,0.4909959137439728,0.9270058274269104,0.4551560732834634,245900,https://www.zillow.com/homedetails/757-E-Rosemonte-Dr-Phoenix-AZ-85024/7997447_zpid/,33.6568,-112.06299999999999,6596,2018-01-22
1097216,23886156,"901 W Cheyenne Dr, Chandler, AZ 85225 ",85225,0.4909959137439728,0.9269953966140747,0.45515095179698406,240000,https://www.zillow.com/homedetails/901-W-Cheyenne-Dr-Chandler-AZ-85225/8176783_zpid/,33.3463,-111.85600000000001,6618,2018-02-13
504031,23914796,"2207 N 47TH Dr, Phoenix, AZ 85035 ",85035,0.4909959137439728,0.9269775748252869,0.4551422013715136,169000,https://www.zillow.com/homedetails/2207-N-47TH-Dr-Phoenix-AZ-85035/7494471_zpid/,33.4715,-112.161,6655,2018-03-22
9031713,23915791,"4130 W Muriel Dr, Glendale, AZ 85308 ",85308,0.4909959137439728,0.9269151985645294,0.4551115748823671,240000,https://www.zillow.com/homedetails/4130-W-Muriel-Dr-Glendale-AZ-85308/7947225_zpid/,33.6458,-112.149,6636,2018-03-03
9030014,23905762,"7436 W Sanna St, Peoria, AZ 85345 ",85345,0.4909959137439728,0.9268839359283447,0.45509622505574754,214997,https://www.zillow.com/homedetails/7436-W-Sanna-St-Peoria-AZ-85345/7702407_zpid/,33.5693,-112.21600000000001,6596,2018-01-22
412972,23919895,"5718 W Shangri La Rd, Glendale, AZ 85304 ",85304,0.4909959137439728,0.9268465340137482,0.4550778608685144,249000,https://www.zillow.com/homedetails/5718-W-Shangri-La-Rd-Glendale-AZ-85304/7736192_zpid/,33.5872,-112.18299999999999,6647,2018-03-14
2056408,23914192,"7328 W Carol Ave, Peoria, AZ 85345 ",85345,0.4909959137439728,0.9268053770065308,0.45505765294614875,193900,https://www.zillow.com/homedetails/7328-W-Carol-Ave-Peoria-AZ-85345/7702125_zpid/,33.5724,-112.21600000000001,6649,2018-03-16
420581,23882618,"5810 W Alice Ave, Glendale, AZ 85302 ",85302,0.4909959137439728,0.9266856610774994,0.4549988729141843,234500,https://www.zillow.com/homedetails/5810-W-Alice-Ave-Glendale-AZ-85302/7733216_zpid/,33.5645,-112.185,6590,2018-01-16
1370379,23919991,"6634 N 84TH Ln, Glendale, AZ 85305 ",85305,0.4909959137439728,0.9265791475772858,0.4549465752208208,205000,https://www.zillow.com/homedetails/6634-N-84TH-Ln-Glendale-AZ-85305/7461312_zpid/,33.5325,-112.241,6633,2018-02-28
445506,23891936,"4646 N 84TH Ln, Phoenix, AZ 85037 ",85037,0.4909959137439728,0.9265774786472321,0.45494575578298413,198000,https://www.zillow.com/homedetails/4646-N-84TH-Ln-Phoenix-AZ-85037/7481172_zpid/,33.505,-112.242,6627,2018-02-22
411877,23919832,"5315 W Christy Dr, Glendale, AZ 85304 ",85304,0.4909959137439728,0.9265691041946411,0.45494164396098213,240000,https://www.zillow.com/homedetails/5315-W-Christy-Dr-Glendale-AZ-85304/7736616_zpid/,33.5839,-112.17399999999999,6651,2018-03-18
1416474,23938335,"7600 W Krall St, Glendale, AZ 85303 ",85303,0.4909959137439728,0.9265109598636627,0.45491309533206437,245000,https://www.zillow.com/homedetails/7600-W-Krall-St-Glendale-AZ-85303/7463234_zpid/,33.5348,-112.223,6666,2018-04-02
1370616,23920014,"6750 N 89TH Ave, Glendale, AZ 85305 ",85305,0.4909959137439728,0.9264659881591797,0.4548910144089291,217700,https://www.zillow.com/homedetails/6750-N-89TH-Ave-Glendale-AZ-85305/7461686_zpid/,33.5333,-112.251,6630,2018-02-25
9029981,23905553,"7307 W Sunnyslope Ln, Peoria, AZ 85345 ",85345,0.4909959137439728,0.9263415932655334,0.4548299370244582,205000,https://www.zillow.com/homedetails/7307-W-Sunnyslope-Ln-Peoria-AZ-85345/7702241_zpid/,33.5705,-112.21600000000001,6612,2018-02-07
9031702,23915679,"3737 W Wagoner Rd, Glendale, AZ 85308 ",85308,0.4909959137439728,0.9263243079185486,0.45482144998972096,249900,https://www.zillow.com/homedetails/3737-W-Wagoner-Rd-Glendale-AZ-85308/7948264_zpid/,33.6531,-112.141,6657,2018-03-24
831339,23887481,"4008 W Sierra Vista Dr, Phoenix, AZ 85019 ",85019,0.4909959137439728,0.9262272119522095,0.45477377626700743,169900,https://www.zillow.com/homedetails/4008-W-Sierra-Vista-Dr-Phoenix-AZ-85019/7762318_zpid/,33.5322,-112.145,6621,2018-02-16
384648,23937758,"3501 W Belmont Ave, Phoenix, AZ 85051 ",85051,0.4909959137439728,0.9260750114917755,0.4546990464628644,159900,https://www.zillow.com/homedetails/3501-W-Belmont-Ave-Phoenix-AZ-85051/7755842_zpid/,33.5485,-112.135,6635,2018-03-02
411584,23919818,"5226 W Shaw Butte Dr, Glendale, AZ 85304 ",85304,0.4909959137439728,0.9259757995605469,0.4546503338100365,205000,https://www.zillow.com/homedetails/5226-W-Shaw-Butte-Dr-Glendale-AZ-85304/60978707_zpid/,33.596,-112.17200000000001,6655,2018-03-22
9032281,23920178,"7006 W Kings Ave, Peoria, AZ 85382 ",85382,0.4909959137439728,0.92597496509552,0.45464992409111815,225000,https://www.zillow.com/homedetails/7006-W-Kings-Ave-Peoria-AZ-85382/7903074_zpid/,33.6345,-112.21,6639,2018-03-06
487489,23914899,"5021 W Cambridge Ave, Phoenix, AZ 85035 ",85035,0.4909959137439728,0.9258052408695221,0.4545665901896898,175000,https://www.zillow.com/homedetails/5021-W-Cambridge-Ave-Phoenix-AZ-85035/7494009_zpid/,33.477,-112.166,6637,2018-03-04
9024755,23914845,"3026 N 75TH Dr, Phoenix, AZ 85033 ",85033,0.4909959137439728,0.9255180954933167,0.45442560298332246,174000,https://www.zillow.com/homedetails/3026-N-75TH-Dr-Phoenix-AZ-85033/7469531_zpid/,33.4832,-112.221,6629,2018-02-24
1115749,23864072,"1721 W Nopal Dr, Chandler, AZ 85224 ",85224,0.4909959137439728,0.9254757761955261,0.4544048243810348,249900,https://www.zillow.com/homedetails/1721-W-Nopal-Dr-Chandler-AZ-85224/8198402_zpid/,33.3418,-111.874,6581,2018-01-07
1960784,23873070,"7424 W Minnezona Ave, Phoenix, AZ 85033 ",85033,0.4909959137439728,0.9253894984722137,0.4543624623714413,170000,https://www.zillow.com/homedetails/7424-W-Minnezona-Ave-Phoenix-AZ-85033/7710976_zpid/,33.5028,-112.219,6607,2018-02-02
429235,23914962,"6338 W Thomas Rd, Phoenix, AZ 85033 ",85033,0.4909959137439728,0.9253678321838379,0.45435182431238275,224900,https://www.zillow.com/homedetails/6338-W-Thomas-Rd-Phoenix-AZ-85033/7498752_zpid/,33.4807,-112.197,6636,2018-03-03
249458,23915675,"413 E Oraibi Dr, Phoenix, AZ 85024 ",85024,0.4909959137439728,0.9253592491149902,0.45434761006065116,222000,https://www.zillow.com/homedetails/413-E-Oraibi-Dr-Phoenix-AZ-85024/67085271_zpid/,33.6637,-112.068,6655,2018-03-22
461114,23914856,"2943 N 53RD Pkwy, Phoenix, AZ 85031 ",85031,0.4909959137439728,0.9253315329551697,0.4543340015394346,199900,https://www.zillow.com/homedetails/2943-N-53RD-Pkwy-Phoenix-AZ-85031/7497194_zpid/,33.4824,-112.175,6651,2018-03-18
440692,23880113,"2509 N 90th Ln, Phoenix, AZ 85037 ",85037,0.4909959137439728,0.9252856075763702,0.4543114523661069,205000,https://www.zillow.com/homedetails/2509-N-90th-Ln-Phoenix-AZ-85037/7473832_zpid/,33.4751,-112.25399999999999,6620,2018-02-15
421193,23938229,"6154 W Echo Ln, Glendale, AZ 85302 ",85302,0.4909959137439728,0.9252525269985199,0.4542952099375581,210000,https://www.zillow.com/homedetails/6154-W-Echo-Ln-Glendale-AZ-85302/7704172_zpid/,33.5584,-112.193,6667,2018-04-03
9026100,23873397,"8885 W Hollywood Ave, Peoria, AZ 85345 ",85345,0.4909959137439728,0.9251654744148254,0.4542524674746833,239000,https://www.zillow.com/homedetails/8885-W-Hollywood-Ave-Peoria-AZ-85345/95133596_zpid/,33.5895,-112.25,6610,2018-02-05
359488,23941112,"2409 S 90TH Gln, Tolleson, AZ 85353 ",85353,0.4909959137439728,0.9249904155731201,0.4541665142987412,213150,https://www.zillow.com/homedetails/2409-S-90TH-Gln-Tolleson-AZ-85353/67772730_zpid/,33.425,-112.25399999999999,6675,2018-04-11
9025669,23888926,"3607 W Mclellan Blvd, Phoenix, AZ 85019 ",85019,0.4909959137439728,0.9249351918697357,0.45413939968603767,174000,https://www.zillow.com/homedetails/3607-W-Mclellan-Blvd-Phoenix-AZ-85019/7761699_zpid/,33.5325,-112.137,6617,2018-02-12
836574,23884762,"4723 N 40th Dr, Phoenix, AZ 85019 ",85019,0.4909959137439728,0.9249111413955688,0.45412759100149813,170000,https://www.zillow.com/homedetails/4723-N-40th-Dr-Phoenix-AZ-85019/7506747_zpid/,33.507,-112.145,6588,2018-01-14
9031636,23915062,"8027 W Hazelwood St, Phoenix, AZ 85033 ",85033,0.4909959137439728,0.9248453080654144,0.45409526710540415,135000,https://www.zillow.com/homedetails/8027-W-Hazelwood-St-Phoenix-AZ-85033/7482746_zpid/,33.5038,-112.23299999999999,6645,2018-03-12
9015636,23887124,"7118 W Sells Dr, Phoenix, AZ 85033 ",85033,0.4909959137439728,0.9247945249080658,0.45407033278265896,175000,https://www.zillow.com/homedetails/7118-W-Sells-Dr-Phoenix-AZ-85033/88889219_zpid/,33.5022,-112.213,6620,2018-02-15
1414034,23890084,"7334 W Lamar Rd, Glendale, AZ 85303 ",85303,0.4909959137439728,0.924758642911911,0.45405271486917,226000,https://www.zillow.com/homedetails/7334-W-Lamar-Rd-Glendale-AZ-85303/50188064_zpid/,33.5354,-112.21799999999999,6625,2018-02-20
449490,23915041,"8536 W Elm St, Phoenix, AZ 85037 ",85037,0.4909959137439728,0.9247550070285797,0.45405092966531146,189900,https://www.zillow.com/homedetails/8536-W-Elm-St-Phoenix-AZ-85037/7483626_zpid/,33.5063,-112.244,6653,2018-03-20
1409899,23920128,"7018 N 77TH Dr, Glendale, AZ 85303 ",85303,0.4909959137439728,0.9247041940689087,0.45402598070974776,204900,https://www.zillow.com/homedetails/7018-N-77TH-Dr-Glendale-AZ-85303/55260188_zpid/,33.5385,-112.226,6652,2018-03-19
243943,23929305,"18466 N 5TH Ave, Phoenix, AZ 85023 ",85023,0.4909959137439728,0.9246542751789093,0.4540014707387394,244000,https://www.zillow.com/homedetails/18466-N-5TH-Ave-Phoenix-AZ-85023/7956365_zpid/,33.6543,-112.08,6628,2018-02-23
836505,23888930,"4146 W Citrus Way, Phoenix, AZ 85019 ",85019,0.4909959137439728,0.9245904088020325,0.45397011260866726,175000,https://www.zillow.com/homedetails/4146-W-Citrus-Way-Phoenix-AZ-85019/7762092_zpid/,33.5299,-112.149,6623,2018-02-18
350516,23914941,"3920 W Lewis Ave, Phoenix, AZ 85009 ",85009,0.4909959137439728,0.9245813190937042,0.45396564959902097,174900,https://www.zillow.com/homedetails/3920-W-Lewis-Ave-Phoenix-AZ-85009/7512548_zpid/,33.4749,-112.14399999999999,6638,2018-03-05
1406510,23868833,"6760 N 77th Ave, Glendale, AZ 85303 ",85303,0.4909959137439728,0.9245553016662598,0.4539528751484596,195000,https://www.zillow.com/homedetails/6760-N-77th-Ave-Glendale-AZ-85303/7463200_zpid/,33.5359,-112.225,6593,2018-01-19
1120336,23889251,"2231 W Ironwood Dr, Chandler, AZ 85224 ",85224,0.4909959137439728,0.9245210886001587,0.45393607667280733,219900,https://www.zillow.com/homedetails/2231-W-Ironwood-Dr-Chandler-AZ-85224/8192970_zpid/,33.3246,-111.881,6624,2018-02-19
9034562,23940344,"15230 N 85TH Dr, Peoria, AZ 85381 ",85381,0.4909959137439728,0.9244756698608398,0.4539137762573944,220000,https://www.zillow.com/homedetails/15230-N-85TH-Dr-Peoria-AZ-85381/7908952_zpid/,33.6223,-112.245,6660,2018-03-27
9034654,23940894,"9141 W Kimberly Way, Peoria, AZ 85382 ",85382,0.4909959137439728,0.9244115948677063,0.45388231569759263,249900,https://www.zillow.com/homedetails/9141-W-Kimberly-Way-Peoria-AZ-85382/7896500_zpid/,33.6556,-112.257,6669,2018-04-05
445830,23877779,"4710 N 84th Ln, Phoenix, AZ 85037 ",85037,0.4909959137439728,0.9244092106819153,0.45388114507211164,175000,https://www.zillow.com/homedetails/4710-N-84th-Ln-Phoenix-AZ-85037/7481167_zpid/,33.5057,-112.242,6594,2018-01-20
460884,23891543,"2908 N 53RD Pkwy, Phoenix, AZ 85031 ",85031,0.4909959137439728,0.9243503510951996,0.45385224525554957,171900,https://www.zillow.com/homedetails/2908-N-53rd-Pkwy-Phoenix-AZ-85031/7497221_zpid/,33.4825,-112.177,6621,2018-02-16
9029750,23904583,"3902 W Davidson Ln, Phoenix, AZ 85051 ",85051,0.4909959137439728,0.9242041409015656,0.45378045664792754,177000,https://www.zillow.com/homedetails/3902-W-Davidson-Ln-Phoenix-AZ-85051/7746496_zpid/,33.5699,-112.14299999999999,6621,2018-02-16
9031506,23914226,"7335 W Paradise Dr, Peoria, AZ 85345 ",85345,0.4909959137439728,0.9241645336151123,0.4537610096321245,175000,https://www.zillow.com/homedetails/7335-W-Paradise-Dr-Peoria-AZ-85345/7700757_zpid/,33.5936,-112.21799999999999,6652,2018-03-19
961362,23890199,"3986 W Calle Segunda, Chandler, AZ 85226 ",85226,0.4909959137439728,0.9241100549697876,0.4537342608398838,215000,https://www.zillow.com/homedetails/3986-W-Calle-Segunda-Chandler-AZ-85226/8156357_zpid/,33.304,-111.911,6625,2018-02-20
423622,23892126,"8816 N 44TH Ln, Glendale, AZ 85302 ",85302,0.4909959137439728,0.9240773618221283,0.45371820863797563,209000,https://www.zillow.com/homedetails/8816-N-44TH-Ln-Glendale-AZ-85302/7731485_zpid/,33.565,-112.155,6627,2018-02-22
420087,23938198,"5651 W Comet Ave, Glendale, AZ 85302 ",85302,0.4909959137439728,0.9240499138832092,0.4537047318121257,215000,https://www.zillow.com/homedetails/5651-W-Comet-Ave-Glendale-AZ-85302/7735271_zpid/,33.5788,-112.182,6662,2018-03-29
436257,23914816,"2352 N 84TH Dr, Phoenix, AZ 85037 ",85037,0.4909959137439728,0.9240036606788635,0.45368202167779437,190000,https://www.zillow.com/homedetails/2352-N-84TH-Dr-Phoenix-AZ-85037/82818698_zpid/,33.4735,-112.241,6640,2018-03-07
401213,23919676,"11039 N 59TH Dr, Glendale, AZ 85304 ",85304,0.4909959137439728,0.9238750636577606,0.4536188810659132,231900,https://www.zillow.com/homedetails/11039-N-59TH-Dr-Glendale-AZ-85304/7698624_zpid/,33.586999999999996,-112.18700000000001,6655,2018-03-22
8991642,23869584,"9253 W Gold Dust Ave, Peoria, AZ 85345 ",85345,0.4909959137439728,0.9237967431545258,0.4535804260188625,215000,https://www.zillow.com/homedetails/9253-W-Gold-Dust-Ave-Peoria-AZ-85345/7697589_zpid/,33.5765,-112.26,6589,2018-01-15
13812,23933817,"9117 W Serrano St, Phoenix, AZ 85037 ",85037,0.4909959137439728,0.9237126410007477,0.4535391322050204,210000,https://www.zillow.com/homedetails/9117-W-Serrano-St-Phoenix-AZ-85037/54766635_zpid/,33.4973,-112.256,6662,2018-03-29
9031632,23915088,"7131 W Monterey Way, Phoenix, AZ 85033 ",85033,0.4909959137439728,0.9236985146999359,0.4535321962490455,225000,https://www.zillow.com/homedetails/7131-W-Monterey-Way-Phoenix-AZ-85033/62727096_zpid/,33.4842,-112.214,6649,2018-03-16
9034698,23941312,"8402 W Veliana Way, Tolleson, AZ 85353 ",85353,0.4909959137439728,0.9236943423748016,0.45353014765445376,211200,https://www.zillow.com/homedetails/8402-W-Veliana-Way-Tolleson-AZ-85353/58375295_zpid/,33.4239,-112.241,6669,2018-04-05
9029763,23905774,"7055 W Lincoln St, Peoria, AZ 85345 ",85345,0.4909959137439728,0.9235591292381287,0.45346375855686283,198000,https://www.zillow.com/homedetails/7055-W-Lincoln-St-Peoria-AZ-85345/63200896_zpid/,33.5844,-112.211,6620,2018-02-15
9031425,23913807,"19424 N 84TH Ave, Peoria, AZ 85382 ",85382,0.4909959137439728,0.9234754741191864,0.4534226842352984,235900,https://www.zillow.com/homedetails/19424-N-84TH-Ave-Peoria-AZ-85382/8102096_zpid/,33.6609,-112.24,6650,2018-03-17
9020198,23867892,"17950 N 88th Ave, Peoria, AZ 85382 ",85382,0.4909959137439728,0.9233907163143158,0.45338106849944904,249000,https://www.zillow.com/homedetails/17950-N-88th-Ave-Peoria-AZ-85382/7898435_zpid/,33.6467,-112.24799999999999,6590,2018-01-16
433187,23914983,"7228 W Pierson St, Phoenix, AZ 85033 ",85033,0.4909959137439728,0.9233133494853973,0.45334308170259074,180000,https://www.zillow.com/homedetails/7228-W-Pierson-St-Phoenix-AZ-85033/7710740_zpid/,33.5072,-112.214,6653,2018-03-20
9031389,23913600,"10929 N 72ND Dr, Peoria, AZ 85345 ",85345,0.4909959137439728,0.9232661128044128,0.45331988868524853,234900,https://www.zillow.com/homedetails/10929-N-72ND-Dr-Peoria-AZ-85345/7701012_zpid/,33.5845,-112.215,6640,2018-03-07
446948,23914963,"4832 N 84TH Dr, Phoenix, AZ 85037 ",85037,0.4909959137439728,0.9230678975582123,0.4532225658093223,155000,https://www.zillow.com/homedetails/4832-N-84TH-Dr-Phoenix-AZ-85037/7481144_zpid/,33.508,-112.241,6633,2018-02-28
351665,23889721,"6616 W Johnson St, Phoenix, AZ 85043 ",85043,0.4909959137439728,0.9229955971240997,0.4531870665916111,180000,https://www.zillow.com/homedetails/6616-W-Johnson-St-Phoenix-AZ-85043/67788378_zpid/,33.4544,-112.20200000000001,6625,2018-02-20
241092,23943380,"17638 N 6TH Ave, Phoenix, AZ 85023 ",85023,0.4909959137439728,0.9228039681911469,0.45309297756857614,239500,https://www.zillow.com/homedetails/17638-N-6TH-Ave-Phoenix-AZ-85023/7958907_zpid/,33.6467,-112.08200000000001,6659,2018-03-26
561461,23912399,"1056 W Frito Ave, Mesa, AZ 85210 ",85210,0.4909959137439728,0.9226523637771606,0.45301854042080336,199900,https://www.zillow.com/homedetails/1056-W-Frito-Ave-Mesa-AZ-85210/7598718_zpid/,33.3955,-111.855,6638,2018-03-05
423213,23920166,"8553 N 63RD Dr, Glendale, AZ 85302 ",85302,0.4909959137439728,0.9225829243659973,0.4529844459536694,222000,https://www.zillow.com/homedetails/8553-N-63RD-Dr-Glendale-AZ-85302/81980207_zpid/,33.5622,-112.195,6646,2018-03-13
477598,23914855,"1641 N 72ND Ln, Phoenix, AZ 85035 ",85035,0.4909959137439728,0.9225693047046661,0.4529777587556092,173000,https://www.zillow.com/homedetails/1641-N-72ND-Ln-Phoenix-AZ-85035/7475213_zpid/,33.4673,-112.215,6642,2018-03-09
398063,23937418,"4126 W Wethersfield Rd, Phoenix, AZ 85029 ",85029,0.4909959137439728,0.9223311543464661,0.4528608279028763,220000,https://www.zillow.com/homedetails/4126-W-Wethersfield-Rd-Phoenix-AZ-85029/7742649_zpid/,33.5976,-112.148,6666,2018-04-02
519063,23933819,"8841 W Virginia Ave, Phoenix, AZ 85037 ",85037,0.4909959137439728,0.9222137033939362,0.4528031599651188,199900,https://www.zillow.com/homedetails/8841-W-Virginia-Ave-Phoenix-AZ-85037/7473916_zpid/,33.475,-112.25,6657,2018-03-24
8969922,23914756,"9626 W Sunnyslope Ln, Peoria, AZ 85345 ",85345,0.4909959137439728,0.9222112596035004,0.45280196007400075,235000,https://www.zillow.com/homedetails/9626-W-Sunnyslope-Ln-Peoria-AZ-85345/7697901_zpid/,33.5693,-112.26700000000001,6649,2018-03-16
525211,23915067,"9201 W Cambridge Ave, Phoenix, AZ 85037 ",85037,0.4909959137439728,0.9222065508365631,0.4527996480886758,239000,https://www.zillow.com/homedetails/9201-W-Cambridge-Ave-Phoenix-AZ-85037/60974862_zpid/,33.4763,-112.257,6640,2018-03-07
434443,23914970,"7635 W Osborn Rd, Phoenix, AZ 85033 ",85033,0.4909959137439728,0.9221815168857574,0.45278735652112534,154000,https://www.zillow.com/homedetails/7635-W-Osborn-Rd-Phoenix-AZ-85033/7469062_zpid/,33.4871,-112.22399999999999,6645,2018-03-12
830118,23887515,"3742 W San Juan Ave, Phoenix, AZ 85019 ",85019,0.4909959137439728,0.9221661984920502,0.45277983525240995,178000,https://www.zillow.com/homedetails/3742-W-San-Juan-Ave-Phoenix-AZ-85019/7719490_zpid/,33.5191,-112.14,6621,2018-02-16
8952020,23914430,"8419 W Columbine Dr, Peoria, AZ 85381 ",85381,0.4909959137439728,0.9221493303775787,0.4527715530771319,234900,https://www.zillow.com/homedetails/8419-W-Columbine-Dr-Peoria-AZ-85381/7914550_zpid/,33.5984,-112.24,6647,2018-03-14
9032607,23923228,"15026 N Lakeforest Dr, Sun City, AZ 85351 ",85351,0.4909959137439728,0.9221469163894653,0.4527703678188324,210000,https://www.zillow.com/homedetails/15026-N-Lakeforest-Dr-Sun-City-AZ-85351/7922290_zpid/,33.6209,-112.26799999999999,6650,2018-03-17
1348426,23873785,"5406 W Sands Rd, Glendale, AZ 85301 ",85301,0.4909959137439728,0.922027587890625,0.4527117780135086,205000,https://www.zillow.com/homedetails/5406-W-Sands-Rd-Glendale-AZ-85301/7726252_zpid/,33.5525,-112.17399999999999,6607,2018-02-02
251314,23915810,"533 E Utopia Rd, Phoenix, AZ 85024 ",85024,0.4909959137439728,0.9219947755336761,0.4526956672803264,240000,https://www.zillow.com/homedetails/533-E-Utopia-Rd-Phoenix-AZ-85024/7972470_zpid/,33.6619,-112.066,6653,2018-03-20
9031395,23913606,"11812 N 76TH Ln, Peoria, AZ 85345 ",85345,0.4909959137439728,0.9219131767749786,0.45265560262323934,195000,https://www.zillow.com/homedetails/11812-N-76TH-Ln-Peoria-AZ-85345/7680546_zpid/,33.5924,-112.22399999999999,6647,2018-03-14
435693,23933737,"7944 W Pierson St, Phoenix, AZ 85033 ",85033,0.4909959137439728,0.9218614101409912,0.45263018541748323,159900,https://www.zillow.com/homedetails/7944-W-Pierson-St-Phoenix-AZ-85033/7482645_zpid/,33.5069,-112.23100000000001,6667,2018-04-03
9031391,23913583,"11213 N 69TH Ave, Peoria, AZ 85345 ",85345,0.4909959137439728,0.9218168258666992,0.4526082947209886,199900,https://www.zillow.com/homedetails/11213-N-69TH-Ave-Peoria-AZ-85345/7699594_zpid/,33.5872,-112.20700000000001,6640,2018-03-07
833447,23871528,"5713 N 42nd Ave, Phoenix, AZ 85019 ",85019,0.4909959137439728,0.9216853976249695,0.45254376399134877,159900,https://www.zillow.com/homedetails/5713-N-42nd-Ave-Phoenix-AZ-85019/7718429_zpid/,33.5207,-112.148,6602,2018-01-28
9021799,23923181,"13014 N Lakeforest Dr, Sun City, AZ 85351 ",85351,0.4909959137439728,0.9216071665287018,0.4525053528427536,194380,https://www.zillow.com/homedetails/13014-N-Lakeforest-Dr-Sun-City-AZ-85351/8095961_zpid/,33.6035,-112.26899999999999,6635,2018-03-02
450568,23933799,"8734 W Amelia Ave, Phoenix, AZ 85037 ",85037,0.4909959137439728,0.9215650856494904,0.45248469130301405,179900,https://www.zillow.com/homedetails/8734-W-Amelia-Ave-Phoenix-AZ-85037/7471001_zpid/,33.4932,-112.24799999999999,6662,2018-03-29
9021369,23868873,"9609 W Shasta Dr, Sun City, AZ 85351 ",85351,0.4909959137439728,0.9215094745159149,0.45245738646366984,169900,https://www.zillow.com/homedetails/9609-W-Shasta-Dr-Sun-City-AZ-85351/7904384_zpid/,33.6247,-112.266,6593,2018-01-19
830847,23937788,"3855 W Lawrence Rd, Phoenix, AZ 85019 ",85019,0.4909959137439728,0.9214130640029907,0.4524100492957821,199900,https://www.zillow.com/homedetails/3855-W-Lawrence-Rd-Phoenix-AZ-85019/7758482_zpid/,33.5353,-112.14299999999999,6655,2018-03-22
445188,23891613,"4627 N 91ST Dr, Phoenix, AZ 85037 ",85037,0.4909959137439728,0.9213896691799164,0.45239856253324984,236900,https://www.zillow.com/homedetails/4627-N-91st-Dr-Phoenix-AZ-85037/7466477_zpid/,33.5051,-112.256,6626,2018-02-21
9034549,23940268,"11801 N 75TH Dr, Peoria, AZ 85345 ",85345,0.4909959137439728,0.921362429857254,0.45238518813712947,195000,https://www.zillow.com/homedetails/11801-N-75TH-Dr-Peoria-AZ-85345/7680497_zpid/,33.5924,-112.221,6660,2018-03-27
9031613,23914878,"3312 N 61ST Ave, Phoenix, AZ 85033 ",85033,0.4909959137439728,0.9212476909160614,0.4523288517858566,178000,https://www.zillow.com/homedetails/3312-N-61ST-Ave-Phoenix-AZ-85033/7498313_zpid/,33.4852,-112.191,6628,2018-02-23
9029811,23904893,"12100 N 82nd Ave, Peoria, AZ 85345 ",85345,0.4909959137439728,0.9212085604667664,0.45230963889514975,244900,https://www.zillow.com/homedetails/12100-N-82nd-Ave-Peoria-AZ-85345/7680861_zpid/,33.5939,-112.235,6593,2018-01-19
9029929,23905358,"8408 W Surrey Ave, Peoria, AZ 85381 ",85381,0.4909959137439728,0.9210931360721588,0.45225296598905107,249900,https://www.zillow.com/homedetails/8408-W-Surrey-Ave-Peoria-AZ-85381/7914278_zpid/,33.6041,-112.24,6617,2018-02-12
7415090,23937363,"3435 W Dahlia Dr, Phoenix, AZ 85029 ",85029,0.4909959137439728,0.9210019111633301,0.4522081749315845,193500,https://www.zillow.com/homedetails/3435-W-Dahlia-Dr-Phoenix-AZ-85029/7747595_zpid/,33.6027,-112.133,6653,2018-03-20
9029692,23904310,"3614 N 64TH Dr, Phoenix, AZ 85033 ",85033,0.4909959137439728,0.9209350943565369,0.4521753681524796,159000,https://www.zillow.com/homedetails/3614-N-64TH-Dr-Phoenix-AZ-85033/7489243_zpid/,33.4902,-112.199,6622,2018-02-17
459358,23891941,"5643 W Earll Dr, Phoenix, AZ 85031 ",85031,0.4909959137439728,0.9209190905094147,0.4521675103289384,175900,https://www.zillow.com/homedetails/5643-W-Earll-Dr-Phoenix-AZ-85031/7497770_zpid/,33.4843,-112.182,6627,2018-02-22
445581,23914884,"4654 N 84TH Ln, Phoenix, AZ 85037 ",85037,0.4909959137439728,0.9208971560001373,0.45215674057451327,199000,https://www.zillow.com/homedetails/4654-N-84TH-Ln-Phoenix-AZ-85037/7481170_zpid/,33.5052,-112.242,6647,2018-03-14
448086,23915005,"8340 W Glenrosa Ave, Phoenix, AZ 85037 ",85037,0.4909959137439728,0.9208207428455353,0.4521192220278474,178000,https://www.zillow.com/homedetails/8340-W-Glenrosa-Ave-Phoenix-AZ-85037/7466807_zpid/,33.4982,-112.24,6648,2018-03-15
1409866,23920062,"7017 N 77TH Dr, Glendale, AZ 85303 ",85303,0.4909959137439728,0.9207253456115723,0.45207238237578906,203900,https://www.zillow.com/homedetails/7017-N-77TH-Dr-Glendale-AZ-85303/55260208_zpid/,33.5385,-112.225,6652,2018-03-19
384896,23937217,"1495 W Sahuaro Dr, Phoenix, AZ 85029 ",85029,0.4909959137439728,0.9206664860248566,0.452043482559227,149900,https://www.zillow.com/homedetails/1495-W-Sahuaro-Dr-Phoenix-AZ-85029/7785076_zpid/,33.5837,-112.09100000000001,6661,2018-03-28
458026,23877814,"5408 W Mulberry Dr, Phoenix, AZ 85031 ",85031,0.4909959137439728,0.9206197559833527,0.4520205382997995,165000,https://www.zillow.com/homedetails/5408-W-Mulberry-Dr-Phoenix-AZ-85031/7497026_zpid/,33.4869,-112.175,6616,2018-02-11
9032286,23938295,"7114 N 72nd Ave, Glendale, AZ 85303 ",85303,0.4909959137439728,0.920468807220459,0.451946423074034,215000,https://www.zillow.com/homedetails/7114-N-72nd-Ave-Glendale-AZ-85303/2090897811_zpid/,33.5392,-112.214,6660,2018-03-27
524624,23887143,"9123 W Cambridge Ave, Phoenix, AZ 85037 ",85037,0.4909959137439728,0.9204665124416351,0.45194529634700853,232000,https://www.zillow.com/homedetails/9123-W-Cambridge-Ave-Phoenix-AZ-85037/60974866_zpid/,33.4764,-112.257,6620,2018-02-15
9029622,23904013,"5207 W Campo Bello Dr, Glendale, AZ 85308 ",85308,0.4909959137439728,0.9204350411891937,0.4519298440906594,230000,https://www.zillow.com/homedetails/5207-W-Campo-Bello-Dr-Glendale-AZ-85308/8100316_zpid/,33.6426,-112.17200000000001,6625,2018-02-20
9029943,23905404,"6848 W Mission Ln, Peoria, AZ 85345 ",85345,0.4909959137439728,0.9203834533691406,0.45190451468181436,164900,https://www.zillow.com/homedetails/6848-W-Mission-Ln-Peoria-AZ-85345/7702926_zpid/,33.5695,-112.20700000000001,6611,2018-02-06
342036,23935209,"16637 N 19TH Pl, Phoenix, AZ 85022 ",85022,0.4909959137439728,0.92035111784935,0.45188863807372837,239900,https://www.zillow.com/homedetails/16637-N-19TH-Pl-Phoenix-AZ-85022/55030773_zpid/,33.6382,-112.04,6653,2018-03-20
9032615,23929618,"9731 W Brokenstone Dr, Sun City, AZ 85351 ",85351,0.4909959137439728,0.9202357530593872,0.4518319944332667,225000,https://www.zillow.com/homedetails/9731-W-Brokenstone-Dr-Sun-City-AZ-85351/7921987_zpid/,33.6193,-112.26700000000001,6657,2018-03-24
8834499,23920170,"7505 N 45TH Cir, Glendale, AZ 85301 ",85301,0.4909959137439728,0.9201314449310303,0.4517807795684732,244993,https://www.zillow.com/homedetails/7505-N-45TH-Cir-Glendale-AZ-85301/7725210_zpid/,33.546,-112.156,6654,2018-03-21
387689,23937273,"2217 W Windrose Dr, Phoenix, AZ 85029 ",85029,0.4909959137439728,0.9200524687767029,0.4517420025994152,199000,https://www.zillow.com/homedetails/2217-W-Windrose-Dr-Phoenix-AZ-85029/7738884_zpid/,33.6015,-112.10600000000001,6662,2018-03-29
1419842,23883468,"7842 W Fleetwood Ln, Glendale, AZ 85303 ",85303,0.4909959137439728,0.920028805732727,0.45173038414151634,217500,https://www.zillow.com/homedetails/7842-W-Fleetwood-Ln-Glendale-AZ-85303/7462815_zpid/,33.5367,-112.228,6617,2018-02-12
446541,23933646,"4816 N 86TH Dr, Phoenix, AZ 85037 ",85037,0.4909959137439728,0.9200004041194916,0.451716439065474,175000,https://www.zillow.com/homedetails/4816-N-86TH-Dr-Phoenix-AZ-85037/7483470_zpid/,33.5078,-112.24600000000001,6661,2018-03-28
425872,23889873,"4041 N 80TH Dr, Phoenix, AZ 85033 ",85033,0.4909959137439728,0.9199851155281067,0.4517089324295771,180000,https://www.zillow.com/homedetails/4041-N-80TH-Dr-Phoenix-AZ-85033/7478679_zpid/,33.4931,-112.23200000000001,6625,2018-02-20
459359,23914910,"5643 W Catalina Dr, Phoenix, AZ 85031 ",85031,0.4909959137439728,0.9197992980480194,0.45161769680615205,180000,https://www.zillow.com/homedetails/5643-W-Catalina-Dr-Phoenix-AZ-85031/7497720_zpid/,33.4818,-112.182,6656,2018-03-23
395974,23937389,"3839 W Lupine Ave, Phoenix, AZ 85029 ",85029,0.4909959137439728,0.9197934567928314,0.4516148287737236,230000,https://www.zillow.com/homedetails/3839-W-Lupine-Ave-Phoenix-AZ-85029/7744057_zpid/,33.5893,-112.14200000000001,6657,2018-03-24
415173,23882334,"10024 N 65th Ln, Glendale, AZ 85302 ",85302,0.4909959137439728,0.9196132123470306,0.4515263294873604,175000,https://www.zillow.com/homedetails/10024-N-65th-Ln-Glendale-AZ-85302/92346658_zpid/,33.577,-112.2,6603,2018-01-29
1467644,23949589,"19608 N 98th Ave, Peoria, AZ 85382 ",85382,0.4909959137439728,0.9195685982704163,0.45150442415804726,209900,https://www.zillow.com/homedetails/19608-N-98th-Ave-Peoria-AZ-85382/7893541_zpid/,33.6617,-112.27,6662,2018-03-29
448444,23877867,"8407 W Roma Ave, Phoenix, AZ 85037 ",85037,0.4909959137439728,0.9195636510848999,0.4515019951101742,150000,https://www.zillow.com/homedetails/8407-W-Roma-Ave-Phoenix-AZ-85037/7466939_zpid/,33.4999,-112.24,6618,2018-02-13
17802,23914440,"8338 W Bluefield Ave, Peoria, AZ 85382 ",85382,0.4909959137439728,0.9195584356784821,0.4514994343669345,219900,https://www.zillow.com/homedetails/8338-W-Bluefield-Ave-Peoria-AZ-85382/8129243_zpid/,33.6507,-112.23899999999999,6649,2018-03-16
391643,23937422,"4121 W North Ln, Phoenix, AZ 85051 ",85051,0.4909959137439728,0.9195004105567932,0.4514709442692908,175000,https://www.zillow.com/homedetails/4121-W-North-Ln-Phoenix-AZ-85051/7746056_zpid/,33.5812,-112.148,6653,2018-03-20
1469628,23940750,"8372 W Oraibi Dr, Peoria, AZ 85382 ",85382,0.4909959137439728,0.919401615858078,0.45142243647592206,235000,https://www.zillow.com/homedetails/8372-W-Oraibi-Dr-Peoria-AZ-85382/8102069_zpid/,33.6626,-112.23899999999999,6667,2018-04-03
526674,23915055,"9413 W Berkeley Rd, Phoenix, AZ 85037 ",85037,0.4909959137439728,0.9193197786808014,0.4513822547562869,249900,https://www.zillow.com/homedetails/9413-W-Berkeley-Rd-Phoenix-AZ-85037/60047080_zpid/,33.4677,-112.262,6650,2018-03-17
402582,23938058,"11855 N 51ST Dr, Glendale, AZ 85304 ",85304,0.4909959137439728,0.9192763864994049,0.4513609493725328,219900,https://www.zillow.com/homedetails/11855-N-51ST-Dr-Glendale-AZ-85304/60978606_zpid/,33.5948,-112.169,6670,2018-04-06
7652,23868185,"18611 N 22ND St LOT 44, Phoenix, AZ 85024 ",85024,0.4909959137439728,0.9191940426826477,0.4513205188949829,219000,https://www.zillow.com/homedetails/18611-N-22nd-St-LOT-44-Phoenix-AZ-85024/11884597_zpid/,33.6568,-112.03299999999999,6589,2018-01-15
9032611,23923305,"9319 W Arrowhead Dr, Sun City, AZ 85351 ",85351,0.4909959137439728,0.9191870391368866,0.4513170801826325,163000,https://www.zillow.com/homedetails/9319-W-Arrowhead-Dr-Sun-City-AZ-85351/7908165_zpid/,33.6099,-112.26,6638,2018-03-05
400927,23919688,"11014 N 59TH Ln, Glendale, AZ 85304 ",85304,0.4909959137439728,0.9191559553146362,0.45130181815292403,235000,https://www.zillow.com/homedetails/11014-N-59TH-Ln-Glendale-AZ-85304/7698599_zpid/,33.5861,-112.18799999999999,6634,2018-03-01
9024754,23889061,"2007 N 70th Dr, Phoenix, AZ 85035 ",85035,0.4909959137439728,0.9191206991672516,0.4512845075286238,159000,https://www.zillow.com/homedetails/2007-N-70th-Dr-Phoenix-AZ-85035/92350230_zpid/,33.4701,-112.211,6622,2018-02-17
139899,23929627,"9827 W Wrangler Dr, Sun City, AZ 85373 ",85373,0.4909959137439728,0.9191078841686249,0.45127821541666346,205000,https://www.zillow.com/homedetails/9827-W-Wrangler-Dr-Sun-City-AZ-85373/8095448_zpid/,33.6396,-112.272,6655,2018-03-22
9028736,23900205,"6736 W Kings Ave, Peoria, AZ 85382 ",85382,0.4909959137439728,0.9190757274627686,0.45126242660548854,200000,https://www.zillow.com/homedetails/6736-W-Kings-Ave-Peoria-AZ-85382/7902943_zpid/,33.6345,-112.205,6627,2018-02-22
387630,23949833,"3746 W Puget Ave, Phoenix, AZ 85051 ",85051,0.4909959137439728,0.919000118970871,0.4512253031449225,194500,https://www.zillow.com/homedetails/3746-W-Puget-Ave-Phoenix-AZ-85051/7754271_zpid/,33.567,-112.141,6649,2018-03-16
402571,23938055,"11849 N 51ST Dr, Glendale, AZ 85304 ",85304,0.4909959137439728,0.9189817011356354,0.4512162600630818,210000,https://www.zillow.com/homedetails/11849-N-51ST-Dr-Glendale-AZ-85304/60978607_zpid/,33.5947,-112.169,6670,2018-04-06
9031629,23915015,"6315 W Cheery Lynn Rd, Phoenix, AZ 85033 ",85033,0.4909959137439728,0.918969064950943,0.4512100557480325,185000,https://www.zillow.com/homedetails/6315-W-Cheery-Lynn-Rd-Phoenix-AZ-85033/7498580_zpid/,33.4847,-112.196,6655,2018-03-22
9026764,23893499,"9915 W Sandstone Dr, Sun City, AZ 85351 ",85351,0.4909959137439728,0.9188458025455475,0.4511495344106651,139900,https://www.zillow.com/homedetails/9915-W-Sandstone-Dr-Sun-City-AZ-85351/7905590_zpid/,33.6233,-112.274,6597,2018-01-23
9034550,23940272,"11902 N 73RD Ave, Peoria, AZ 85345 ",85345,0.4909959137439728,0.9188415706157684,0.4511474565504363,199900,https://www.zillow.com/homedetails/11902-N-73RD-Ave-Peoria-AZ-85345/7700720_zpid/,33.5934,-112.21600000000001,6659,2018-03-26
9030025,23905718,"7026 W Brown St, Peoria, AZ 85345 ",85345,0.4909959137439728,0.9187953472137451,0.4511247610489235,224900,https://www.zillow.com/homedetails/7026-W-Brown-St-Peoria-AZ-85345/7701724_zpid/,33.5772,-112.21,6606,2018-02-01
417983,23889534,"4933 W Golden Ln, Glendale, AZ 85302 ",85302,0.4909959137439728,0.9187516868114471,0.4511033239698028,200000,https://www.zillow.com/homedetails/4933-W-Golden-Ln-Glendale-AZ-85302/7730593_zpid/,33.5645,-112.166,6623,2018-02-18
9032346,23921566,"538 W Monterey St, Chandler, AZ 85225 ",85225,0.4909959137439728,0.9187200367450714,0.4510877839165426,171400,https://www.zillow.com/homedetails/538-W-Monterey-St-Chandler-AZ-85225/8187065_zpid/,33.315,-111.84899999999999,6630,2018-02-25
1414405,23883372,"7358 W Peppertree Ln, Glendale, AZ 85303 ",85303,0.4909959137439728,0.9187013506889343,0.4510786091393353,242000,https://www.zillow.com/homedetails/7358-W-Peppertree-Ln-Glendale-AZ-85303/50188040_zpid/,33.5376,-112.21700000000001,6600,2018-01-26
249685,23929319,"421 E Kerry Ln, Phoenix, AZ 85024 ",85024,0.4909959137439728,0.9186573028564453,0.4510569818335739,200000,https://www.zillow.com/homedetails/421-E-Kerry-Ln-Phoenix-AZ-85024/7972492_zpid/,33.6603,-112.069,6649,2018-03-16
491981,23914928,"5633 W Monte Vista Rd, Phoenix, AZ 85035 ",85035,0.4909959137439728,0.9186483919620514,0.4510526066208387,179900,https://www.zillow.com/homedetails/5633-W-Monte-Vista-Rd-Phoenix-AZ-85035/7492461_zpid/,33.4721,-112.182,6647,2018-03-14
9031526,23914320,"7927 W Shaw Butte Dr, Peoria, AZ 85345 ",85345,0.4909959137439728,0.9186288714408875,0.45104302212471303,210000,https://www.zillow.com/homedetails/7927-W-Shaw-Butte-Dr-Peoria-AZ-85345/7680685_zpid/,33.5949,-112.23,6655,2018-03-22
9034352,23937883,"3813 W Claremont St, Phoenix, AZ 85019 ",85019,0.4909959137439728,0.9186229407787323,0.45104011019382906,208000,https://www.zillow.com/homedetails/3813-W-Claremont-St-Phoenix-AZ-85019/92351549_zpid/,33.5281,-112.14200000000001,6652,2018-03-19
445268,23933640,"4631 N 91ST Dr, Phoenix, AZ 85037 ",85037,0.4909959137439728,0.9185736179351807,0.45101589287919097,186500,https://www.zillow.com/homedetails/4631-N-91ST-Dr-Phoenix-AZ-85037/7466476_zpid/,33.5053,-112.256,6662,2018-03-29
41535,23889260,"6314 W Mohave St, Phoenix, AZ 85043 ",85043,0.4909959137439728,0.9185534417629242,0.45100598646105805,190000,https://www.zillow.com/homedetails/6314-W-Mohave-St-Phoenix-AZ-85043/55257271_zpid/,33.431999999999995,-112.196,6623,2018-02-18
9033772,23933816,"7139 W Montecito Ave, Phoenix, AZ 85033 ",85033,0.4909959137439728,0.918543130159378,0.45100092350585275,199900,https://www.zillow.com/homedetails/7139-W-Montecito-Ave-Phoenix-AZ-85033/7711428_zpid/,33.4998,-112.213,6659,2018-03-26
430095,23933707,"6516 W Flower St, Phoenix, AZ 85033 ",85033,0.4909959137439728,0.9185285866260529,0.4509937826904187,179999,https://www.zillow.com/homedetails/6516-W-Flower-St-Phoenix-AZ-85033/7498859_zpid/,33.4864,-112.2,6657,2018-03-24
407945,23938223,"6026 W Redfield Rd, Glendale, AZ 85306 ",85306,0.4909959137439728,0.91840460896492,0.45093291016540693,175000,https://www.zillow.com/homedetails/6026-W-Redfield-Rd-Glendale-AZ-85306/7910698_zpid/,33.6138,-112.18799999999999,6663,2018-03-30
9026770,23893524,"1518 W Marlboro Dr, Chandler, AZ 85224 ",85224,0.4909959137439728,0.918355256319046,0.45090867821795033,237500,https://www.zillow.com/homedetails/1518-W-Marlboro-Dr-Chandler-AZ-85224/8176555_zpid/,33.3476,-111.87,6591,2018-01-17
9034320,23937446,"2229 W Larkspur Dr, Phoenix, AZ 85029 ",85029,0.4909959137439728,0.9183403253555298,0.4509013471758756,165000,https://www.zillow.com/homedetails/2229-W-Larkspur-Dr-Phoenix-AZ-85029/7738628_zpid/,33.5999,-112.10700000000001,6650,2018-03-17
423604,23883734,"8812 N 57TH Dr, Glendale, AZ 85302 ",85302,0.4909959137439728,0.918295294046402,0.4508792369871033,239000,https://www.zillow.com/homedetails/8812-N-57TH-Dr-Glendale-AZ-85302/7733242_zpid/,33.5658,-112.18299999999999,6603,2018-01-29
9031552,23914473,"8540 W Shaw Butte Dr, Peoria, AZ 85345 ",85345,0.4909959137439728,0.9182695150375366,0.45086657959909004,235000,https://www.zillow.com/homedetails/8540-W-Shaw-Butte-Dr-Peoria-AZ-85345/7685370_zpid/,33.5951,-112.243,6641,2018-03-08
411698,23919819,"5245 W Christy Dr, Glendale, AZ 85304 ",85304,0.4909959137439728,0.9182688295841217,0.45086624304426426,226000,https://www.zillow.com/homedetails/5245-W-Christy-Dr-Glendale-AZ-85304/7737073_zpid/,33.5839,-112.17299999999999,6655,2018-03-22
406444,23938189,"5225 W Evans Dr, Glendale, AZ 85306 ",85306,0.4909959137439728,0.9182383418083191,0.45085127367092603,232000,https://www.zillow.com/homedetails/5225-W-Evans-Dr-Glendale-AZ-85306/8097358_zpid/,33.6173,-112.17200000000001,6661,2018-03-28
828943,23890684,"3619 W Krall St, Phoenix, AZ 85019 ",85019,0.4909959137439728,0.918177604675293,0.4508214519867977,179990,https://www.zillow.com/homedetails/3619-W-Krall-St-Phoenix-AZ-85019/7761766_zpid/,33.5341,-112.137,6626,2018-02-21
1408259,23883188,"6919 N 73rd Dr, Glendale, AZ 85303 ",85303,0.4909959137439728,0.9181079864501953,0.4507872697227526,214000,https://www.zillow.com/homedetails/6919-N-73rd-Dr-Glendale-AZ-85303/7706959_zpid/,33.5365,-112.21600000000001,6608,2018-02-03
9034627,23940735,"8032 W Dahlia Dr, Peoria, AZ 85381 ",85381,0.4909959137439728,0.9179627597332001,0.4507159639981415,235000,https://www.zillow.com/homedetails/8032-W-Dahlia-Dr-Peoria-AZ-85381/8101152_zpid/,33.6023,-112.23299999999999,6662,2018-03-29
483772,23877702,"2643 N 45TH Dr, Phoenix, AZ 85035 ",85035,0.4909959137439728,0.9178446233272552,0.4506579595055582,170000,https://www.zillow.com/homedetails/2643-N-45TH-Dr-Phoenix-AZ-85035/7499311_zpid/,33.4785,-112.15700000000001,6604,2018-01-30
8931812,23923293,"9608 W Indian Hills Dr, Sun City, AZ 85351 ",85351,0.4909959137439728,0.9178417921066284,0.4506565693877995,199900,https://www.zillow.com/homedetails/9608-W-Indian-Hills-Dr-Sun-City-AZ-85351/7921775_zpid/,33.6218,-112.265,6650,2018-03-17
461084,23877712,"2937 N 55th Ave, Phoenix, AZ 85031 ",85031,0.4909959137439728,0.9178194105625153,0.4506455801410967,165000,https://www.zillow.com/homedetails/2937-N-55th-Ave-Phoenix-AZ-85031/7497240_zpid/,33.4819,-112.178,6612,2018-02-07
9029867,23905119,"9707 W Caron Dr, Peoria, AZ 85345 ",85345,0.4909959137439728,0.9177804291248322,0.4506264404144824,206900,https://www.zillow.com/homedetails/9707-W-Caron-Dr-Peoria-AZ-85345/95113869_zpid/,33.5663,-112.26899999999999,6601,2018-01-27
836288,23937804,"3940 W Rancho Dr, Phoenix, AZ 85019 ",85019,0.4909959137439728,0.9177767336368561,0.45062462594498687,235000,https://www.zillow.com/homedetails/3940-W-Rancho-Dr-Phoenix-AZ-85019/7718547_zpid/,33.5226,-112.145,6657,2018-03-24
460843,23890927,"2901 N 55TH Ave, Phoenix, AZ 85031 ",85031,0.4909959137439728,0.9177544414997101,0.45061368059673956,159000,https://www.zillow.com/homedetails/2901-N-55th-Ave-Phoenix-AZ-85031/7497233_zpid/,33.4808,-112.178,6621,2018-02-16
9031562,23914551,"8765 W Bluefield Ave, Peoria, AZ 85382 ",85382,0.4909959137439728,0.9176476001739502,0.45056122194237247,224000,https://www.zillow.com/homedetails/8765-W-Bluefield-Ave-Peoria-AZ-85382/2090492868_zpid/,33.6511,-112.25,6656,2018-03-23
41510,23941218,"631 N 69TH Ave, Phoenix, AZ 85043 ",85043,0.4909959137439728,0.9176187515258789,0.45054705737405243,181999,https://www.zillow.com/homedetails/631-N-69TH-Ave-Phoenix-AZ-85043/7476327_zpid/,33.455999999999996,-112.208,6660,2018-03-27
233894,23943403,"19214 N 2ND Ave, Phoenix, AZ 85027 ",85027,0.4909959137439728,0.9175980389118195,0.4505368875651863,214999,https://www.zillow.com/homedetails/19214-N-2ND-Ave-Phoenix-AZ-85027/7968750_zpid/,33.6609,-112.07600000000001,6663,2018-03-30
9034166,23935411,"3034 E Kings Ave, Phoenix, AZ 85032 ",85032,0.4909959137439728,0.9174860119819641,0.450481882800398,239900,https://www.zillow.com/homedetails/3034-E-Kings-Ave-Phoenix-AZ-85032/62731424_zpid/,33.637,-112.016,6668,2018-04-04
9029842,23905028,"9830 W Kerry Ln, Peoria, AZ 85382 ",85382,0.4909959137439728,0.9174560010433197,0.450467147552156,221500,https://www.zillow.com/homedetails/9830-W-Kerry-Ln-Peoria-AZ-85382/7893295_zpid/,33.6593,-112.272,6608,2018-02-03
9027668,23915751,"4828 W Kristal Way, Glendale, AZ 85308 ",85308,0.4909959137439728,0.9174476265907288,0.450463035730154,239900,https://www.zillow.com/homedetails/4828-W-Kristal-Way-Glendale-AZ-85308/7939901_zpid/,33.6616,-112.165,6631,2018-02-26
485999,23881464,"4650 W Hubbell St, Phoenix, AZ 85035 ",85035,0.4909959137439728,0.9174441695213318,0.45046133832320656,173000,https://www.zillow.com/homedetails/4650-W-Hubbell-St-Phoenix-AZ-85035/7494965_zpid/,33.4703,-112.16,6620,2018-02-15
9019126,23937769,"3703 W Lawrence Rd, Phoenix, AZ 85019 ",85019,0.4909959137439728,0.9174342155456543,0.4504564509618234,228000,https://www.zillow.com/homedetails/3703-W-Lawrence-Rd-Phoenix-AZ-85019/7758466_zpid/,33.5354,-112.139,6654,2018-03-21
9031594,23914688,"9544 W Echo Ln, Peoria, AZ 85345 ",85345,0.4909959137439728,0.9173727631568909,0.45042627809005076,245500,https://www.zillow.com/homedetails/9544-W-Echo-Ln-Peoria-AZ-85345/7687535_zpid/,33.5581,-112.266,6651,2018-03-18
15301,23888262,"9312 W Madison St, Tolleson, AZ 85353 ",85353,0.4909959137439728,0.917341411113739,0.45041088436497567,164900,https://www.zillow.com/homedetails/9312-W-Madison-St-Tolleson-AZ-85353/7460113_zpid/,33.4457,-112.26100000000001,6622,2018-02-17
350999,23875711,"6522 W Preston Ln, Phoenix, AZ 85043 ",85043,0.4909959137439728,0.9173197746276855,0.45040026093873564,230000,https://www.zillow.com/homedetails/6522-W-Preston-Ln-Phoenix-AZ-85043/62727413_zpid/,33.4236,-112.20100000000001,6561,2017-12-18
9031419,23913764,"15724 N 90TH Ave, Peoria, AZ 85382 ",85382,0.4909959137439728,0.917319655418396,0.4504002024074616,216000,https://www.zillow.com/homedetails/15724-N-90TH-Ave-Peoria-AZ-85382/7903529_zpid/,33.6268,-112.25200000000001,6656,2018-03-23
397615,23937394,"4056 W Mescal St, Phoenix, AZ 85029 ",85029,0.4909959137439728,0.9171884655952454,0.45033578874036984,209000,https://www.zillow.com/homedetails/4056-W-Mescal-St-Phoenix-AZ-85029/7744729_zpid/,33.5863,-112.147,6648,2018-03-15
492007,23914976,"5634 W Lewis Ave, Phoenix, AZ 85035 ",85035,0.4909959137439728,0.9170640707015991,0.4502747113558989,171500,https://www.zillow.com/homedetails/5634-W-Lewis-Ave-Phoenix-AZ-85035/7492061_zpid/,33.4749,-112.182,6656,2018-03-23
490685,23873517,"5511 W Windsor Ave, Phoenix, AZ 85035 ",85035,0.4909959137439728,0.9170403778553009,0.4502630782651815,169000,https://www.zillow.com/homedetails/5511-W-Windsor-Ave-Phoenix-AZ-85035/7491875_zpid/,33.4779,-112.178,6611,2018-02-06
9029861,23905103,"8642 W Echo Ln, Peoria, AZ 85345 ",85345,0.4909959137439728,0.9170143306255341,0.45025028918180166,185000,https://www.zillow.com/homedetails/8642-W-Echo-Ln-Peoria-AZ-85345/50187500_zpid/,33.5583,-112.24600000000001,6617,2018-02-12
1127341,23920612,"2909 W Curry St, Chandler, AZ 85224 ",85224,0.4909959137439728,0.916994571685791,0.4502405876231279,238700,https://www.zillow.com/homedetails/2909-W-Curry-St-Chandler-AZ-85224/8197532_zpid/,33.3541,-111.89299999999999,6628,2018-02-23
830424,23884627,"3812 W Lamar Rd, Phoenix, AZ 85019 ",85019,0.4909959137439728,0.9169398844242096,0.4502137364011576,204000,https://www.zillow.com/homedetails/3812-W-Lamar-Rd-Phoenix-AZ-85019/7758401_zpid/,33.5365,-112.141,6615,2018-02-10
459758,23914947,"5719 W Roma Ave, Phoenix, AZ 85031 ",85031,0.4909959137439728,0.9169236421585083,0.4502057615150683,129000,https://www.zillow.com/homedetails/5719-W-Roma-Ave-Phoenix-AZ-85031/7712867_zpid/,33.4994,-112.18299999999999,6655,2018-03-22
381338,23937717,"2942 W Cactus Wren Dr, Phoenix, AZ 85051 ",85051,0.4909959137439728,0.916899561882019,0.45019393819771025,245000,https://www.zillow.com/homedetails/2942-W-Cactus-Wren-Dr-Phoenix-AZ-85051/7757145_zpid/,33.5397,-112.124,6641,2018-03-08
395110,23937400,"3717 W Columbine Dr, Phoenix, AZ 85029 ",85029,0.4909959137439728,0.9168922603130341,0.4501903531571747,195000,https://www.zillow.com/homedetails/3717-W-Columbine-Dr-Phoenix-AZ-85029/7743204_zpid/,33.5989,-112.139,6645,2018-03-12
9029042,23901527,"10834 N Balboa Dr, Sun City, AZ 85351 ",85351,0.4909959137439728,0.9168922603130341,0.4501903531571747,174900,https://www.zillow.com/homedetails/10834-N-Balboa-Dr-Sun-City-AZ-85351/7689600_zpid/,33.584,-112.274,6621,2018-02-16
415150,23919739,"10021 N 53RD Ave, Glendale, AZ 85302 ",85302,0.4909959137439728,0.9168231785297394,0.45015643428386287,238900,https://www.zillow.com/homedetails/10021-N-53RD-Ave-Glendale-AZ-85302/7735790_zpid/,33.5774,-112.17299999999999,6631,2018-02-26
9031418,23913746,"15708 N 90TH Ave, Peoria, AZ 85382 ",85382,0.4909959137439728,0.9167709946632385,0.4501308122186476,219900,https://www.zillow.com/homedetails/15708-N-90TH-Ave-Peoria-AZ-85382/7903531_zpid/,33.6268,-112.25200000000001,6655,2018-03-22
830423,23937776,"3812 W Missouri Ave, Phoenix, AZ 85019",85019,0.4909959137439728,0.9166928827762604,0.4500924596013265,162000,"https://mcassessor.maricopa.gov/mcs.php?q=3812 W Missouri Ave, Phoenix, AZ 85019",33.5169,-112.14200000000001,6626,2018-02-21
9031560,23914531,"8715 W Puget Ave, Peoria, AZ 85345 ",85345,0.4909959137439728,0.9166233539581299,0.45005832123573697,175000,https://www.zillow.com/homedetails/8715-W-Puget-Ave-Peoria-AZ-85345/7683996_zpid/,33.5654,-112.24700000000001,6649,2018-03-16
9031628,23915097,"6608 W Wolf St, Phoenix, AZ 85033 ",85033,0.4909959137439728,0.9166227579116821,0.4500580285793667,199000,https://www.zillow.com/homedetails/6608-W-Wolf-St-Phoenix-AZ-85033/7712485_zpid/,33.5077,-112.20200000000001,6639,2018-03-06
391161,23937420,"4101 W Ruth Ave, Phoenix, AZ 85051 ",85051,0.4909959137439728,0.9166222512722015,0.450057779821452,219000,https://www.zillow.com/homedetails/4101-W-Ruth-Ave-Phoenix-AZ-85051/7753355_zpid/,33.5623,-112.147,6652,2018-03-19
421871,23919975,"6425 W Puget Ave, Glendale, AZ 85302 ",85302,0.4909959137439728,0.9165747463703156,0.4500344551087432,195000,https://www.zillow.com/homedetails/6425-W-Puget-Ave-Glendale-AZ-85302/7704539_zpid/,33.5666,-112.198,6656,2018-03-23
9031502,23914273,"7102 W Brown St, Peoria, AZ 85345 ",85345,0.4909959137439728,0.916555643081665,0.4500250754720767,210000,https://www.zillow.com/homedetails/7102-W-Brown-St-Peoria-AZ-85345/7701394_zpid/,33.5774,-112.212,6648,2018-03-15
449407,23915079,"8528 W Amelia Ave, Phoenix, AZ 85037 ",85037,0.4909959137439728,0.9165458977222443,0.45002029054042314,180000,https://www.zillow.com/homedetails/8528-W-Amelia-Ave-Phoenix-AZ-85037/7469628_zpid/,33.4932,-112.244,6652,2018-03-19
522131,23915056,"9008 W Pinchot Ave, Phoenix, AZ 85037 ",85037,0.4909959137439728,0.9164297878742218,0.4499632810794987,199000,https://www.zillow.com/homedetails/9008-W-Pinchot-Ave-Phoenix-AZ-85037/55257098_zpid/,33.4824,-112.25299999999999,6654,2018-03-21
9025496,23933756,"8202 W Avalon Dr, Phoenix, AZ 85033 ",85033,0.4909959137439728,0.9164194166660309,0.44995818885865635,188999,https://www.zillow.com/homedetails/8202-W-Avalon-Dr-Phoenix-AZ-85033/7479720_zpid/,33.4825,-112.235,6657,2018-03-24
832437,23872577,"4208 W Mulberry Dr, Phoenix, AZ 85019 ",85019,0.4909959137439728,0.9164193570613861,0.4499581595930193,139000,https://www.zillow.com/homedetails/4208-W-Mulberry-Dr-Phoenix-AZ-85019/7507342_zpid/,33.4871,-112.15,6605,2018-01-31
407754,23882612,"5927 W Redfield Rd, Glendale, AZ 85306 ",85306,0.4909959137439728,0.9164187610149384,0.4499578669366491,165000,https://www.zillow.com/homedetails/5927-W-Redfield-Rd-Glendale-AZ-85306/7910715_zpid/,33.6135,-112.18700000000001,6591,2018-01-17
9029830,23904987,"9503 N 82nd Ln, Peoria, AZ 85345 ",85345,0.4909959137439728,0.9164146482944489,0.44995584760769436,189900,https://www.zillow.com/homedetails/9503-N-82nd-Ln-Peoria-AZ-85345/67765087_zpid/,33.571,-112.236,6621,2018-02-16
1937199,23887132,"7142 W Westview Dr, Phoenix, AZ 85033 ",85033,0.4909959137439728,0.9163955748081207,0.4499464826038464,174000,https://www.zillow.com/homedetails/7142-W-Westview-Dr-Phoenix-AZ-85033/7711546_zpid/,33.4979,-112.213,6621,2018-02-16
418482,23919845,"5133 W Purdue Ave, Glendale, AZ 85302 ",85302,0.4909959137439728,0.9162892699241638,0.44989428734021253,229900,https://www.zillow.com/homedetails/5133-W-Purdue-Ave-Glendale-AZ-85302/7734426_zpid/,33.5739,-112.171,6644,2018-03-11
9029804,23904860,"6849 W Yucca St, Peoria, AZ 85345 ",85345,0.4909959137439728,0.9162718951702118,0.4498857564070198,225000,https://www.zillow.com/homedetails/6849-W-Yucca-St-Peoria-AZ-85345/7699653_zpid/,33.5881,-112.20700000000001,6620,2018-02-15
9033206,23929346,"18649 N 42ND Ave, Glendale, AZ 85308 ",85308,0.4909959137439728,0.9161931872367859,0.4498471111333284,234900,https://www.zillow.com/homedetails/18649-N-42ND-Ave-Glendale-AZ-85308/7935950_zpid/,33.656,-112.149,6646,2018-03-13
8997765,23873388,"8065 W Hatcher Rd, Peoria, AZ 85345 ",85345,0.4909959137439728,0.916185051202774,0.44984311637387453,247900,https://www.zillow.com/homedetails/8065-W-Hatcher-Rd-Peoria-AZ-85345/7682597_zpid/,33.5702,-112.23200000000001,6610,2018-02-05
9029935,23905376,"9180 W Villa Rita Dr, Peoria, AZ 85382 ",85382,0.4909959137439728,0.9161265790462494,0.4498144067839531,249900,https://www.zillow.com/homedetails/9180-W-Villa-Rita-Dr-Peoria-AZ-85382/8104842_zpid/,33.6476,-112.257,6598,2018-01-24
9029957,23905476,"6803 W Jenan Dr, Peoria, AZ 85345 ",85345,0.4909959137439728,0.9161255955696106,0.4498139239009422,216000,https://www.zillow.com/homedetails/6803-W-Jenan-Dr-Peoria-AZ-85345/7699810_zpid/,33.5919,-112.205,6605,2018-01-31
423259,23883620,"8604 N 54TH Dr, Glendale, AZ 85302 ",85302,0.4909959137439728,0.9161116778850555,0.4498070903746969,239900,https://www.zillow.com/homedetails/8604-N-54TH-Dr-Glendale-AZ-85302/7733811_zpid/,33.5626,-112.177,6620,2018-02-15
9022220,23879922,"3934 W Sheridan St, Phoenix, AZ 85009 ",85009,0.4909959137439728,0.9160841405391693,0.4497935696503914,172000,https://www.zillow.com/homedetails/3934-W-Sheridan-St-Phoenix-AZ-85009/7512512_zpid/,33.4754,-112.145,6614,2018-02-09
9029848,23905048,"8468 W Audrey Ln, Peoria, AZ 85382 ",85382,0.4909959137439728,0.9160427451133728,0.44977324466547763,249000,https://www.zillow.com/homedetails/8468-W-Audrey-Ln-Peoria-AZ-85382/8128997_zpid/,33.6521,-112.242,6592,2018-01-18
9029927,23905344,"11212 N 76th Dr, Peoria, AZ 85345 ",85345,0.4909959137439728,0.9160000085830688,0.4497522612037308,180000,https://www.zillow.com/homedetails/11212-N-76th-Dr-Peoria-AZ-85345/7681911_zpid/,33.5861,-112.22399999999999,6620,2018-02-15
398236,23937527,"8743 N 30TH Ave, Phoenix, AZ 85051 ",85051,0.4909959137439728,0.9159072935581207,0.4497067385053386,170000,https://www.zillow.com/homedetails/8743-N-30TH-Ave-Phoenix-AZ-85051/7750474_zpid/,33.5656,-112.124,6647,2018-03-14
9016482,23874213,"7522 W Turquoise Ave, Peoria, AZ 85345 ",85345,0.4909959137439728,0.9158872067928314,0.4496968759856612,199000,https://www.zillow.com/homedetails/7522-W-Turquoise-Ave-Peoria-AZ-85345/7682171_zpid/,33.5747,-112.221,6613,2018-02-08
9033763,23933669,"4214 N 74TH Dr, Phoenix, AZ 85033 ",85033,0.4909959137439728,0.9158850610256195,0.4496958224227283,186800,https://www.zillow.com/homedetails/4214-N-74TH-Dr-Phoenix-AZ-85033/7711097_zpid/,33.4975,-112.22,6657,2018-03-24
9031493,23914127,"6868 W Cheryl Dr, Peoria, AZ 85345 ",85345,0.4909959137439728,0.9158816337585449,0.4496941396485994,225000,https://www.zillow.com/homedetails/6868-W-Cheryl-Dr-Peoria-AZ-85345/7702035_zpid/,33.5782,-112.20700000000001,6641,2018-03-08
412814,23882559,"5615 W Mescal St, Glendale, AZ 85304 ",85304,0.4909959137439728,0.915867805480957,0.4496873500208096,199999,https://www.zillow.com/homedetails/5615-W-Mescal-St-Glendale-AZ-85304/7736409_zpid/,33.5861,-112.18,6612,2018-02-07
473315,23937881,"6031 N 32ND Ave, Phoenix, AZ 85017 ",85017,0.4909959137439728,0.9157231450080872,0.44961632231975024,176000,https://www.zillow.com/homedetails/6031-N-32ND-Ave-Phoenix-AZ-85017/7760177_zpid/,33.5254,-112.12799999999999,6653,2018-03-20
1850957,23888709,"7907 W Sweetwater Ave, Peoria, AZ 85381 ",85381,0.4909959137439728,0.9157092571258545,0.44960950342632344,229500,https://www.zillow.com/homedetails/7907-W-Sweetwater-Ave-Peoria-AZ-85381/8101192_zpid/,33.6026,-112.229,6619,2018-02-14
9022832,23933776,"8119 W Coolidge St, Phoenix, AZ 85033 ",85033,0.4909959137439728,0.9156586527824402,0.4495846569004893,140000,https://www.zillow.com/homedetails/8119-W-Coolidge-St-Phoenix-AZ-85033/7483001_zpid/,33.5044,-112.235,6664,2018-03-31
8975236,23887133,"3643 N 73rd Ave, Phoenix, AZ 85033 ",85033,0.4909959137439728,0.9156322181224823,0.4495716775904688,184000,https://www.zillow.com/homedetails/3643-N-73rd-Ave-Phoenix-AZ-85033/7468824_zpid/,33.4911,-112.21600000000001,6621,2018-02-16
9026644,23892930,"1956 N Illinois St, Chandler, AZ 85225 ",85225,0.4909959137439728,0.915602445602417,0.44955705940477486,237500,https://www.zillow.com/homedetails/1956-N-Illinois-St-Chandler-AZ-85225/8182717_zpid/,33.3332,-111.84899999999999,6619,2018-02-14
9031381,23913537,"10356 N 68TH Ln, Peoria, AZ 85345 ",85345,0.4909959137439728,0.9155996739864349,0.4495556985526532,239000,https://www.zillow.com/homedetails/10356-N-68TH-Ln-Peoria-AZ-85345/7702010_zpid/,33.5798,-112.20700000000001,6648,2018-03-15
9029584,23903830,"6226 N 35TH Ave, Phoenix, AZ 85017 ",85017,0.4909959137439728,0.9155776500701904,0.4495448848997725,139650,https://www.zillow.com/homedetails/6226-N-35TH-Ave-Phoenix-AZ-85017/7761396_zpid/,33.5286,-112.135,6613,2018-02-08
958181,23885961,"3473 W Barcelona Dr, Chandler, AZ 85226 ",85226,0.4909959137439728,0.9155065417289734,0.44950997099480183,209000,https://www.zillow.com/homedetails/3473-W-Barcelona-Dr-Chandler-AZ-85226/8263797_zpid/,33.3222,-111.902,6604,2018-01-30
383147,23881939,"13014 N 18th Dr, Phoenix, AZ 85029 ",85029,0.4909959137439728,0.9154363870620728,0.44947552534002355,225000,https://www.zillow.com/homedetails/13014-N-18th-Dr-Phoenix-AZ-85029/7784318_zpid/,33.6055,-112.09899999999999,6614,2018-02-09
