property_id,transaction_id,address,zipcode,good_sell,list,url,lat,long,date_listed,transaction_date
9030467,23907928,"1105 S 6th Ave, Phoenix, AZ 85003 ",85003,0.9997348785400391,50000,https://www.zillow.com/homedetails/1105-S-6th-Ave-Phoenix-AZ-85003/2091048360_zpid/,33.437,-112.08200000000001,6619,2018-02-14
9034546,23940259,"10960 N 67th Ave LOT 77, Glendale, AZ 85304 ",85304,0.9994723796844482,51500,https://www.zillow.com/homedetails/10960-N-67th-Ave-LOT-77-Glendale-AZ-85304/2123701142_zpid/,33.5847,-112.205,6674,2018-04-10
829750,23937780,"3719 W Hazelwood St, Phoenix, AZ 85019 ",85019,0.9849384129047394,210000,https://www.zillow.com/homedetails/3719-W-Hazelwood-St-Phoenix-AZ-85019/7507054_zpid/,33.5033,-112.14,6654,2018-03-21
9033773,23933768,"6501 W Highland Ave, Phoenix, AZ 85033 ",85033,0.9823795557022095,223000,https://www.zillow.com/homedetails/6501-W-Highland-Ave-Phoenix-AZ-85033/7712439_zpid/,33.5063,-112.2,6660,2018-03-27
359590,23947472,"2524 S 89TH Ln, Tolleson, AZ 85353 ",85353,0.9817646741867065,214900,https://www.zillow.com/homedetails/2524-S-89TH-Ln-Tolleson-AZ-85353/67772844_zpid/,33.4239,-112.25299999999999,6676,2018-04-12
9029911,23905288,"7550 W Ironwood Dr, Peoria, AZ 85345 ",85345,0.977706104516983,217500,https://www.zillow.com/homedetails/7550-W-Ironwood-Dr-Peoria-AZ-85345/7682225_zpid/,33.5754,-112.22200000000001,6621,2018-02-16
343441,23947479,"2417 S 65TH Dr, Phoenix, AZ 85043 ",85043,0.9774839282035828,224900,https://www.zillow.com/homedetails/2417-S-65TH-Dr-Phoenix-AZ-85043/62727407_zpid/,33.4259,-112.2,6677,2018-04-13
830024,23933620,"3736 W Thomas Rd, Phoenix, AZ 85019 ",85019,0.9768196940422058,152500,https://www.zillow.com/homedetails/3736-W-Thomas-Rd-Phoenix-AZ-85019/7507382_zpid/,33.4807,-112.14,6669,2018-04-05
9033772,23933816,"7139 W Montecito Ave, Phoenix, AZ 85033 ",85033,0.9739889204502106,199900,https://www.zillow.com/homedetails/7139-W-Montecito-Ave-Phoenix-AZ-85033/7711428_zpid/,33.4998,-112.213,6659,2018-03-26
402358,23919704,"14838 N 61ST Dr, Glendale, AZ 85306 ",85306,0.9715711772441864,239000,https://www.zillow.com/homedetails/14838-N-61ST-Dr-Glendale-AZ-85306/8098695_zpid/,33.6194,-112.191,6656,2018-03-23
833733,23937873,"6117 N 35TH Dr, Phoenix, AZ 85019 ",85019,0.9713374376296997,214900,https://www.zillow.com/homedetails/6117-N-35TH-Dr-Phoenix-AZ-85019/7759099_zpid/,33.525999999999996,-112.135,6656,2018-03-23
9034323,23937532,"4022 W Townley Ave, Phoenix, AZ 85051 ",85051,0.9710090458393097,197000,https://www.zillow.com/homedetails/4022-W-Townley-Ave-Phoenix-AZ-85051/7754506_zpid/,33.5662,-112.146,6674,2018-04-10
9034698,23941312,"8402 W Veliana Way, Tolleson, AZ 85353 ",85353,0.9701075553894043,211200,https://www.zillow.com/homedetails/8402-W-Veliana-Way-Tolleson-AZ-85353/58375295_zpid/,33.4239,-112.241,6669,2018-04-05
453648,23947319,"4513 W Verde Ln, Phoenix, AZ 85031 ",85031,0.9697684943675995,167000,https://www.zillow.com/homedetails/4513-W-Verde-Ln-Phoenix-AZ-85031/7509499_zpid/,33.4811,-112.15700000000001,6677,2018-04-13
9034654,23940894,"9141 W Kimberly Way, Peoria, AZ 85382 ",85382,0.9694374203681946,249900,https://www.zillow.com/homedetails/9141-W-Kimberly-Way-Peoria-AZ-85382/7896500_zpid/,33.6556,-112.257,6669,2018-04-05
2048293,23933730,"7602 W Devonshire Ave, Phoenix, AZ 85033 ",85033,0.9687404930591583,189000,https://www.zillow.com/homedetails/7602-W-Devonshire-Ave-Phoenix-AZ-85033/7467680_zpid/,33.4969,-112.22399999999999,6663,2018-03-30
557320,23944237,"2513 N 29TH Pl, Phoenix, AZ 85008 ",85008,0.9686640202999115,225000,https://www.zillow.com/homedetails/2513-N-29TH-Pl-Phoenix-AZ-85008/7542885_zpid/,33.4755,-112.01799999999999,6665,2018-04-01
469185,23937789,"3318 W Sells Dr, Phoenix, AZ 85017 ",85017,0.9675969779491425,198900,https://www.zillow.com/homedetails/3318-W-Sells-Dr-Phoenix-AZ-85017/7768178_zpid/,33.5016,-112.131,6661,2018-03-28
485245,23914882,"4326 W Vernon Ave, Phoenix, AZ 85035 ",85035,0.9675213694572449,225000,https://www.zillow.com/homedetails/4326-W-Vernon-Ave-Phoenix-AZ-85035/7495458_zpid/,33.4741,-112.15299999999999,6656,2018-03-23
9035727,23948104,"6547 W Wolf St, Phoenix, AZ 85033 ",85033,0.9669937193393707,169500,https://www.zillow.com/homedetails/6547-W-Wolf-St-Phoenix-AZ-85033/7712478_zpid/,33.5073,-112.20200000000001,6677,2018-04-13
349796,23943990,"3702 W Tonto St, Phoenix, AZ 85009 ",85009,0.9666314125061035,169900,https://www.zillow.com/homedetails/3702-W-Tonto-St-Phoenix-AZ-85009/7506279_zpid/,33.4394,-112.139,6676,2018-04-12
9035007,23943902,"2732 W Taylor St, Phoenix, AZ 85009 ",85009,0.9662665128707886,114900,https://www.zillow.com/homedetails/2732-W-Taylor-St-Phoenix-AZ-85009/7514156_zpid/,33.4541,-112.119,6676,2018-04-12
836288,23937804,"3940 W Rancho Dr, Phoenix, AZ 85019 ",85019,0.9660198986530304,235000,https://www.zillow.com/homedetails/3940-W-Rancho-Dr-Phoenix-AZ-85019/7718547_zpid/,33.5226,-112.145,6657,2018-03-24
385620,23937349,"3601 W Cheryl Dr, Phoenix, AZ 85051 ",85051,0.9658412635326385,249950,https://www.zillow.com/homedetails/3601-W-Cheryl-Dr-Phoenix-AZ-85051/7745285_zpid/,33.5785,-112.13600000000001,6673,2018-04-09
224188,23951256,"14213 N 35th Dr, Phoenix, AZ 85053 ",85053,0.9654136300086975,200000,https://www.zillow.com/homedetails/14213-N-35th-Dr-Phoenix-AZ-85053/7944539_zpid/,33.6154,-112.135,6698,2018-05-04
9032100,23918773,"1702 W Clarendon Ave, Phoenix, AZ 85015 ",85015,0.9646841287612915,229000,https://www.zillow.com/homedetails/1702-W-Clarendon-Ave-Phoenix-AZ-85015/7516316_zpid/,33.4916,-112.096,6656,2018-03-23
9020053,23937852,"5704 N 23RD Ave, Phoenix, AZ 85015 ",85015,0.9646736681461334,220000,https://www.zillow.com/homedetails/5704-N-23RD-Ave-Phoenix-AZ-85015/7763151_zpid/,33.5206,-112.109,6668,2018-04-04
398546,23892073,"8837 N 37TH Ave, Phoenix, AZ 85051 ",85051,0.9642828702926636,218000,https://www.zillow.com/homedetails/8837-N-37TH-Ave-Phoenix-AZ-85051/7754084_zpid/,33.5666,-112.139,6627,2018-02-22
1577853,23929565,"10025 N Balboa Dr, Sun City, AZ 85351 ",85351,0.963090181350708,157900,https://www.zillow.com/homedetails/10025-N-Balboa-Dr-Sun-City-AZ-85351/7688670_zpid/,33.5759,-112.273,6652,2018-03-19
501169,23933727,"7736 W Bonitos Dr, Phoenix, AZ 85035 ",85035,0.9630796313285828,183000,https://www.zillow.com/homedetails/7736-W-Bonitos-Dr-Phoenix-AZ-85035/95177794_zpid/,33.4719,-112.226,6672,2018-04-08
448745,23948106,"8435 W Devonshire Ave, Phoenix, AZ 85037 ",85037,0.9627282619476318,200000,https://www.zillow.com/homedetails/8435-W-Devonshire-Ave-Phoenix-AZ-85037/7466640_zpid/,33.4958,-112.241,6678,2018-04-14
435590,23948079,"2207 N 92ND Dr, Phoenix, AZ 85037 ",85037,0.9626230895519257,220000,https://www.zillow.com/homedetails/2207-N-92ND-Dr-Phoenix-AZ-85037/60974814_zpid/,33.4739,-112.258,6678,2018-04-14
230226,23915267,"1810 W Wickieup Ln, Phoenix, AZ 85027 ",85027,0.9623665511608124,215000,https://www.zillow.com/homedetails/1810-W-Wickieup-Ln-Phoenix-AZ-85027/7971109_zpid/,33.663000000000004,-112.098,6654,2018-03-21
482951,23914801,"2609 N 50TH Cir, Phoenix, AZ 85035 ",85035,0.9618627429008484,134900,https://www.zillow.com/homedetails/2609-N-50TH-Cir-Phoenix-AZ-85035/7494024_zpid/,33.4777,-112.16799999999999,6654,2018-03-21
8978828,23933753,"7835 W Whitton Ave, Phoenix, AZ 85033 ",85033,0.9618138372898102,149000,https://www.zillow.com/homedetails/7835-W-Whitton-Ave-Phoenix-AZ-85033/7478538_zpid/,33.4892,-112.228,6673,2018-04-09
450658,23933786,"8740 W Earll Dr, Phoenix, AZ 85037 ",85037,0.9615626037120819,198000,https://www.zillow.com/homedetails/8740-W-Earll-Dr-Phoenix-AZ-85037/7479995_zpid/,33.4838,-112.249,6670,2018-04-06
390556,23937793,"4025 W Lane Ave, Phoenix, AZ 85051 ",85051,0.9612089991569519,240000,https://www.zillow.com/homedetails/4025-W-Lane-Ave-Phoenix-AZ-85051/7755452_zpid/,33.5524,-112.146,6658,2018-03-25
234181,23943482,"2716 W Bluefield Ave, Phoenix, AZ 85053 ",85053,0.9611046016216278,199990,https://www.zillow.com/homedetails/2716-W-Bluefield-Ave-Phoenix-AZ-85053/7941063_zpid/,33.6527,-112.118,6675,2018-04-11
519063,23933819,"8841 W Virginia Ave, Phoenix, AZ 85037 ",85037,0.960996150970459,199900,https://www.zillow.com/homedetails/8841-W-Virginia-Ave-Phoenix-AZ-85037/7473916_zpid/,33.475,-112.25,6657,2018-03-24
486095,23949947,"4739 W Almeria Rd, Phoenix, AZ 85035 ",85035,0.960768461227417,140000,https://www.zillow.com/homedetails/4739-W-Almeria-Rd-Phoenix-AZ-85035/7494819_zpid/,33.4663,-112.162,6681,2018-04-17
9028443,23939855,"3147 N Bentrup Cir, Chandler, AZ 85224 ",85224,0.9592587649822235,249900,https://www.zillow.com/homedetails/3147-N-Bentrup-Cir-Chandler-AZ-85224/8171571_zpid/,33.3509,-111.891,6675,2018-04-11
477642,23933528,"1646 N 73RD Ave, Phoenix, AZ 85035 ",85035,0.9590814709663391,200000,https://www.zillow.com/homedetails/1646-N-73RD-Ave-Phoenix-AZ-85035/7475109_zpid/,33.4674,-112.21700000000001,6671,2018-04-07
409744,23938133,"4523 W Christy Dr, Glendale, AZ 85304 ",85304,0.9588970839977264,216000,https://www.zillow.com/homedetails/4523-W-Christy-Dr-Glendale-AZ-85304/7727670_zpid/,33.5847,-112.15799999999999,6667,2018-04-03
9029409,23907919,"4020 N 64TH Dr, Phoenix, AZ 85033 ",85033,0.9586265981197357,119900,https://www.zillow.com/homedetails/4020-N-64TH-Dr-Phoenix-AZ-85033/7490022_zpid/,33.4928,-112.199,6600,2018-01-26
5231985,23914892,"4221 N 79TH Dr, Phoenix, AZ 85033 ",85033,0.958300769329071,183000,https://www.zillow.com/homedetails/4221-N-79TH-Dr-Phoenix-AZ-85033/7481959_zpid/,33.4971,-112.229,6630,2018-02-25
9034339,23937735,"2310 W Belmont Ave, Phoenix, AZ 85021 ",85021,0.958174079656601,188900,https://www.zillow.com/homedetails/2310-W-Belmont-Ave-Phoenix-AZ-85021/7779319_zpid/,33.5495,-112.109,6670,2018-04-06
390405,23937407,"4017 W Orchid Ln, Phoenix, AZ 85051 ",85051,0.9581376612186432,192400,https://www.zillow.com/homedetails/4017-W-Orchid-Ln-Phoenix-AZ-85051/7753381_zpid/,33.5615,-112.146,6666,2018-04-02
502844,23933593,"4306 N 47TH Ave, Phoenix, AZ 85031 ",85031,0.9580575823783875,165000,https://www.zillow.com/homedetails/4306-N-47TH-Ave-Phoenix-AZ-85031/7720851_zpid/,33.4989,-112.16,6671,2018-04-07
9025496,23933756,"8202 W Avalon Dr, Phoenix, AZ 85033 ",85033,0.9580176770687103,188999,https://www.zillow.com/homedetails/8202-W-Avalon-Dr-Phoenix-AZ-85033/7479720_zpid/,33.4825,-112.235,6657,2018-03-24
483971,23933551,"2734 N 73RD Gln, Phoenix, AZ 85035 ",85035,0.9577609598636627,205000,https://www.zillow.com/homedetails/2734-N-73RD-Gln-Phoenix-AZ-85035/95167972_zpid/,33.4783,-112.21799999999999,6663,2018-03-30
327052,23918727,"1939 W Earll Dr, Phoenix, AZ 85015 ",85015,0.9574589431285858,220000,https://www.zillow.com/homedetails/1939-W-Earll-Dr-Phoenix-AZ-85015/7517875_zpid/,33.4845,-112.102,6654,2018-03-21
473043,23937871,"5753 N 33RD Dr, Phoenix, AZ 85017 ",85017,0.9573823511600494,199500,https://www.zillow.com/homedetails/5753-N-33RD-Dr-Phoenix-AZ-85017/7762537_zpid/,33.5227,-112.131,6660,2018-03-27
9035784,23948590,"2213 W Meadow Dr, Phoenix, AZ 85023 ",85023,0.9572973251342773,249900,https://www.zillow.com/homedetails/2213-W-Meadow-Dr-Phoenix-AZ-85023/7964026_zpid/,33.6441,-112.10799999999999,6678,2018-04-14
384536,23937332,"3437 W Diana Ave, Phoenix, AZ 85051 ",85051,0.9567129611968994,197000,https://www.zillow.com/homedetails/3437-W-Diana-Ave-Phoenix-AZ-85051/7753853_zpid/,33.5623,-112.134,6663,2018-03-30
9035728,23948107,"8428 W Glenrosa Ave, Phoenix, AZ 85037 ",85037,0.9563931226730347,178000,https://www.zillow.com/homedetails/8428-W-Glenrosa-Ave-Phoenix-AZ-85037/7466813_zpid/,33.4982,-112.241,6677,2018-04-13
391643,23937422,"4121 W North Ln, Phoenix, AZ 85051 ",85051,0.9562729299068451,175000,https://www.zillow.com/homedetails/4121-W-North-Ln-Phoenix-AZ-85051/7746056_zpid/,33.5812,-112.148,6653,2018-03-20
380769,23937179,"11843 N 29TH Ave, Phoenix, AZ 85029 ",85029,0.9562061727046967,199900,https://www.zillow.com/homedetails/11843-N-29TH-Ave-Phoenix-AZ-85029/7741000_zpid/,33.5943,-112.12100000000001,6672,2018-04-08
7437201,23918739,"2038 W Alvarado Rd, Phoenix, AZ 85009 ",85009,0.9549776017665863,225000,https://www.zillow.com/homedetails/2038-W-Alvarado-Rd-Phoenix-AZ-85009/7519729_zpid/,33.4727,-112.104,6652,2018-03-19
527580,23915105,"9450 W Palm Ln, Phoenix, AZ 85037 ",85037,0.954280823469162,224900,https://www.zillow.com/homedetails/9450-W-Palm-Ln-Phoenix-AZ-85037/67773013_zpid/,33.4688,-112.264,6648,2018-03-15
467238,23937752,"3121 N 25TH Dr, Phoenix, AZ 85017 ",85017,0.9542769491672516,220000,https://www.zillow.com/homedetails/3121-N-25TH-Dr-Phoenix-AZ-85017/7519130_zpid/,33.4847,-112.11399999999999,6663,2018-03-30
346599,23914812,"3111 W Cypress St, Phoenix, AZ 85009",85009,0.9539957344532013,112000,"https://mcassessor.maricopa.gov/mcs.php?q=3111 W Cypress St, Phoenix, AZ 85009",33.4722,-112.126,6653,2018-03-20
7440136,23950588,"8235 W Weldon Ave, Phoenix, AZ 85033 ",85033,0.9535475075244904,199900,https://www.zillow.com/homedetails/8235-W-Weldon-Ave-Phoenix-AZ-85033/7479016_zpid/,33.4883,-112.23700000000001,6691,2018-04-27
479809,23933536,"2218 N 78TH Ave, Phoenix, AZ 85035 ",85035,0.9530553221702576,197900,https://www.zillow.com/homedetails/2218-N-78TH-Ave-Phoenix-AZ-85035/95105777_zpid/,33.4721,-112.227,6670,2018-04-06
9035725,23948102,"4055 N 77TH Dr, Phoenix, AZ 85033 ",85033,0.9528462290763855,203500,https://www.zillow.com/homedetails/4055-N-77TH-Dr-Phoenix-AZ-85033/7478026_zpid/,33.4943,-112.226,6677,2018-04-13
830847,23937788,"3855 W Lawrence Rd, Phoenix, AZ 85019 ",85019,0.9528181254863739,199900,https://www.zillow.com/homedetails/3855-W-Lawrence-Rd-Phoenix-AZ-85019/7758482_zpid/,33.5353,-112.14299999999999,6655,2018-03-22
392809,23937368,"3320 W Shaw Butte Dr, Phoenix, AZ 85029 ",85029,0.9523901343345642,189000,https://www.zillow.com/homedetails/3320-W-Shaw-Butte-Dr-Phoenix-AZ-85029/7748542_zpid/,33.5958,-112.131,6655,2018-03-22
456318,23933660,"4836 W Osborn Rd, Phoenix, AZ 85031 ",85031,0.952361673116684,189000,https://www.zillow.com/homedetails/4836-W-Osborn-Rd-Phoenix-AZ-85031/7509972_zpid/,33.4879,-112.163,6662,2018-03-29
9024435,23933003,"3638 N 72ND Ln, Phoenix, AZ 85033 ",85033,0.9519141316413879,164900,https://www.zillow.com/homedetails/3638-N-72ND-Ln-Phoenix-AZ-85033/7468943_zpid/,33.4909,-112.21600000000001,6674,2018-04-10
9035194,23945432,"7520 W Glenrosa Ave, Phoenix, AZ 85033 ",85033,0.9518523514270782,164900,https://www.zillow.com/homedetails/7520-W-Glenrosa-Ave-Phoenix-AZ-85033/7482198_zpid/,33.4991,-112.22200000000001,6676,2018-04-12
9031584,23914683,"9262 W Cameron Dr, Peoria, AZ 85345 ",85345,0.9517273008823395,199900,https://www.zillow.com/homedetails/9262-W-Cameron-Dr-Peoria-AZ-85345/7686656_zpid/,33.5896,-112.259,6656,2018-03-23
237372,23943523,"2954 W Villa Theresa Dr, Phoenix, AZ 85053",85053,0.9515162706375122,229900,https://www.zillow.com/homedetails/2954-W-Villa-Theresa-Dr-Phoenix-AZ-85053/7940559_zpid/,33.6543,-112.124,6673,2018-04-09
411756,23919797,"5267 W Cholla St, Glendale, AZ 85304 ",85304,0.9513748288154602,249900,https://www.zillow.com/homedetails/5267-W-Cholla-St-Glendale-AZ-85304/7736831_zpid/,33.5889,-112.17299999999999,6652,2018-03-19
488821,23950570,"5234 W Cambridge Ave, Phoenix, AZ 85035 ",85035,0.9513179063796997,149500,https://www.zillow.com/homedetails/5234-W-Cambridge-Ave-Phoenix-AZ-85035/7499579_zpid/,33.4773,-112.17299999999999,6647,2018-03-14
1413295,23938302,"7305 W Lamar Rd, Glendale, AZ 85303 ",85303,0.9511874616146088,239900,https://www.zillow.com/homedetails/7305-W-Lamar-Rd-Glendale-AZ-85303/7706962_zpid/,33.535,-112.21600000000001,6670,2018-04-06
449407,23915079,"8528 W Amelia Ave, Phoenix, AZ 85037 ",85037,0.9510485529899597,180000,https://www.zillow.com/homedetails/8528-W-Amelia-Ave-Phoenix-AZ-85037/7469628_zpid/,33.4932,-112.244,6652,2018-03-19
9031538,23914422,"8246 W Madison St, Peoria, AZ 85345 ",85345,0.9506482183933258,249900,https://www.zillow.com/homedetails/8246-W-Madison-St-Peoria-AZ-85345/81974787_zpid/,33.5787,-112.236,6655,2018-03-22
232349,23943386,"17848 N 33RD Dr, Phoenix, AZ 85053 ",85053,0.9504489302635193,197150,https://www.zillow.com/homedetails/17848-N-33RD-Dr-Phoenix-AZ-85053/7941284_zpid/,33.649,-112.131,6662,2018-03-29
8986171,23933695,"5820 W Cheery Lynn Rd, Phoenix, AZ 85031 ",85031,0.9503740966320038,167000,https://www.zillow.com/homedetails/5820-W-Cheery-Lynn-Rd-Phoenix-AZ-85031/7497545_zpid/,33.4855,-112.185,6662,2018-03-29
445506,23891936,"4646 N 84TH Ln, Phoenix, AZ 85037 ",85037,0.9502604305744171,198000,https://www.zillow.com/homedetails/4646-N-84TH-Ln-Phoenix-AZ-85037/7481172_zpid/,33.505,-112.242,6627,2018-02-22
9021919,23938343,"7642 N 46TH Ave, Glendale, AZ 85301 ",85301,0.9499836266040802,223000,https://www.zillow.com/homedetails/7642-N-46TH-Ave-Glendale-AZ-85301/7725090_zpid/,33.5496,-112.15700000000001,6668,2018-04-04
392940,23937820,"4219 W Nicolet Ave, Phoenix, AZ 85051 ",85051,0.9498634040355682,224450,https://www.zillow.com/homedetails/4219-W-Nicolet-Ave-Phoenix-AZ-85051/7756549_zpid/,33.5426,-112.15,6670,2018-04-06
9034750,23941815,"1347 W 6th Dr, Mesa, AZ 85202",85202,0.9498325288295746,131000,"https://mcassessor.maricopa.gov/mcs.php?q=1347 W 6th Dr, Mesa, AZ 85202",33.4026,-111.861,6673,2018-04-09
528311,23945427,"9915 W Meadowbrook Ave, Phoenix, AZ 85037 ",85037,0.9498069882392883,199900,https://www.zillow.com/homedetails/9915-W-Meadowbrook-Ave-Phoenix-AZ-85037/7484433_zpid/,33.5045,-112.273,6676,2018-04-12
9031595,23950260,"9561 W Carol Ave, Peoria, AZ 85345 ",85345,0.9497497379779816,168750,https://www.zillow.com/homedetails/9561-W-Carol-Ave-Peoria-AZ-85345/7687310_zpid/,33.5706,-112.266,6688,2018-04-24
337593,23937297,"2308 W Orchid Ln, Phoenix, AZ 85021 ",85021,0.9495589137077332,210900,https://www.zillow.com/homedetails/2308-W-Orchid-Ln-Phoenix-AZ-85021/7782296_zpid/,33.5627,-112.109,6656,2018-03-23
333118,23937866,"5605 N 22ND Dr, Phoenix, AZ 85015 ",85015,0.9491227567195892,222900,https://www.zillow.com/homedetails/5605-N-22ND-Dr-Phoenix-AZ-85015/7763593_zpid/,33.5189,-112.10700000000001,6674,2018-04-10
325822,23937658,"1724 W Citrus Way, Phoenix, AZ 85015 ",85015,0.9488944113254547,224900,https://www.zillow.com/homedetails/1724-W-Citrus-Way-Phoenix-AZ-85015/7774020_zpid/,33.5308,-112.096,6668,2018-04-04
9026500,23870186,"6608 W Hazelwood St, Phoenix, AZ 85033 ",85033,0.9487501680850983,217000,https://www.zillow.com/homedetails/6608-W-Hazelwood-St-Phoenix-AZ-85033/7712326_zpid/,33.5053,-112.20200000000001,6597,2018-01-23
9022832,23933776,"8119 W Coolidge St, Phoenix, AZ 85033 ",85033,0.9485160112380981,140000,https://www.zillow.com/homedetails/8119-W-Coolidge-St-Phoenix-AZ-85033/7483001_zpid/,33.5044,-112.235,6664,2018-03-31
378696,23937162,"10228 N 37TH Ave, Phoenix, AZ 85051 ",85051,0.948119580745697,245000,https://www.zillow.com/homedetails/10228-N-37TH-Ave-Phoenix-AZ-85051/92353782_zpid/,33.5794,-112.13799999999999,6672,2018-04-08
9032611,23923305,"9319 W Arrowhead Dr, Sun City, AZ 85351 ",85351,0.9479599297046661,163000,https://www.zillow.com/homedetails/9319-W-Arrowhead-Dr-Sun-City-AZ-85351/7908165_zpid/,33.6099,-112.26,6638,2018-03-05
390317,23884673,"4014 W Solar Dr, Phoenix, AZ 85051 ",85051,0.9478945136070251,215000,https://www.zillow.com/homedetails/4014-W-Solar-Dr-Phoenix-AZ-85051/7757554_zpid/,33.5396,-112.146,6619,2018-02-14
400346,23938056,"10632 N 65TH Ave, Glendale, AZ 85304 ",85304,0.9476962387561798,219900,https://www.zillow.com/homedetails/10632-N-65TH-Ave-Glendale-AZ-85304/67083264_zpid/,33.583,-112.199,6674,2018-04-10
9024755,23914845,"3026 N 75TH Dr, Phoenix, AZ 85033 ",85033,0.947647362947464,174000,https://www.zillow.com/homedetails/3026-N-75TH-Dr-Phoenix-AZ-85033/7469531_zpid/,33.4832,-112.221,6629,2018-02-24
1342993,23919758,"4510 W State Ave, Glendale, AZ 85301 ",85301,0.9474614858627319,189000,https://www.zillow.com/homedetails/4510-W-State-Ave-Glendale-AZ-85301/7725659_zpid/,33.5444,-112.156,6654,2018-03-21
412006,23890703,"5332 W Aster Dr, Glendale, AZ 85304 ",85304,0.9474207162857056,192600,https://www.zillow.com/homedetails/5332-W-Aster-Dr-Glendale-AZ-85304/7911537_zpid/,33.6008,-112.17399999999999,6619,2018-02-14
343418,23947887,"2029 W Wilshire Dr, Phoenix, AZ 85009 ",85009,0.9470579624176025,199900,https://www.zillow.com/homedetails/2029-W-Wilshire-Dr-Phoenix-AZ-85009/7519525_zpid/,33.476,-112.104,6677,2018-04-13
396876,23937550,"8307 N 31ST Ave, Phoenix, AZ 85051 ",85051,0.9469649791717529,173500,https://www.zillow.com/homedetails/8307-N-31ST-Ave-Phoenix-AZ-85051/7751434_zpid/,33.559,-112.125,6652,2018-03-19
226238,23937229,"14843 N 37TH Ave, Phoenix, AZ 85053 ",85053,0.9468947350978851,249000,https://www.zillow.com/homedetails/14843-N-37TH-Ave-Phoenix-AZ-85053/7944315_zpid/,33.6219,-112.137,6673,2018-04-09
9033601,23943714,"4446 W Wescott Dr, Glendale, AZ 85308 ",85308,0.9468339085578918,204900,https://www.zillow.com/homedetails/4446-W-Wescott-Dr-Glendale-AZ-85308/2090410076_zpid/,33.6585,-112.176,6668,2018-04-04
9034615,23940667,"7412 W Cinnabar Ave, Peoria, AZ 85345 ",85345,0.9465849995613098,239000,https://www.zillow.com/homedetails/7412-W-Cinnabar-Ave-Peoria-AZ-85345/7705766_zpid/,33.5765,-112.21799999999999,6657,2018-03-24
491225,23914955,"5546 W Granada Rd, Phoenix, AZ 85035 ",85035,0.9465477168560028,209900,https://www.zillow.com/homedetails/5546-W-Granada-Rd-Phoenix-AZ-85035/7492901_zpid/,33.4691,-112.18,6656,2018-03-23
562523,23951055,"1134 W Farmdale Ave, Mesa, AZ 85210 ",85210,0.9464482367038727,214900,https://www.zillow.com/homedetails/1134-W-Farmdale-Ave-Mesa-AZ-85210/7598743_zpid/,33.3962,-111.85600000000001,6704,2018-05-10
41747,23941224,"6402 W Pima St, Phoenix, AZ 85043 ",85043,0.9461351633071899,179900,https://www.zillow.com/homedetails/6402-W-Pima-St-Phoenix-AZ-85043/7499989_zpid/,33.4351,-112.198,6675,2018-04-11
830047,23937775,"3735 W Claremont St, Phoenix, AZ 85019 ",85019,0.9460643529891968,177000,https://www.zillow.com/homedetails/3735-W-Claremont-St-Phoenix-AZ-85019/7761245_zpid/,33.5281,-112.14,6656,2018-03-23
427033,23933694,"5929 W Clarendon Ave, Phoenix, AZ 85033 ",85033,0.9458827376365662,169900,https://www.zillow.com/homedetails/5929-W-Clarendon-Ave-Phoenix-AZ-85033/7496653_zpid/,33.4915,-112.18799999999999,6663,2018-03-30
526674,23915055,"9413 W Berkeley Rd, Phoenix, AZ 85037 ",85037,0.9453434944152832,249900,https://www.zillow.com/homedetails/9413-W-Berkeley-Rd-Phoenix-AZ-85037/60047080_zpid/,33.4677,-112.262,6650,2018-03-17
449909,23933774,"8629 W Whitton Ave, Phoenix, AZ 85037 ",85037,0.9451830685138702,200000,https://www.zillow.com/homedetails/8629-W-Whitton-Ave-Phoenix-AZ-85037/7469993_zpid/,33.4884,-112.245,6673,2018-04-09
352728,23941243,"7209 W Hess Ave, Phoenix, AZ 85043 ",85043,0.9449606537818909,198000,https://www.zillow.com/homedetails/7209-W-Hess-Ave-Phoenix-AZ-85043/52424246_zpid/,33.4293,-112.215,6670,2018-04-06
410294,23937489,"4736 W Paradise Dr, Glendale, AZ 85304 ",85304,0.9449491500854492,239000,https://www.zillow.com/homedetails/4736-W-Paradise-Dr-Glendale-AZ-85304/7727539_zpid/,33.5944,-112.162,6673,2018-04-09
9034630,23940752,"8163 W Desert Cove Ave, Peoria, AZ 85345 ",85345,0.9448558986186981,229000,https://www.zillow.com/homedetails/8163-W-Desert-Cove-Ave-Peoria-AZ-85345/7681229_zpid/,33.585,-112.235,6670,2018-04-06
501561,23888074,"7826 W Palm Ln, Phoenix, AZ 85035 ",85035,0.9447661340236664,172000,https://www.zillow.com/homedetails/7826-W-Palm-Ln-Phoenix-AZ-85035/95097689_zpid/,33.469,-112.228,6622,2018-02-17
9031625,23933696,"6017 W Indianola Ave, Phoenix, AZ 85033 ",85033,0.9447459280490875,188500,https://www.zillow.com/homedetails/6017-W-Indianola-Ave-Phoenix-AZ-85033/7496676_zpid/,33.4922,-112.189,6663,2018-03-30
1343338,23888952,"4533 W Mclellan Rd, Glendale, AZ 85301 ",85301,0.9444276392459869,120000,https://www.zillow.com/homedetails/4533-W-Mclellan-Rd-Glendale-AZ-85301/7723561_zpid/,33.5322,-112.15700000000001,6623,2018-02-18
425103,23914841,"2902 N 80TH Ave, Phoenix, AZ 85033 ",85033,0.9438428580760956,215000,https://www.zillow.com/homedetails/2902-N-80TH-Ave-Phoenix-AZ-85033/7479596_zpid/,33.4803,-112.23100000000001,6655,2018-03-22
9031627,23933708,"6517 W Sells Dr, Phoenix, AZ 85033 ",85033,0.9436913132667542,179499,https://www.zillow.com/homedetails/6517-W-Sells-Dr-Phoenix-AZ-85033/7717149_zpid/,33.5011,-112.2,6664,2018-03-31
425274,23932999,"3022 N 81ST Dr, Phoenix, AZ 85033 ",85033,0.9436909258365631,179000,https://www.zillow.com/homedetails/3022-N-81ST-Dr-Phoenix-AZ-85033/7479690_zpid/,33.4824,-112.234,6674,2018-04-10
9034637,23940797,"8536 W Paradise Dr, Peoria, AZ 85345 ",85345,0.943116694688797,249000,https://www.zillow.com/homedetails/8536-W-Paradise-Dr-Peoria-AZ-85345/7685412_zpid/,33.5944,-112.243,6663,2018-03-30
410546,23946043,"4828 W Columbine Dr, Glendale, AZ 85304 ",85304,0.942980021238327,245000,https://www.zillow.com/homedetails/4828-W-Columbine-Dr-Glendale-AZ-85304/7954401_zpid/,33.5989,-112.163,6677,2018-04-13
388964,23937382,"3843 W Vogel Ave, Phoenix, AZ 85051 ",85051,0.942845493555069,225000,https://www.zillow.com/homedetails/3843-W-Vogel-Ave-Phoenix-AZ-85051/7746985_zpid/,33.5734,-112.14200000000001,6652,2018-03-19
407053,23919851,"5501 W Boca Raton Rd, Glendale, AZ 85306 ",85306,0.9428238570690155,249900,https://www.zillow.com/homedetails/5501-W-Boca-Raton-Rd-Glendale-AZ-85306/7911123_zpid/,33.6112,-112.177,6655,2018-03-22
9033763,23933669,"4214 N 74TH Dr, Phoenix, AZ 85033 ",85033,0.9427921772003174,186800,https://www.zillow.com/homedetails/4214-N-74TH-Dr-Phoenix-AZ-85033/7711097_zpid/,33.4975,-112.22,6657,2018-03-24
502563,23933588,"4118 N 48TH Ave, Phoenix, AZ 85031 ",85031,0.9427740573883057,165000,https://www.zillow.com/homedetails/4118-N-48TH-Ave-Phoenix-AZ-85031/7721120_zpid/,33.4956,-112.163,6674,2018-04-10
476168,23933564,"3023 N 46TH Dr, Phoenix, AZ 85031 ",85031,0.9421869218349457,170000,https://www.zillow.com/homedetails/3023-N-46TH-Dr-Phoenix-AZ-85031/88888998_zpid/,33.4836,-112.15799999999999,6674,2018-04-10
379710,23937176,"11449 N 30TH Ave, Phoenix, AZ 85029 ",85029,0.9421394765377045,210000,https://www.zillow.com/homedetails/11449-N-30TH-Ave-Phoenix-AZ-85029/7739892_zpid/,33.591,-112.12299999999999,6670,2018-04-06
464262,23937727,"2834 W Cavalier Dr, Phoenix, AZ 85017 ",85017,0.9418910443782806,160000,https://www.zillow.com/homedetails/2834-W-Cavalier-Dr-Phoenix-AZ-85017/7759842_zpid/,33.5264,-112.12100000000001,6675,2018-04-11
380211,23937750,"2825 W State Ave, Phoenix, AZ 85051 ",85051,0.9417157471179962,215000,https://www.zillow.com/homedetails/2825-W-State-Ave-Phoenix-AZ-85051/7755989_zpid/,33.5442,-112.12,6652,2018-03-19
9031745,23915938,"754 E Rosemonte Dr, Phoenix, AZ 85024 ",85024,0.9416442513465881,249999,https://www.zillow.com/homedetails/754-E-Rosemonte-Dr-Phoenix-AZ-85024/7997468_zpid/,33.6572,-112.064,6656,2018-03-23
386021,23945991,"1802 W Wood Dr, Phoenix, AZ 85029 ",85029,0.9415093064308167,199998,https://www.zillow.com/homedetails/1802-W-Wood-Dr-Phoenix-AZ-85029/7784407_zpid/,33.6048,-112.098,6676,2018-04-12
465830,23884482,"3006 W Rose Ln, Phoenix, AZ 85017 ",85017,0.9413449168205261,171900,https://www.zillow.com/homedetails/3006-W-Rose-Ln-Phoenix-AZ-85017/7761155_zpid/,33.5279,-112.124,6593,2018-01-19
390440,23937329,"3016 W Sahuaro Dr, Phoenix, AZ 85029 ",85029,0.941152960062027,215000,https://www.zillow.com/homedetails/3016-W-Sahuaro-Dr-Phoenix-AZ-85029/7739761_zpid/,33.5842,-112.124,6674,2018-04-10
387689,23937273,"2217 W Windrose Dr, Phoenix, AZ 85029 ",85029,0.9411232471466064,199000,https://www.zillow.com/homedetails/2217-W-Windrose-Dr-Phoenix-AZ-85029/7738884_zpid/,33.6015,-112.10600000000001,6662,2018-03-29
9033776,23933836,"8127 W Indianola Ave, Phoenix, AZ 85033 ",85033,0.9410965442657471,195000,https://www.zillow.com/homedetails/8127-W-Indianola-Ave-Phoenix-AZ-85033/7479081_zpid/,33.4901,-112.234,6670,2018-04-06
9019605,23933008,"9213 W Fillmore St, Tolleson, AZ 85353 ",85353,0.94100022315979,170000,https://www.zillow.com/homedetails/9213-W-Fillmore-St-Tolleson-AZ-85353/7476932_zpid/,33.4532,-112.258,6666,2018-04-02
349087,23933579,"3540 W Cypress St, Phoenix, AZ 85009 ",85009,0.939964234828949,150000,https://www.zillow.com/homedetails/3540-W-Cypress-St-Phoenix-AZ-85009/7511188_zpid/,33.4724,-112.13600000000001,6669,2018-04-05
406444,23938189,"5225 W Evans Dr, Glendale, AZ 85306 ",85306,0.9398822784423828,232000,https://www.zillow.com/homedetails/5225-W-Evans-Dr-Glendale-AZ-85306/8097358_zpid/,33.6173,-112.17200000000001,6661,2018-03-28
338200,23949694,"2508 W Seldon Ln, Phoenix, AZ 85021 ",85021,0.9398408532142639,205000,https://www.zillow.com/homedetails/2508-W-Seldon-Ln-Phoenix-AZ-85021/7782379_zpid/,33.5612,-112.113,6677,2018-04-13
1667401,23923248,"18415 N 97TH Dr, Sun City, AZ 85373 ",85373,0.9396836161613464,215000,https://www.zillow.com/homedetails/18415-N-97TH-Dr-Sun-City-AZ-85373/7897522_zpid/,33.6519,-112.27,6652,2018-03-19
463762,23884430,"2754 W Devonshire Ave, Phoenix, AZ 85017 ",85017,0.9396088421344757,120000,https://www.zillow.com/homedetails/2754-W-Devonshire-Ave-Phoenix-AZ-85017/7768731_zpid/,33.4966,-112.12,6606,2018-02-01
44030,23941268,"8228 W Mohave St, Phoenix, AZ 85043 ",85043,0.9395504593849182,191500,https://www.zillow.com/homedetails/8228-W-Mohave-St-Phoenix-AZ-85043/60047250_zpid/,33.4324,-112.238,6665,2018-04-01
433187,23914983,"7228 W Pierson St, Phoenix, AZ 85033 ",85033,0.9394019544124603,180000,https://www.zillow.com/homedetails/7228-W-Pierson-St-Phoenix-AZ-85033/7710740_zpid/,33.5072,-112.214,6653,2018-03-20
436306,23933539,"2401 N 88TH Ln, Phoenix, AZ 85037 ",85037,0.9392987489700317,229900,https://www.zillow.com/homedetails/2401-N-88TH-Ln-Phoenix-AZ-85037/7473957_zpid/,33.4742,-112.25,6670,2018-04-06
469003,23949791,"3312 W Mclellan Blvd, Phoenix, AZ 85017 ",85017,0.9392154514789581,193000,https://www.zillow.com/homedetails/3312-W-Mclellan-Blvd-Phoenix-AZ-85017/7760742_zpid/,33.5329,-112.131,6685,2018-04-21
315846,23892183,"324 N 18TH Ave Phoenix, AZ 85007",85007,0.9391816258430481,139900,https://www.zillow.com/homedetails/324-N-18TH-Ave-Phoenix-AZ-85007/7521418_zpid/,33.4523,-112.098,6627,2018-02-22
477304,23933537,"1630 N 48TH Ln, Phoenix, AZ 85035 ",85035,0.9391686916351318,159900,https://www.zillow.com/homedetails/1630-N-48TH-Ln-Phoenix-AZ-85035/7494905_zpid/,33.4674,-112.166,6670,2018-04-06
420087,23938198,"5651 W Comet Ave, Glendale, AZ 85302 ",85302,0.9390183687210083,215000,https://www.zillow.com/homedetails/5651-W-Comet-Ave-Glendale-AZ-85302/7735271_zpid/,33.5788,-112.182,6662,2018-03-29
9033771,23933773,"7409 W Minnezona Ave, Phoenix, AZ 85033 ",85033,0.9389669001102448,175000,https://www.zillow.com/homedetails/7409-W-Minnezona-Ave-Phoenix-AZ-85033/7711010_zpid/,33.5024,-112.219,6673,2018-04-09
561112,23941587,"1043 W Frito Ave, Mesa, AZ 85210 ",85210,0.9388969838619232,220000,https://www.zillow.com/homedetails/1043-W-Frito-Ave-Mesa-AZ-85210/7598695_zpid/,33.3951,-111.854,6667,2018-04-03
471355,23937818,"4341 N 35TH Ave, Phoenix, AZ 85017 ",85017,0.9385567009449005,150000,https://www.zillow.com/homedetails/4341-N-35TH-Ave-Phoenix-AZ-85017/7768270_zpid/,33.5002,-112.134,6672,2018-04-08
351381,23948155,"1937 E Wagoner Rd, Phoenix, AZ 85022 ",85022,0.9382315278053284,244900,https://www.zillow.com/homedetails/1937-E-Wagoner-Rd-Phoenix-AZ-85022/8001514_zpid/,33.6533,-112.041,6677,2018-04-13
327823,23933315,"2107 W Earll Dr, Phoenix, AZ 85015 ",85015,0.9382120072841644,219900,https://www.zillow.com/homedetails/2107-W-Earll-Dr-Phoenix-AZ-85015/7517789_zpid/,33.4845,-112.104,6661,2018-03-28
8970321,23950565,"4229 N 64th Ave, Phoenix, AZ 85033 ",85033,0.9380711615085602,209900,https://www.zillow.com/homedetails/4229-N-64th-Ave-Phoenix-AZ-85033/7717373_zpid/,33.4982,-112.197,6692,2018-04-28
9033770,23933761,"7030 W Monterey Way, Phoenix, AZ 85033 ",85033,0.9377551376819611,199000,https://www.zillow.com/homedetails/7030-W-Monterey-Way-Phoenix-AZ-85033/7485344_zpid/,33.4844,-112.211,6671,2018-04-07
391456,23946035,"4115 W El Camino Dr, Phoenix, AZ 85051 ",85051,0.937676340341568,199900,https://www.zillow.com/homedetails/4115-W-El-Camino-Dr-Phoenix-AZ-85051/7752835_zpid/,33.5569,-112.148,6675,2018-04-11
534838,23941367,"2001 W Sherman St, Phoenix, AZ 85009 ",85009,0.9376297891139984,149000,https://www.zillow.com/homedetails/2001-W-Sherman-St-Phoenix-AZ-85009/7515726_zpid/,33.4401,-112.102,6660,2018-03-27
470650,23892082,"3445 W Rancho Dr, Phoenix, AZ 85017 ",85017,0.9375637471675873,154900,https://www.zillow.com/homedetails/3445-W-Rancho-Dr-Phoenix-AZ-85017/7762576_zpid/,33.5225,-112.134,6627,2018-02-22
354192,23874622,"8108 W Magnolia St, Phoenix, AZ 85043 ",85043,0.9369606375694275,217000,https://www.zillow.com/homedetails/8108-W-Magnolia-St-Phoenix-AZ-85043/50884736_zpid/,33.425,-112.234,6613,2018-02-08
396072,23937565,"8113 N 28TH Dr, Phoenix, AZ 85051 ",85051,0.936941534280777,229000,https://www.zillow.com/homedetails/8113-N-28TH-Dr-Phoenix-AZ-85051/7751087_zpid/,33.5554,-112.12,6674,2018-04-10
365838,23892504,"9923 W Whyman Ave, Tolleson, AZ 85353 ",85353,0.9367789924144745,224000,https://www.zillow.com/homedetails/9923-W-Whyman-Ave-Tolleson-AZ-85353/95149673_zpid/,33.4254,-112.274,6634,2018-03-01
485132,23948082,"2849 N 65TH Dr, Phoenix, AZ 85035 ",85035,0.9362319111824036,207500,https://www.zillow.com/homedetails/2849-N-65TH-Dr-Phoenix-AZ-85035/7490134_zpid/,33.4801,-112.2,6678,2018-04-14
1345936,23938141,"4809 W Krall St, Glendale, AZ 85301 ",85301,0.9361782968044281,167000,https://www.zillow.com/homedetails/4809-W-Krall-St-Glendale-AZ-85301/7722668_zpid/,33.534,-112.163,6673,2018-04-09
9031555,23940770,"8556 W Charter Oak Rd, Peoria, AZ 85381 ",85381,0.9360165297985077,234900,https://www.zillow.com/homedetails/8556-W-Charter-Oak-Rd-Peoria-AZ-85381/7913999_zpid/,33.597,-112.244,6663,2018-03-30
361380,23886784,"8601 W Flavia Hvn, Tolleson, AZ 85353 ",85353,0.9359818398952484,245000,https://www.zillow.com/homedetails/8601-W-Flavia-Hvn-Tolleson-AZ-85353/59271170_zpid/,33.4241,-112.245,6621,2018-02-16
402520,23937178,"11836 N 45TH Ave, Glendale, AZ 85304 ",85304,0.9358437955379486,225000,https://www.zillow.com/homedetails/11836-N-45TH-Ave-Glendale-AZ-85304/7727227_zpid/,33.594,-112.156,6656,2018-03-23
335517,23945986,"1729 W Carol Ave, Phoenix, AZ 85021 ",85021,0.935749888420105,145000,https://www.zillow.com/homedetails/1729-W-Carol-Ave-Phoenix-AZ-85021/7781110_zpid/,33.5722,-112.09700000000001,6675,2018-04-11
379611,23937333,"2729 W Lawrence Ln, Phoenix, AZ 85051 ",85051,0.9355589747428894,215000,https://www.zillow.com/homedetails/2729-W-Lawrence-Ln-Phoenix-AZ-85051/7750269_zpid/,33.5641,-112.118,6654,2018-03-21
9029849,23914454,"8531 W Mission Ln, Peoria, AZ 85345 ",85345,0.9355266690254211,214000,https://www.zillow.com/homedetails/8531-W-Mission-Ln-Peoria-AZ-85345/7697188_zpid/,33.5689,-112.243,6655,2018-03-22
829803,23933590,"3721 W Mulberry Dr, Phoenix, AZ 85019 ",85019,0.9352375864982605,184499,https://www.zillow.com/homedetails/3721-W-Mulberry-Dr-Phoenix-AZ-85019/7507682_zpid/,33.4868,-112.14,6670,2018-04-06
475468,23937895,"6816 N 29TH Ln, Phoenix, AZ 85017 ",85017,0.9350632131099701,199000,https://www.zillow.com/homedetails/6816-N-29TH-Ln-Phoenix-AZ-85017/7758829_zpid/,33.5369,-112.12299999999999,6667,2018-04-03
245127,23915303,"1963 W Greenbriar Dr, Phoenix, AZ 85023 ",85023,0.935030996799469,222900,https://www.zillow.com/homedetails/1963-W-Greenbriar-Dr-Phoenix-AZ-85023/7958387_zpid/,33.6466,-112.102,6641,2018-03-08
233894,23943403,"19214 N 2ND Ave, Phoenix, AZ 85027 ",85027,0.93499556183815,214999,https://www.zillow.com/homedetails/19214-N-2ND-Ave-Phoenix-AZ-85027/7968750_zpid/,33.6609,-112.07600000000001,6663,2018-03-30
828067,23914869,"3308 N 39TH Ave, Phoenix, AZ 85019 ",85019,0.9348578155040741,159900,https://www.zillow.com/homedetails/3308-N-39TH-Ave-Phoenix-AZ-85019/7509252_zpid/,33.486,-112.14299999999999,6647,2018-03-14
389457,23937798,"3919 W Northview Ave, Phoenix, AZ 85051 ",85051,0.9346047937870026,199990,https://www.zillow.com/homedetails/3919-W-Northview-Ave-Phoenix-AZ-85051/7757815_zpid/,33.5436,-112.14399999999999,6663,2018-03-30
40028,23875647,"2304 S 66TH Ln, Phoenix, AZ 85043 ",85043,0.9342688620090485,219900,https://www.zillow.com/homedetails/2304-S-66TH-Ln-Phoenix-AZ-85043/67773205_zpid/,33.427,-112.204,6617,2018-02-12
829603,23937765,"3709 W Stella Ln, Phoenix, AZ 85019 ",85019,0.9341262578964233,194900,https://www.zillow.com/homedetails/3709-W-Stella-Ln-Phoenix-AZ-85019/7761208_zpid/,33.5303,-112.139,6668,2018-04-04
7515382,22616806,"3843 W Grant St, Phoenix, AZ 85009 ",85009,0.9340979754924774,114900,https://www.zillow.com/homedetails/3843-W-Grant-St-Phoenix-AZ-85009/7506219_zpid/,33.4411,-112.14299999999999,6403,2017-07-13
528117,23877942,"9562 W Monte Vista Rd, Phoenix, AZ 85037 ",85037,0.9340962469577789,209900,https://www.zillow.com/homedetails/9562-W-Monte-Vista-Rd-Phoenix-AZ-85037/60975006_zpid/,33.4704,-112.26700000000001,6617,2018-02-12
479866,23888239,"2221 N 61st Dr, Phoenix, AZ 85035 ",85035,0.9338684678077698,158000,https://www.zillow.com/homedetails/2221-N-61st-Dr-Phoenix-AZ-85035/7491086_zpid/,33.472,-112.191,6622,2018-02-17
221453,23937580,"9814 N 1ST St, Phoenix, AZ 85020 ",85020,0.9336639940738678,229000,https://www.zillow.com/homedetails/9814-N-1ST-St-Phoenix-AZ-85020/7788475_zpid/,33.5757,-112.073,6669,2018-04-05
832520,23884707,"4220 W Cavalier Dr, Phoenix, AZ 85019 ",85019,0.9336554706096649,172000,https://www.zillow.com/homedetails/4220-W-Cavalier-Dr-Phoenix-AZ-85019/7760517_zpid/,33.5263,-112.15,6603,2018-01-29
9033768,23933750,"6738 W Meadowbrook Ave, Phoenix, AZ 85033 ",85033,0.933337390422821,187620,https://www.zillow.com/homedetails/6738-W-Meadowbrook-Ave-Phoenix-AZ-85033/7716811_zpid/,33.5044,-112.205,6671,2018-04-07
246153,23943409,"2035 W Tracy Ln, Phoenix, AZ 85023 ",85023,0.9331853985786438,224800,https://www.zillow.com/homedetails/2035-W-Tracy-Ln-Phoenix-AZ-85023/7965969_zpid/,33.6276,-112.104,6673,2018-04-09
411698,23919819,"5245 W Christy Dr, Glendale, AZ 85304 ",85304,0.9329151809215546,226000,https://www.zillow.com/homedetails/5245-W-Christy-Dr-Glendale-AZ-85304/7737073_zpid/,33.5839,-112.17299999999999,6655,2018-03-22
9034354,23937990,"6521 N 19TH Dr, Phoenix, AZ 85015 ",85015,0.9329077303409576,170000,https://www.zillow.com/homedetails/6521-N-19TH-Dr-Phoenix-AZ-85015/7773420_zpid/,33.5321,-112.1,6660,2018-03-27
9031632,23915088,"7131 W Monterey Way, Phoenix, AZ 85033 ",85033,0.932875782251358,225000,https://www.zillow.com/homedetails/7131-W-Monterey-Way-Phoenix-AZ-85033/62727096_zpid/,33.4842,-112.214,6649,2018-03-16
312698,23943944,"1529 W Cocopah St, Phoenix, AZ 85007 ",85007,0.9328305125236511,114900,https://www.zillow.com/homedetails/1529-W-Cocopah-St-Phoenix-AZ-85007/7501361_zpid/,33.4314,-112.09299999999999,6676,2018-04-12
1346544,23938159,"4852 W Frier Dr, Glendale, AZ 85301 ",85301,0.9327922165393829,227900,https://www.zillow.com/homedetails/4852-W-Frier-Dr-Glendale-AZ-85301/7724567_zpid/,33.5494,-112.164,6668,2018-04-04
226245,23937307,"14846 N 29TH Ave, Phoenix, AZ 85053 ",85053,0.9324617981910706,160000,https://www.zillow.com/homedetails/14846-N-29TH-Ave-Phoenix-AZ-85053/7953038_zpid/,33.6216,-112.12100000000001,6673,2018-04-09
9031523,23914303,"7826 W Hearn Rd, Peoria, AZ 85381 ",85381,0.9320830702781677,235000,https://www.zillow.com/homedetails/7826-W-Hearn-Rd-Peoria-AZ-85381/7909437_zpid/,33.6142,-112.227,6656,2018-03-23
504031,23914796,"2207 N 47TH Dr, Phoenix, AZ 85035 ",85035,0.9320232272148132,169000,https://www.zillow.com/homedetails/2207-N-47TH-Dr-Phoenix-AZ-85035/7494471_zpid/,33.4715,-112.161,6655,2018-03-22
9031502,23914273,"7102 W Brown St, Peoria, AZ 85345 ",85345,0.9310079514980316,210000,https://www.zillow.com/homedetails/7102-W-Brown-St-Peoria-AZ-85345/7701394_zpid/,33.5774,-112.212,6648,2018-03-15
390575,23937395,"4026 W Harmont Dr, Phoenix, AZ 85051 ",85051,0.930987149477005,219900,https://www.zillow.com/homedetails/4026-W-Harmont-Dr-Phoenix-AZ-85051/7753017_zpid/,33.5545,-112.147,6652,2018-03-19
9031614,23933549,"2802 N 73RD Dr, Phoenix, AZ 85035 ",85035,0.930978924036026,225000,https://www.zillow.com/homedetails/2802-N-73RD-Dr-Phoenix-AZ-85035/95171538_zpid/,33.479,-112.21700000000001,6669,2018-04-05
1117500,23939304,"1985 N Lexington Dr, Chandler, AZ 85224 ",85224,0.9307439923286438,200000,https://www.zillow.com/homedetails/1985-N-Lexington-Dr-Chandler-AZ-85224/8193155_zpid/,33.3343,-111.887,6670,2018-04-06
450052,23933781,"8643 W Minnezona Ave, Phoenix, AZ 85037 ",85037,0.9307034015655518,199500,https://www.zillow.com/homedetails/8643-W-Minnezona-Ave-Phoenix-AZ-85037/7483781_zpid/,33.5024,-112.24600000000001,6669,2018-04-05
1406168,23938283,"6737 W State Ave, Glendale, AZ 85303 ",85303,0.9306991696357727,167500,https://www.zillow.com/homedetails/6737-W-State-Ave-Glendale-AZ-85303/7704766_zpid/,33.5439,-112.205,6663,2018-03-30
1348146,23892132,"5323 W Northview Ave, Glendale, AZ 85301 ",85301,0.9303904473781586,209900,https://www.zillow.com/homedetails/5323-W-Northview-Ave-Glendale-AZ-85301/7726179_zpid/,33.5429,-112.17399999999999,6627,2018-02-22
9034375,23938221,"5725 W Purdue Ave, Glendale, AZ 85302 ",85302,0.930389791727066,237500,https://www.zillow.com/homedetails/5725-W-Purdue-Ave-Glendale-AZ-85302/92354147_zpid/,33.5733,-112.18299999999999,6665,2018-04-01
9034683,23941118,"2402 W Washington St, Phoenix, AZ 85009 ",85009,0.9303147792816162,150000,https://www.zillow.com/homedetails/2402-W-Washington-St-Phoenix-AZ-85009/7515205_zpid/,33.4483,-112.111,6673,2018-04-09
9034170,23948186,"3329 E Topeka Dr, Phoenix, AZ 85050 ",85050,0.9300940930843353,239900,https://www.zillow.com/homedetails/3329-E-Topeka-Dr-Phoenix-AZ-85050/7993002_zpid/,33.6602,-112.01,6676,2018-04-12
5331579,23937848,"5750 N 32ND Ave, Phoenix, AZ 85017 ",85017,0.9299602508544922,199000,https://www.zillow.com/homedetails/5750-N-32ND-Ave-Phoenix-AZ-85017/7762662_zpid/,33.5225,-112.12799999999999,6664,2018-03-31
9030972,23919757,"4908 W Royal Palm Rd, Glendale, AZ 85302 ",85302,0.9299015998840332,205000,https://www.zillow.com/homedetails/4908-W-Royal-Palm-Rd-Glendale-AZ-85302/7732044_zpid/,33.5561,-112.165,6654,2018-03-21
8946577,23914187,"7437 W Sahuaro Dr, Peoria, AZ 85345 ",85345,0.9298471808433533,229900,https://www.zillow.com/homedetails/7437-W-Sahuaro-Dr-Peoria-AZ-85345/7705668_zpid/,33.5834,-112.219,6655,2018-03-22
9140,23873874,"11426 N Balboa Dr, Sun City, AZ 85351 ",85351,0.9298388659954071,178500,https://www.zillow.com/homedetails/11426-N-Balboa-Dr-Sun-City-AZ-85351/7689228_zpid/,33.5882,-112.274,6612,2018-02-07
391172,23937321,"3115 W Sahuaro Dr, Phoenix, AZ 85029 ",85029,0.9298298954963684,249900,https://www.zillow.com/homedetails/3115-W-Sahuaro-Dr-Phoenix-AZ-85029/7740851_zpid/,33.5836,-112.126,6659,2018-03-26
830423,23937776,"3812 W Missouri Ave, Phoenix, AZ 85019",85019,0.9297115206718445,162000,"https://mcassessor.maricopa.gov/mcs.php?q=3812 W Missouri Ave, Phoenix, AZ 85019",33.5169,-112.14200000000001,6626,2018-02-21
425848,23933582,"4032 N 81ST Ave, Phoenix, AZ 85033 ",85033,0.9292649924755096,218000,https://www.zillow.com/homedetails/4032-N-81ST-Ave-Phoenix-AZ-85033/7478839_zpid/,33.4935,-112.234,6671,2018-04-07
435208,23933527,"2030 N 90TH Ln, Phoenix, AZ 85037 ",85037,0.9292311668395996,199000,https://www.zillow.com/homedetails/2030-N-90TH-Ln-Phoenix-AZ-85037/7486901_zpid/,33.4698,-112.255,6673,2018-04-09
423213,23920166,"8553 N 63RD Dr, Glendale, AZ 85302 ",85302,0.9289634227752686,222000,https://www.zillow.com/homedetails/8553-N-63RD-Dr-Glendale-AZ-85302/81980207_zpid/,33.5622,-112.195,6646,2018-03-13
248302,23882154,"3449 W Port Au Prince Ln, Phoenix, AZ 85053 ",85053,0.9288405179977417,169000,https://www.zillow.com/homedetails/3449-W-Port-Au-Prince-Ln-Phoenix-AZ-85053/7943679_zpid/,33.6228,-112.133,6610,2018-02-05
9029992,23914453,"8614 W Cherry Hills Dr, Peoria, AZ 85345 ",85345,0.9286485314369202,234800,https://www.zillow.com/homedetails/8614-W-Cherry-Hills-Dr-Peoria-AZ-85345/7685507_zpid/,33.5927,-112.245,6656,2018-03-23
9034652,23940877,"9019 W Malapai Dr, Peoria, AZ 85345 ",85345,0.9282244443893433,228700,https://www.zillow.com/homedetails/9019-W-Malapai-Dr-Peoria-AZ-85345/7684254_zpid/,33.5748,-112.25399999999999,6669,2018-04-05
220988,23937576,"922 E Cinnabar Ave, Phoenix, AZ 85020 ",85020,0.9282104671001434,239900,https://www.zillow.com/homedetails/922-E-Cinnabar-Ave-Phoenix-AZ-85020/7787450_zpid/,33.577,-112.06,6674,2018-04-10
493013,23914956,"5834 W Berkeley Rd, Phoenix, AZ 85035 ",85035,0.9281387031078339,189000,https://www.zillow.com/homedetails/5834-W-Berkeley-Rd-Phoenix-AZ-85035/7492761_zpid/,33.4685,-112.185,6654,2018-03-21
7414272,23914263,"7535 W Ironwood Dr, Peoria, AZ 85345 ",85345,0.928027331829071,210500,https://www.zillow.com/homedetails/7535-W-Ironwood-Dr-Peoria-AZ-85345/7682206_zpid/,33.5752,-112.22200000000001,6653,2018-03-20
424925,23920234,"9808 N 47TH Ave, Glendale, AZ 85302 ",85302,0.927889496088028,244900,https://www.zillow.com/homedetails/9808-N-47TH-Ave-Glendale-AZ-85302/7728902_zpid/,33.575,-112.16,6646,2018-03-13
3213,23914359,"8190 W Palo Verde Ave, Peoria, AZ 85345 ",85345,0.9277767837047577,209000,https://www.zillow.com/homedetails/8190-W-Palo-Verde-Ave-Peoria-AZ-85345/67765123_zpid/,33.5725,-112.235,6656,2018-03-23
395806,23937485,"8043 N 29TH Dr, Phoenix, AZ 85051 ",85051,0.9276779592037201,224900,https://www.zillow.com/homedetails/8043-N-29TH-Dr-Phoenix-AZ-85051/7751210_zpid/,33.5547,-112.12200000000001,6674,2018-04-10
383512,23937764,"3320 W Cactus Wren Dr, Phoenix, AZ 85051 ",85051,0.9273163080215454,209900,https://www.zillow.com/homedetails/3320-W-Cactus-Wren-Dr-Phoenix-AZ-85051/7756980_zpid/,33.5402,-112.131,6660,2018-03-27
231468,23943342,"1516 W Hartford Ave, Phoenix, AZ 85023 ",85023,0.9272559285163879,199999,https://www.zillow.com/homedetails/1516-W-Hartford-Ave-Phoenix-AZ-85023/7965136_zpid/,33.6433,-112.09200000000001,6662,2018-03-29
9031630,23943793,"7126 W Montecito Ave, Phoenix, AZ 85033 ",85033,0.9272432923316956,175000,https://www.zillow.com/homedetails/7126-W-Montecito-Ave-Phoenix-AZ-85033/7711401_zpid/,33.5002,-112.213,6675,2018-04-11
9034322,23937475,"3548 W El Caminito Dr, Phoenix, AZ 85051 ",85051,0.9271787405014038,160000,https://www.zillow.com/homedetails/3548-W-El-Caminito-Dr-Phoenix-AZ-85051/7754400_zpid/,33.5589,-112.13600000000001,6668,2018-04-04
9032392,23922365,"4708 E Taylor St, Phoenix, AZ 85008 ",85008,0.9271339476108551,180000,https://www.zillow.com/homedetails/4708-E-Taylor-St-Phoenix-AZ-85008/2090543614_zpid/,33.4542,-111.98,6653,2018-03-20
337793,22745680,"2343 W Diana Ave, Phoenix, AZ 85021 ",85021,0.9270849227905273,225000,https://www.zillow.com/homedetails/2343-W-Diana-Ave-Phoenix-AZ-85021/7782287_zpid/,33.563,-112.11,6491,2017-10-09
9030455,23907854,"8242 W Whitton Ave, Phoenix, AZ 85033 ",85033,0.9270564913749695,199900,https://www.zillow.com/homedetails/8242-W-Whitton-Ave-Phoenix-AZ-85033/7478970_zpid/,33.4879,-112.23700000000001,6605,2018-01-31
451876,23881479,"8821 W Columbus Ave, Phoenix, AZ 85037 ",85037,0.9270410537719727,174000,https://www.zillow.com/homedetails/8821-W-Columbus-Ave-Phoenix-AZ-85037/7470735_zpid/,33.4888,-112.249,6620,2018-02-15
9028602,23899875,"8136 W Monterey Way, Phoenix, AZ 85033 ",85033,0.9269733130931854,179000,https://www.zillow.com/homedetails/8136-W-Monterey-Way-Phoenix-AZ-85033/7479180_zpid/,33.4844,-112.236,6621,2018-02-16
1374748,23938379,"8975 W Nicolet Ave, Glendale, AZ 85305 ",85305,0.926666259765625,225000,https://www.zillow.com/homedetails/8975-W-Nicolet-Ave-Glendale-AZ-85305/95133442_zpid/,33.541,-112.25200000000001,6662,2018-03-29
463987,23937704,"2809 W Minnezona Ave, Phoenix, AZ 85017",85017,0.9266344010829926,129900,"https://mcassessor.maricopa.gov/mcs.php?q=2809 W Minnezona Ave, Phoenix, AZ 85017",33.5028,-112.12,6674,2018-04-10
1408167,23938282,"6911 W Gardenia Ave, Glendale, AZ 85303 ",85303,0.9266200661659241,170000,https://www.zillow.com/homedetails/6911-W-Gardenia-Ave-Glendale-AZ-85303/7704835_zpid/,33.5446,-112.208,6671,2018-04-07
448361,23888250,"8402 W Coolidge St, Phoenix, AZ 85037 ",85037,0.9266142547130585,183500,https://www.zillow.com/homedetails/8402-W-Coolidge-St-Phoenix-AZ-85037/7481009_zpid/,33.5049,-112.24,6622,2018-02-17
1346321,23938162,"4834 W Kaler Cir, Glendale, AZ 85301 ",85301,0.9265810549259186,234850,https://www.zillow.com/homedetails/4834-W-Kaler-Cir-Glendale-AZ-85301/7724623_zpid/,33.5489,-112.164,6674,2018-04-10
328263,23891369,"2142 W Clarendon Ave, Phoenix, AZ 85015 ",85015,0.9264282584190369,168500,https://www.zillow.com/homedetails/2142-W-Clarendon-Ave-Phoenix-AZ-85015/7516010_zpid/,33.4915,-112.10600000000001,6620,2018-02-15
9034179,23935457,"3636 E Ludlow Dr, Phoenix, AZ 85032 ",85032,0.926262229681015,217000,https://www.zillow.com/homedetails/3636-E-Ludlow-Dr-Phoenix-AZ-85032/8012374_zpid/,33.614000000000004,-112.00200000000001,6662,2018-03-29
230372,23915232,"16642 N 40TH Ave, Phoenix, AZ 85053 ",85053,0.9262112081050873,215000,https://www.zillow.com/homedetails/16642-N-40TH-Ave-Phoenix-AZ-85053/7946503_zpid/,33.6371,-112.145,6653,2018-03-20
415235,23938053,"10033 N 66TH Ln, Glendale, AZ 85302 ",85302,0.9262108206748962,214500,https://www.zillow.com/homedetails/10033-N-66TH-Ln-Glendale-AZ-85302/7706521_zpid/,33.5773,-112.20200000000001,6668,2018-04-04
384896,23937217,"1495 W Sahuaro Dr, Phoenix, AZ 85029 ",85029,0.9262086451053619,149900,https://www.zillow.com/homedetails/1495-W-Sahuaro-Dr-Phoenix-AZ-85029/7785076_zpid/,33.5837,-112.09100000000001,6661,2018-03-28
1469628,23940750,"8372 W Oraibi Dr, Peoria, AZ 85382 ",85382,0.9254230260848999,235000,https://www.zillow.com/homedetails/8372-W-Oraibi-Dr-Peoria-AZ-85382/8102069_zpid/,33.6626,-112.23899999999999,6667,2018-04-03
9034562,23940344,"15230 N 85TH Dr, Peoria, AZ 85381 ",85381,0.9252272546291351,220000,https://www.zillow.com/homedetails/15230-N-85TH-Dr-Peoria-AZ-85381/7908952_zpid/,33.6223,-112.245,6660,2018-03-27
204922,23937158,"1002 E Cinnabar Ave, Phoenix, AZ 85020 ",85020,0.9252239465713501,219900,https://www.zillow.com/homedetails/1002-E-Cinnabar-Ave-Phoenix-AZ-85020/7787449_zpid/,33.577,-112.06,6674,2018-04-10
360276,23947489,"8322 W Mohave St, Tolleson, AZ 85353 ",85353,0.9248871803283691,247500,https://www.zillow.com/homedetails/8322-W-Mohave-St-Tolleson-AZ-85353/59271604_zpid/,33.4321,-112.24,6677,2018-04-13
245587,23943541,"3331 W Libby St, Phoenix, AZ 85053 ",85053,0.9245185554027557,238500,https://www.zillow.com/homedetails/3331-W-Libby-St-Phoenix-AZ-85053/7941375_zpid/,33.6479,-112.131,6669,2018-04-05
354813,23876165,"843 N 59TH Dr, Phoenix, AZ 85043 ",85043,0.9244998693466187,167900,https://www.zillow.com/homedetails/843-N-59TH-Dr-Phoenix-AZ-85043/7495984_zpid/,33.4586,-112.18700000000001,6618,2018-02-13
7415090,23937363,"3435 W Dahlia Dr, Phoenix, AZ 85029 ",85029,0.9244907796382904,193500,https://www.zillow.com/homedetails/3435-W-Dahlia-Dr-Phoenix-AZ-85029/7747595_zpid/,33.6027,-112.133,6653,2018-03-20
1416474,23938335,"7600 W Krall St, Glendale, AZ 85303 ",85303,0.9243630766868591,245000,https://www.zillow.com/homedetails/7600-W-Krall-St-Glendale-AZ-85303/7463234_zpid/,33.5348,-112.223,6666,2018-04-02
9033246,23941275,"8421 W Cocopah St, Tolleson, AZ 85353 ",85353,0.9242816865444183,215000,https://www.zillow.com/homedetails/8421-W-Cocopah-St-Tolleson-AZ-85353/59271616_zpid/,33.4321,-112.241,6674,2018-04-10
9031552,23914473,"8540 W Shaw Butte Dr, Peoria, AZ 85345 ",85345,0.9242708683013916,235000,https://www.zillow.com/homedetails/8540-W-Shaw-Butte-Dr-Peoria-AZ-85345/7685370_zpid/,33.5951,-112.243,6641,2018-03-08
42458,23891642,"6830 W Garfield St, Phoenix, AZ 85043 ",85043,0.9242326021194458,199900,https://www.zillow.com/homedetails/6830-W-Garfield-St-Phoenix-AZ-85043/7476107_zpid/,33.4575,-112.20700000000001,6626,2018-02-21
327371,23937710,"2022 W Rancho Dr, Phoenix, AZ 85015 ",85015,0.924135148525238,235000,https://www.zillow.com/homedetails/2022-W-Rancho-Dr-Phoenix-AZ-85015/7763365_zpid/,33.5221,-112.102,6673,2018-04-09
9033767,23933763,"4813 N 78TH Ave, Phoenix, AZ 85033 ",85033,0.923578530550003,210000,https://www.zillow.com/homedetails/4813-N-78TH-Ave-Phoenix-AZ-85033/7467909_zpid/,33.5083,-112.227,6667,2018-04-03
422747,23938363,"8312 N 62ND Dr, Glendale, AZ 85302 ",85302,0.923512876033783,243000,https://www.zillow.com/homedetails/8312-N-62ND-Dr-Glendale-AZ-85302/7704216_zpid/,33.5576,-112.194,6674,2018-04-10
9034351,23937893,"3653 W Rose Ln, Phoenix, AZ 85019 ",85019,0.9233476519584656,185000,https://www.zillow.com/homedetails/3653-W-Rose-Ln-Phoenix-AZ-85019/7759128_zpid/,33.5274,-112.13799999999999,6671,2018-04-07
9026610,23949668,"2304 W Los Arboles Pl, Chandler, AZ 85224 ",85224,0.9232469201087952,210000,https://www.zillow.com/homedetails/2304-W-Los-Arboles-Pl-Chandler-AZ-85224/8192359_zpid/,33.5879,-111.96,6683,2018-04-19
472195,23937819,"4725 N 29TH Ave, Phoenix, AZ 85017 ",85017,0.923134058713913,189900,https://www.zillow.com/homedetails/4725-N-29TH-Ave-Phoenix-AZ-85017/7766023_zpid/,33.5066,-112.12,6661,2018-03-28
9032259,23919953,"19410 N 75TH Dr, Glendale, AZ 85308 ",85308,0.9228586554527283,240000,https://www.zillow.com/homedetails/19410-N-75TH-Dr-Glendale-AZ-85308/8101537_zpid/,33.6602,-112.221,6656,2018-03-23
9034373,23938207,"5518 W Lamar Rd, Glendale, AZ 85301 ",85301,0.9226508140563965,197000,https://www.zillow.com/homedetails/5518-W-Lamar-Rd-Glendale-AZ-85301/2090266449_zpid/,33.5371,-112.178,6669,2018-04-05
9035111,23944842,"3743 W Hartford Ave, Glendale, AZ 85308 ",85308,0.9226205348968506,244000,https://www.zillow.com/homedetails/3743-W-Hartford-Ave-Glendale-AZ-85308/7947333_zpid/,33.6419,-112.141,6676,2018-04-12
441247,23933553,"2944 N 88TH Dr, Phoenix, AZ 85037 ",85037,0.9224807918071747,199900,https://www.zillow.com/homedetails/2944-N-88TH-Dr-Phoenix-AZ-85037/7479864_zpid/,33.4814,-112.25,6661,2018-03-28
339523,23937899,"7010 N 23RD Ln, Phoenix, AZ 85021 ",85021,0.9224642515182495,199900,https://www.zillow.com/homedetails/7010-N-23RD-Ln-Phoenix-AZ-85021/7779136_zpid/,33.5391,-112.11,6667,2018-04-03
249034,23948563,"2218 W Danbury Rd, Phoenix, AZ 85023 ",85023,0.9223622977733612,214900,https://www.zillow.com/homedetails/2218-W-Danbury-Rd-Phoenix-AZ-85023/7958264_zpid/,33.6416,-112.10799999999999,6677,2018-04-13
9020413,23933594,"3833 N 63RD Ave, Phoenix, AZ 85033 ",85033,0.9222210049629211,182000,https://www.zillow.com/homedetails/3833-N-63RD-Ave-Phoenix-AZ-85033/7496523_zpid/,33.493,-112.195,6668,2018-04-04
387630,23949833,"3746 W Puget Ave, Phoenix, AZ 85051 ",85051,0.9221699237823486,194500,https://www.zillow.com/homedetails/3746-W-Puget-Ave-Phoenix-AZ-85051/7754271_zpid/,33.567,-112.141,6649,2018-03-16
450647,23933787,"8739 W Clarendon Ave, Phoenix, AZ 85037 ",85037,0.9221304357051849,200000,https://www.zillow.com/homedetails/8739-W-Clarendon-Ave-Phoenix-AZ-85037/7470762_zpid/,33.4904,-112.24799999999999,6669,2018-04-05
9031612,23914877,"3013 N 37TH Ave, Phoenix, AZ 85019 ",85019,0.9219635725021362,175000,https://www.zillow.com/homedetails/3013-N-37TH-Ave-Phoenix-AZ-85019/7507742_zpid/,33.4829,-112.13799999999999,6653,2018-03-20
9033228,23929633,"9201 W Elkhorn Dr, Sun City, AZ 85351 ",85351,0.9217650294303894,244900,https://www.zillow.com/homedetails/9201-W-Elkhorn-Dr-Sun-City-AZ-85351/2090473768_zpid/,33.6116,-112.258,6657,2018-03-24
410727,23938156,"4924 W Saguaro Dr, Glendale, AZ 85304 ",85304,0.9216202199459076,249900,https://www.zillow.com/homedetails/4924-W-Saguaro-Dr-Glendale-AZ-85304/7728360_zpid/,33.5836,-112.166,6671,2018-04-07
394898,23937359,"3669 W Aster Dr, Phoenix, AZ 85029 ",85029,0.9215735197067261,200000,https://www.zillow.com/homedetails/3669-W-Aster-Dr-Phoenix-AZ-85029/7742984_zpid/,33.6019,-112.13799999999999,6670,2018-04-06
8980472,23915022,"7748 W Minnezona Ave, Phoenix, AZ 85033 ",85033,0.9214248955249786,169900,https://www.zillow.com/homedetails/7748-W-Minnezona-Ave-Phoenix-AZ-85033/7482425_zpid/,33.5021,-112.227,6645,2018-03-12
226156,23943336,"1422 W Sack Dr, Phoenix, AZ 85027 ",85027,0.9211118817329407,227532,https://www.zillow.com/homedetails/1422-W-Sack-Dr-Phoenix-AZ-85027/7968968_zpid/,33.658,-112.09,6673,2018-04-09
9024040,23873322,"2215 S 99TH Ln, Tolleson, AZ 85353 ",85353,0.9211062490940094,213999,https://www.zillow.com/homedetails/2215-S-99TH-Ln-Tolleson-AZ-85353/95076703_zpid/,33.4261,-112.273,6610,2018-02-05
388381,23937312,"2314 W Sunnyside Dr, Phoenix, AZ 85029 ",85029,0.9209660589694977,218000,https://www.zillow.com/homedetails/2314-W-Sunnyside-Dr-Phoenix-AZ-85029/7749534_zpid/,33.593,-112.109,6668,2018-04-04
384730,23937759,"3507 W Frier Dr, Phoenix, AZ 85051 ",85051,0.9209434688091278,210000,https://www.zillow.com/homedetails/3507-W-Frier-Dr-Phoenix-AZ-85051/7755806_zpid/,33.5492,-112.135,6651,2018-03-18
828943,23890684,"3619 W Krall St, Phoenix, AZ 85019 ",85019,0.9208492636680603,179990,https://www.zillow.com/homedetails/3619-W-Krall-St-Phoenix-AZ-85019/7761766_zpid/,33.5341,-112.137,6626,2018-02-21
418337,23938163,"5110 W Purdue Ave, Glendale, AZ 85302 ",85302,0.9207877516746521,209499,https://www.zillow.com/homedetails/5110-W-Purdue-Ave-Glendale-AZ-85302/7734371_zpid/,33.5739,-112.17,6673,2018-04-09
442226,23933595,"4202 N 89TH Ln, Phoenix, AZ 85037 ",85037,0.920742392539978,182000,https://www.zillow.com/homedetails/4202-N-89TH-Ln-Phoenix-AZ-85037/7467499_zpid/,33.4961,-112.25299999999999,6662,2018-03-29
1123735,23931249,"2705 W Brooks St, Chandler, AZ 85224 ",85224,0.9204233884811401,199900,https://www.zillow.com/homedetails/2705-W-Brooks-St-Chandler-AZ-85224/8193238_zpid/,33.3342,-111.88799999999999,6671,2018-04-07
9028708,23900096,"7121 N 25TH Dr, Phoenix, AZ 85051 ",85051,0.9203600287437439,134900,https://www.zillow.com/homedetails/7121-N-25TH-Dr-Phoenix-AZ-85051/7779592_zpid/,33.5417,-112.113,6619,2018-02-14
402846,23919717,"12115 N 66TH Ave, Glendale, AZ 85304 ",85304,0.9201512634754181,229990,https://www.zillow.com/homedetails/12115-N-66TH-Ave-Glendale-AZ-85304/67401338_zpid/,33.5959,-112.20100000000001,6646,2018-03-13
21550,23880121,"8329 W Gross Ave, Tolleson, AZ 85353 ",85353,0.9201193749904633,198000,https://www.zillow.com/homedetails/8329-W-Gross-Ave-Tolleson-AZ-85353/59271315_zpid/,33.4293,-112.24,6620,2018-02-15
9033764,23933631,"4221 N 64TH Dr, Phoenix, AZ 85033 ",85033,0.9197581708431244,220000,https://www.zillow.com/homedetails/4221-N-64TH-Dr-Phoenix-AZ-85033/7717397_zpid/,33.498000000000005,-112.198,6664,2018-03-31
9034356,23937994,"6802 N 38TH Dr, Phoenix, AZ 85019 ",85019,0.9193631708621979,185000,https://www.zillow.com/homedetails/6802-N-38TH-Dr-Phoenix-AZ-85019/7758361_zpid/,33.5366,-112.14200000000001,6671,2018-04-07
435965,23872021,"2237 N 94th Ave, Phoenix, AZ 85037 ",85037,0.9191410541534424,224000,https://www.zillow.com/homedetails/2237-N-94th-Ave-Phoenix-AZ-85037/67773064_zpid/,33.4752,-112.26100000000001,6602,2018-01-28
459758,23914947,"5719 W Roma Ave, Phoenix, AZ 85031 ",85031,0.9190155565738678,129000,https://www.zillow.com/homedetails/5719-W-Roma-Ave-Phoenix-AZ-85031/7712867_zpid/,33.4994,-112.18299999999999,6655,2018-03-22
418828,23938179,"5233 W Palo Verde Ave, Glendale, AZ 85302 ",85302,0.9189199805259705,159900,https://www.zillow.com/homedetails/5233-W-Palo-Verde-Ave-Glendale-AZ-85302/7734563_zpid/,33.5726,-112.17299999999999,6663,2018-03-30
139899,23929627,"9827 W Wrangler Dr, Sun City, AZ 85373 ",85373,0.918868750333786,205000,https://www.zillow.com/homedetails/9827-W-Wrangler-Dr-Sun-City-AZ-85373/8095448_zpid/,33.6396,-112.272,6655,2018-03-22
397640,23946055,"8538 N 30TH Dr, Phoenix, AZ 85051 ",85051,0.918582946062088,149900,https://www.zillow.com/homedetails/8538-N-30TH-Dr-Phoenix-AZ-85051/7750669_zpid/,33.5618,-112.125,6677,2018-04-13
497391,23877834,"6741 W Virginia Ave, Phoenix, AZ 85035 ",85035,0.9185653030872345,172800,https://www.zillow.com/homedetails/6741-W-Virginia-Ave-Phoenix-AZ-85035/7475866_zpid/,33.4765,-112.205,6599,2018-01-25
456208,23945404,"4830 N 57TH Ave, Phoenix, AZ 85031 ",85031,0.918318510055542,220500,https://www.zillow.com/homedetails/4830-N-57TH-Ave-Phoenix-AZ-85031/7713449_zpid/,33.5089,-112.182,6676,2018-04-12
224578,23937233,"14402 N 35TH Ave, Phoenix, AZ 85053 ",85053,0.9181963205337524,219500,https://www.zillow.com/homedetails/14402-N-35TH-Ave-Phoenix-AZ-85053/7944567_zpid/,33.6162,-112.134,6662,2018-03-29
829745,23914923,"3719 W Catalina Dr, Phoenix, AZ 85019 ",85019,0.9180404543876648,200000,https://www.zillow.com/homedetails/3719-W-Catalina-Dr-Phoenix-AZ-85019/7507458_zpid/,33.4817,-112.14,6648,2018-03-15
9032618,23929630,"9942 W Concord Ave, Sun City, AZ 85351 ",85351,0.918017715215683,190000,https://www.zillow.com/homedetails/9942-W-Concord-Ave-Sun-City-AZ-85351/7688665_zpid/,33.576,-112.275,6653,2018-03-20
404128,23938064,"13026 N 55TH Dr, Glendale, AZ 85304 ",85304,0.9179347157478333,184900,https://www.zillow.com/homedetails/13026-N-55TH-Dr-Glendale-AZ-85304/7896744_zpid/,33.6023,-112.176,6670,2018-04-06
1086717,23921027,"401 N Cheri Lynn Dr, Chandler, AZ 85225 ",85225,0.9178857505321503,229999,https://www.zillow.com/homedetails/401-N-Cheri-Lynn-Dr-Chandler-AZ-85225/8186935_zpid/,33.3099,-111.853,6636,2018-03-03
7529744,23939322,"2316 W Mcnair St, Chandler, AZ 85224 ",85224,0.9178812801837921,249900,https://www.zillow.com/homedetails/2316-W-Mcnair-St-Chandler-AZ-85224/8197005_zpid/,33.3514,-111.885,6658,2018-03-25
9026717,23904474,"1223 E Hess Ave, Phoenix, AZ 85034 ",85034,0.9178626835346222,135000,https://www.zillow.com/homedetails/1223-E-Hess-Ave-Phoenix-AZ-85034/119227707_zpid/,33.4286,-112.054,6600,2018-01-26
387068,23937253,"2118 W Laurel Ln, Phoenix, AZ 85029 ",85029,0.9175753891468048,180000,https://www.zillow.com/homedetails/2118-W-Laurel-Ln-Phoenix-AZ-85029/7748888_zpid/,33.5948,-112.105,6666,2018-04-02
9033761,23933616,"4056 N 79TH Ave, Phoenix, AZ 85033 ",85033,0.9174747169017792,194900,https://www.zillow.com/homedetails/4056-N-79TH-Ave-Phoenix-AZ-85033/7477969_zpid/,33.4942,-112.229,6669,2018-04-05
397615,23937394,"4056 W Mescal St, Phoenix, AZ 85029 ",85029,0.9173808097839355,209000,https://www.zillow.com/homedetails/4056-W-Mescal-St-Phoenix-AZ-85029/7744729_zpid/,33.5863,-112.147,6648,2018-03-15
498692,23914992,"6945 W Palm Ln, Phoenix, AZ 85035 ",85035,0.9172957539558411,175000,https://www.zillow.com/homedetails/6945-W-Palm-Ln-Phoenix-AZ-85035/7481384_zpid/,33.4689,-112.209,6655,2018-03-22
9034613,23940641,"7232 W Brown St, Peoria, AZ 85345 ",85345,0.9172575175762177,190000,https://www.zillow.com/homedetails/7232-W-Brown-St-Peoria-AZ-85345/7701406_zpid/,33.5773,-112.215,6669,2018-04-05
2798,23890560,"1801 N 66TH Ave, Phoenix, AZ 85035 ",85035,0.9171393811702728,150000,https://www.zillow.com/homedetails/1801-N-66TH-Ave-Phoenix-AZ-85035/7490444_zpid/,33.4678,-112.20100000000001,6626,2018-02-21
9031619,23933615,"4617 W Fairmount Ave, Phoenix, AZ 85031 ",85031,0.917114794254303,183499,https://www.zillow.com/homedetails/4617-W-Fairmount-Ave-Phoenix-AZ-85031/7508066_zpid/,33.4935,-112.15899999999999,6670,2018-04-06
9031575,23914636,"9138 W John Cabot Rd, Peoria, AZ 85382 ",85382,0.916826993227005,225000,https://www.zillow.com/homedetails/9138-W-John-Cabot-Rd-Peoria-AZ-85382/8104798_zpid/,33.6484,-112.256,6654,2018-03-21
421193,23938229,"6154 W Echo Ln, Glendale, AZ 85302 ",85302,0.916818380355835,210000,https://www.zillow.com/homedetails/6154-W-Echo-Ln-Glendale-AZ-85302/7704172_zpid/,33.5584,-112.193,6667,2018-04-03
435016,23950139,"7750 W Clarendon Ave, Phoenix, AZ 85033 ",85033,0.9165001213550568,179000,https://www.zillow.com/homedetails/7750-W-Clarendon-Ave-Phoenix-AZ-85033/7478454_zpid/,33.4911,-112.227,6677,2018-04-13
9034709,23941391,"395 N 21ST Ave, Phoenix, AZ 85009 ",85009,0.9164795577526093,164900,https://www.zillow.com/homedetails/395-N-21ST-Ave-Phoenix-AZ-85009/7514287_zpid/,33.4546,-112.104,6661,2018-03-28
1084418,23939425,"311 W Palomino Dr, Chandler, AZ 85225 ",85225,0.9162015914916992,210000,https://www.zillow.com/homedetails/311-W-Palomino-Dr-Chandler-AZ-85225/8177401_zpid/,33.3428,-111.84700000000001,6675,2018-04-11
474648,23937874,"6712 N 32ND Ave, Phoenix, AZ 85017 ",85017,0.9160260558128357,175000,https://www.zillow.com/homedetails/6712-N-32ND-Ave-Phoenix-AZ-85017/7759178_zpid/,33.5354,-112.12799999999999,6671,2018-04-07
351243,23874592,"6540 W Gross Ave, Phoenix, AZ 85043 ",85043,0.9159419238567352,229900,https://www.zillow.com/homedetails/6540-W-Gross-Ave-Phoenix-AZ-85043/62727279_zpid/,33.4297,-112.20200000000001,6613,2018-02-08
378225,23937171,"11017 N 31ST Dr, Phoenix, AZ 85029 ",85029,0.9157651662826538,224900,https://www.zillow.com/homedetails/11017-N-31ST-Dr-Phoenix-AZ-85029/7740512_zpid/,33.5867,-112.126,6666,2018-04-02
423474,23920179,"8651 N 57TH Dr, Glendale, AZ 85302 ",85302,0.9157187640666962,245000,https://www.zillow.com/homedetails/8651-N-57TH-Dr-Glendale-AZ-85302/55260816_zpid/,33.5631,-112.182,6639,2018-03-06
830487,23937786,"3817 W Oregon Ave, Phoenix, AZ 85019 ",85019,0.9156140089035034,174500,https://www.zillow.com/homedetails/3817-W-Oregon-Ave-Phoenix-AZ-85019/50188137_zpid/,33.5143,-112.141,6662,2018-03-29
234016,23943406,"19220 N 21ST Ave, Phoenix, AZ 85027 ",85027,0.9153589010238647,249900,https://www.zillow.com/homedetails/19220-N-21ST-Ave-Phoenix-AZ-85027/7970224_zpid/,33.6601,-112.105,6668,2018-04-04
328960,22284604,"2322 W Cheery Lynn Rd, Phoenix, AZ 85015 ",85015,0.9153372347354889,249900,https://www.zillow.com/homedetails/2322-W-Cheery-Lynn-Rd-Phoenix-AZ-85015/7517610_zpid/,33.4857,-112.109,6398,2017-07-08
526828,23872898,"9418 W Sheridan St, Phoenix, AZ 85037 ",85037,0.9152120053768158,209500,https://www.zillow.com/homedetails/9418-W-Sheridan-St-Phoenix-AZ-85037/67773035_zpid/,33.475,-112.262,6606,2018-02-01
391104,23937412,"4054 W Mission Ln, Phoenix, AZ 85051 ",85051,0.9150927364826202,224880,https://www.zillow.com/homedetails/4054-W-Mission-Ln-Phoenix-AZ-85051/7746239_zpid/,33.571,-112.147,6668,2018-04-04
9032909,23929607,"12422 N Vista Grande Ct, Sun City, AZ 85351 ",85351,0.9150790572166443,215000,https://www.zillow.com/homedetails/12422-N-Vista-Grande-Ct-Sun-City-AZ-85351/8095884_zpid/,33.5974,-112.265,6654,2018-03-21
345831,23933543,"2921 W Holly St, Phoenix, AZ 85009 ",85009,0.9149352610111237,155900,https://www.zillow.com/homedetails/2921-W-Holly-St-Phoenix-AZ-85009/7510740_zpid/,33.4702,-112.12200000000001,6659,2018-03-26
9031428,23940339,"19526 N 84TH Ave, Peoria, AZ 85382 ",85382,0.9148637354373932,224900,https://www.zillow.com/homedetails/19526-N-84TH-Ave-Peoria-AZ-85382/8102086_zpid/,33.6619,-112.241,6671,2018-04-07
432959,23945411,"7202 W Turney Ave, Phoenix, AZ 85033 ",85033,0.9145616888999939,182484,https://www.zillow.com/homedetails/7202-W-Turney-Ave-Phoenix-AZ-85033/7711374_zpid/,33.5008,-112.214,6676,2018-04-12
398063,23937418,"4126 W Wethersfield Rd, Phoenix, AZ 85029 ",85029,0.9144698083400726,220000,https://www.zillow.com/homedetails/4126-W-Wethersfield-Rd-Phoenix-AZ-85029/7742649_zpid/,33.5976,-112.148,6666,2018-04-02
832437,23872577,"4208 W Mulberry Dr, Phoenix, AZ 85019 ",85019,0.9143379032611847,139000,https://www.zillow.com/homedetails/4208-W-Mulberry-Dr-Phoenix-AZ-85019/7507342_zpid/,33.4871,-112.15,6605,2018-01-31
490842,23933679,"5523 W Berkeley Rd, Phoenix, AZ 85035 ",85035,0.9142715930938721,215000,https://www.zillow.com/homedetails/5523-W-Berkeley-Rd-Phoenix-AZ-85035/92352392_zpid/,33.4681,-112.179,6669,2018-04-05
258915,23943373,"18032 N 45th Ave, Glendale, AZ 85308 ",85308,0.9141954183578491,165000,https://www.zillow.com/homedetails/18032-N-45th-Ave-Glendale-AZ-85308/67079555_zpid/,33.6497,-112.15700000000001,6667,2018-04-03
39746,23948071,"1526 N 80th Ln, Phoenix, AZ 85043 ",85043,0.9140806794166565,160000,https://www.zillow.com/homedetails/1526-N-80th-Ln-Phoenix-AZ-85043/2099908499_zpid/,33.4651,-112.23299999999999,6678,2018-04-14
390590,23937387,"4026 W Royal Palm Rd, Phoenix, AZ 85051 ",85051,0.9140476286411285,200000,https://www.zillow.com/homedetails/4026-W-Royal-Palm-Rd-Phoenix-AZ-85051/7753024_zpid/,33.5552,-112.147,6673,2018-04-09
9026868,23897793,"1302 W Cortez Ct, Chandler, AZ 85224 ",85224,0.9139380156993866,249500,https://www.zillow.com/homedetails/1302-W-Cortez-Ct-Chandler-AZ-85224/8172446_zpid/,33.3554,-111.86399999999999,6624,2018-02-19
9011928,23753384,"7411 W Wolf St, Phoenix, AZ 85033 ",85033,0.9137181043624878,229900,https://www.zillow.com/homedetails/7411-W-Wolf-St-Phoenix-AZ-85033/95184996_zpid/,33.5059,-112.219,6494,2017-10-12
9031637,23915107,"7641 W Sells Dr, Phoenix, AZ 85033 ",85033,0.9136503636837006,189000,https://www.zillow.com/homedetails/7641-W-Sells-Dr-Phoenix-AZ-85033/7482080_zpid/,33.5006,-112.225,6641,2018-03-08
465882,23884480,"3009 W Claremont St, Phoenix, AZ 85017 ",85017,0.913607120513916,160000,https://www.zillow.com/homedetails/3009-W-Claremont-St-Phoenix-AZ-85017/7761133_zpid/,33.5282,-112.124,6604,2018-01-30
1414034,23890084,"7334 W Lamar Rd, Glendale, AZ 85303 ",85303,0.9135245084762573,226000,https://www.zillow.com/homedetails/7334-W-Lamar-Rd-Glendale-AZ-85303/50188064_zpid/,33.5354,-112.21799999999999,6625,2018-02-20
43394,23929854,"7910 W Winslow Ave, Phoenix, AZ 85043 ",85043,0.9134113192558289,239950,https://www.zillow.com/homedetails/7910-W-Winslow-Ave-Phoenix-AZ-85043/67764464_zpid/,33.4221,-112.23,6644,2018-03-11
9034627,23940735,"8032 W Dahlia Dr, Peoria, AZ 85381 ",85381,0.9133367240428925,235000,https://www.zillow.com/homedetails/8032-W-Dahlia-Dr-Peoria-AZ-85381/8101152_zpid/,33.6023,-112.23299999999999,6662,2018-03-29
385650,23891580,"3601 W Royal Palm Rd, Phoenix, AZ 85051 ",85051,0.9131013453006744,228900,https://www.zillow.com/homedetails/3601-W-Royal-Palm-Rd-Phoenix-AZ-85051/7753622_zpid/,33.5554,-112.137,6617,2018-02-12
9035153,23944997,"6617 W Weldon Ave, Phoenix, AZ 85033 ",85033,0.9128202795982361,184986,https://www.zillow.com/homedetails/6617-W-Weldon-Ave-Phoenix-AZ-85033/92348192_zpid/,33.4903,-112.20200000000001,6676,2018-04-12
407695,23882690,"5912 W Evans Dr, Glendale, AZ 85306 ",85306,0.9127234816551208,217000,https://www.zillow.com/homedetails/5912-W-Evans-Dr-Glendale-AZ-85306/8098897_zpid/,33.6173,-112.18700000000001,6586,2018-01-12
8989493,23890965,"3646 N 79TH Dr, Phoenix, AZ 85033 ",85033,0.9125917255878448,169900,https://www.zillow.com/homedetails/3646-N-79th-Dr-Phoenix-AZ-85033/7478627_zpid/,33.4902,-112.23100000000001,6625,2018-02-20
8949748,23892096,"2334 W Rancho Dr, Phoenix, AZ 85015 ",85015,0.9125447273254395,213000,https://www.zillow.com/homedetails/2334-W-Rancho-Dr-Phoenix-AZ-85015/7763119_zpid/,33.5228,-112.11,6627,2018-02-22
380987,23937334,"2924 W Townley Ave, Phoenix, AZ 85051 ",85051,0.9125112891197205,185000,https://www.zillow.com/homedetails/2924-W-Townley-Ave-Phoenix-AZ-85051/7750514_zpid/,33.5654,-112.12200000000001,6664,2018-03-31
490398,23933668,"5445 W Roanoke Ave, Phoenix, AZ 85035 ",85035,0.9124803841114044,190000,https://www.zillow.com/homedetails/5445-W-Roanoke-Ave-Phoenix-AZ-85035/7499698_zpid/,33.4786,-112.177,6670,2018-04-06
832462,23892108,"4208 W Palo Verde Dr, Phoenix, AZ 85019 ",85019,0.9124093949794769,179000,https://www.zillow.com/homedetails/4208-W-Palo-Verde-Dr-Phoenix-AZ-85019/7718993_zpid/,33.5233,-112.149,6627,2018-02-22
342323,23933525,"1807 N 38TH Ln, Phoenix, AZ 85009 ",85009,0.9122439026832581,138000,https://www.zillow.com/homedetails/1807-N-38TH-Ln-Phoenix-AZ-85009/7511917_zpid/,33.468,-112.14200000000001,6649,2018-03-16
9031710,23915787,"4145 W Bluefield Ave, Glendale, AZ 85308 ",85308,0.9121972620487213,249500,https://www.zillow.com/homedetails/4145-W-Bluefield-Ave-Glendale-AZ-85308/7948786_zpid/,33.6517,-112.149,6657,2018-03-24
9031609,23914861,"1644 N 38TH Ln, Phoenix, AZ 85009 ",85009,0.9121093153953552,169999,https://www.zillow.com/homedetails/1644-N-38TH-Ln-Phoenix-AZ-85009/7511948_zpid/,33.4676,-112.14200000000001,6656,2018-03-23
1472355,23885687,"9834 W Kerry Ln, Peoria, AZ 85382 ",85382,0.911980539560318,224900,https://www.zillow.com/homedetails/9834-W-Kerry-Ln-Peoria-AZ-85382/7893293_zpid/,33.6592,-112.272,6611,2018-02-06
9033774,23933803,"8001 W Avalon Dr, Phoenix, AZ 85033 ",85033,0.9118603765964508,189900,https://www.zillow.com/homedetails/8001-W-Avalon-Dr-Phoenix-AZ-85033/7479567_zpid/,33.4832,-112.23100000000001,6664,2018-03-31
469201,23884532,"3319 W Marshall Ave, Phoenix, AZ 85017 ",85017,0.9117457568645477,139900,https://www.zillow.com/homedetails/3319-W-Marshall-Ave-Phoenix-AZ-85017/7764420_zpid/,33.5173,-112.131,6591,2018-01-17
1350469,23869506,"5815 N 62nd Dr, Glendale, AZ 85301 ",85301,0.911733090877533,155000,https://www.zillow.com/homedetails/5815-N-62nd-Dr-Glendale-AZ-85301/7714249_zpid/,33.5226,-112.194,6593,2018-01-19
9032615,23929618,"9731 W Brokenstone Dr, Sun City, AZ 85351 ",85351,0.9117258489131927,225000,https://www.zillow.com/homedetails/9731-W-Brokenstone-Dr-Sun-City-AZ-85351/7921987_zpid/,33.6193,-112.26700000000001,6657,2018-03-24
503983,23933533,"2124 N 48TH Ln, Phoenix, AZ 85035 ",85035,0.9116359353065491,160000,https://www.zillow.com/homedetails/2124-N-48TH-Ln-Phoenix-AZ-85035/7494363_zpid/,33.4715,-112.165,6673,2018-04-09
312002,23922617,"1334 W Mohave St, Phoenix, AZ 85007 ",85007,0.9115661382675171,55000,https://www.zillow.com/homedetails/1334-W-Mohave-St-Phoenix-AZ-85007/7501448_zpid/,33.4315,-112.09100000000001,6656,2018-03-23
249685,23929319,"421 E Kerry Ln, Phoenix, AZ 85024 ",85024,0.9114417135715485,200000,https://www.zillow.com/homedetails/421-E-Kerry-Ln-Phoenix-AZ-85024/7972492_zpid/,33.6603,-112.069,6649,2018-03-16
9029838,23905018,"11006 N 81st Ave, Peoria, AZ 85345 ",85345,0.911373108625412,193500,https://www.zillow.com/homedetails/11006-N-81st-Ave-Peoria-AZ-85345/7681204_zpid/,33.5849,-112.23299999999999,6621,2018-02-16
464592,23888923,"2907 W Cavalier Dr, Phoenix, AZ 85017 ",85017,0.9113326072692871,219900,https://www.zillow.com/homedetails/2907-W-Cavalier-Dr-Phoenix-AZ-85017/64902039_zpid/,33.525999999999996,-112.12200000000001,6622,2018-02-17
833898,23937894,"6555 N 40TH Dr, Phoenix, AZ 85019 ",85019,0.911331444978714,195000,https://www.zillow.com/homedetails/6555-N-40TH-Dr-Phoenix-AZ-85019/7762366_zpid/,33.5332,-112.146,6666,2018-04-02
248295,23915632,"3449 W Michigan Ave, Phoenix, AZ 85053 ",85053,0.911268562078476,220000,https://www.zillow.com/homedetails/3449-W-Michigan-Ave-Phoenix-AZ-85053/7941231_zpid/,33.6508,-112.134,6655,2018-03-22
9026842,23908029,"1842 W Sonora St, Phoenix, AZ 85007 ",85007,0.9110492169857025,152900,https://www.zillow.com/homedetails/1842-W-Sonora-St-Phoenix-AZ-85007/7501196_zpid/,33.4325,-112.09899999999999,6612,2018-02-07
447727,23877856,"8325 W Mackenzie Dr, Phoenix, AZ 85037 ",85037,0.9110389351844788,186500,https://www.zillow.com/homedetails/8325-W-Mackenzie-Dr-Phoenix-AZ-85037/7466695_zpid/,33.4965,-112.23899999999999,6601,2018-01-27
316904,23949576,"1910 E Cypress St, Phoenix, AZ 85006 ",85006,0.9109067320823669,210000,https://www.zillow.com/homedetails/1910-E-Cypress-St-Phoenix-AZ-85006/7531984_zpid/,33.4723,-112.041,6683,2018-04-19
9033759,23948090,"3820 N 73RD Dr, Phoenix, AZ 85033 ",85033,0.910808652639389,217500,https://www.zillow.com/homedetails/3820-N-73RD-Dr-Phoenix-AZ-85033/7468914_zpid/,33.4921,-112.21799999999999,6678,2018-04-14
445268,23933640,"4631 N 91ST Dr, Phoenix, AZ 85037 ",85037,0.9106907844543457,186500,https://www.zillow.com/homedetails/4631-N-91ST-Dr-Phoenix-AZ-85037/7466476_zpid/,33.5053,-112.256,6662,2018-03-29
450270,23853373,"8713 W Wilshire Dr, Phoenix, AZ 85037 ",85037,0.9106379747390747,200000,https://www.zillow.com/homedetails/8713-W-Wilshire-Dr-Phoenix-AZ-85037/7473941_zpid/,33.4756,-112.24700000000001,6526,2017-11-13
224030,23937198,"14044 N 36TH Ave, Phoenix, AZ 85053 ",85053,0.9103826880455017,210000,https://www.zillow.com/homedetails/14044-N-36TH-Ave-Phoenix-AZ-85053/7944497_zpid/,33.6148,-112.137,6668,2018-04-04
381460,23937308,"3010 W Harmont Dr, Phoenix, AZ 85051 ",85051,0.9103050529956818,245000,https://www.zillow.com/homedetails/3010-W-Harmont-Dr-Phoenix-AZ-85051/7751231_zpid/,33.5552,-112.124,6666,2018-04-02
248766,23948569,"301 E Rimrock Dr, Phoenix, AZ 85024 ",85024,0.9101820886135101,235000,https://www.zillow.com/homedetails/301-E-Rimrock-Dr-Phoenix-AZ-85024/7968019_zpid/,33.6625,-112.07,6677,2018-04-13
479956,23933535,"2223 N 50TH Ave, Phoenix, AZ 85035 ",85035,0.9101549386978149,174900,https://www.zillow.com/homedetails/2223-N-50TH-Ave-Phoenix-AZ-85035/7494267_zpid/,33.4724,-112.167,6668,2018-04-04
1347529,23919795,"5031 W Frier Dr, Glendale, AZ 85301 ",85301,0.9099497497081757,214300,https://www.zillow.com/homedetails/5031-W-Frier-Dr-Glendale-AZ-85301/7724936_zpid/,33.5492,-112.16799999999999,6645,2018-03-12
485999,23881464,"4650 W Hubbell St, Phoenix, AZ 85035 ",85035,0.9096730351448059,173000,https://www.zillow.com/homedetails/4650-W-Hubbell-St-Phoenix-AZ-85035/7494965_zpid/,33.4703,-112.16,6620,2018-02-15
9033248,23941288,"8937 W Hess St, Tolleson, AZ 85353 ",85353,0.9096058011054993,199000,https://www.zillow.com/homedetails/8937-W-Hess-St-Tolleson-AZ-85353/62726927_zpid/,33.428000000000004,-112.25399999999999,6653,2018-03-20
1342528,23938118,"4433 W Morten Ave, Glendale, AZ 85301 ",85301,0.9095159471035004,214750,https://www.zillow.com/homedetails/4433-W-Morten-Ave-Glendale-AZ-85301/7725238_zpid/,33.5473,-112.155,6663,2018-03-30
8976320,23937303,"2928 W El Caminito Dr, Phoenix, AZ 85051 ",85051,0.9092273712158203,214900,https://www.zillow.com/homedetails/2928-W-El-Caminito-Dr-Phoenix-AZ-85051/7751396_zpid/,33.5586,-112.12299999999999,6664,2018-03-31
9031573,23914591,"9026 W Vogel Ave, Peoria, AZ 85345 ",85345,0.9092160761356354,208000,https://www.zillow.com/homedetails/9026-W-Vogel-Ave-Peoria-AZ-85345/7696655_zpid/,33.5716,-112.25399999999999,6655,2018-03-22
9034653,23940871,"9030 W Harmont Dr, Peoria, AZ 85345 ",85345,0.9089990556240082,215000,https://www.zillow.com/homedetails/9030-W-Harmont-Dr-Peoria-AZ-85345/7683043_zpid/,33.5538,-112.25399999999999,6663,2018-03-30
241727,23937355,"3141 W Caribbean Ln, Phoenix, AZ 85053 ",85053,0.9089454412460327,193000,https://www.zillow.com/homedetails/3141-W-Caribbean-Ln-Phoenix-AZ-85053/7953136_zpid/,33.6242,-112.12700000000001,6666,2018-04-02
434384,23888835,"7629 W Flower St, Phoenix, AZ 85033 ",85033,0.9088639914989471,175900,https://www.zillow.com/homedetails/7629-W-Flower-St-Phoenix-AZ-85033/7469131_zpid/,33.4849,-112.22399999999999,6623,2018-02-18
389690,23937320,"2628 W Wood Dr, Phoenix, AZ 85029 ",85029,0.9088293015956879,249900,https://www.zillow.com/homedetails/2628-W-Wood-Dr-Phoenix-AZ-85029/7738383_zpid/,33.6049,-112.115,6674,2018-04-10
9031546,23940761,"8419 W Paradise Dr, Peoria, AZ 85345 ",85345,0.908694326877594,247500,https://www.zillow.com/homedetails/8419-W-Paradise-Dr-Peoria-AZ-85345/7685296_zpid/,33.5938,-112.24,6669,2018-04-05
480273,23933007,"2233 N 65TH Dr, Phoenix, AZ 85035 ",85035,0.9085685908794403,175000,https://www.zillow.com/homedetails/2233-N-65TH-Dr-Phoenix-AZ-85035/7490261_zpid/,33.4726,-112.2,6674,2018-04-10
9034691,23943983,"4046 W Maricopa St, Phoenix, AZ 85009 ",85009,0.9085228443145752,197500,https://www.zillow.com/homedetails/4046-W-Maricopa-St-Phoenix-AZ-85009/7506015_zpid/,33.4381,-112.147,6676,2018-04-12
419109,23938183,"5326 W Vogel Ave, Glendale, AZ 85302 ",85302,0.9084745347499847,245000,https://www.zillow.com/homedetails/5326-W-Vogel-Ave-Glendale-AZ-85302/7734302_zpid/,33.5723,-112.176,6657,2018-03-24
9026050,23861695,"19901 N 98th Ave, Peoria, AZ 85382 ",85382,0.9084218442440033,239000,https://www.zillow.com/homedetails/19901-N-98th-Ave-Peoria-AZ-85382/7896097_zpid/,33.6647,-112.271,6571,2017-12-28
9030418,23907670,"7608 W Indianola Ave, Phoenix, AZ 85033 ",85033,0.9083769619464874,179900,https://www.zillow.com/homedetails/7608-W-Indianola-Ave-Phoenix-AZ-85033/7478122_zpid/,33.4928,-112.22399999999999,6618,2018-02-13
390332,23890671,"4015 W Harmont Dr, Phoenix, AZ 85051 ",85051,0.9080540537834167,188000,https://www.zillow.com/homedetails/4015-W-Harmont-Dr-Phoenix-AZ-85051/7753081_zpid/,33.5542,-112.146,6626,2018-02-21
213621,23945968,"1226 E Lawrence Ln, Phoenix, AZ 85020 ",85020,0.9077055156230927,108000,https://www.zillow.com/homedetails/1226-E-Lawrence-Ln-Phoenix-AZ-85020/7795617_zpid/,33.5654,-112.056,6676,2018-04-12
9034321,23937483,"3501 W Ironwood Dr, Phoenix, AZ 85051 ",85051,0.9076751470565796,239900,https://www.zillow.com/homedetails/3501-W-Ironwood-Dr-Phoenix-AZ-85051/2090447100_zpid/,33.5759,-112.135,6659,2018-03-26
500170,23877836,"7149 W Palm Ln, Phoenix, AZ 85035 ",85035,0.9075561165809631,149888,https://www.zillow.com/homedetails/7149-W-Palm-Ln-Phoenix-AZ-85035/7475358_zpid/,33.4689,-112.214,6611,2018-02-06
527415,23868869,"9437 W Terri Lee Dr, Phoenix, AZ 85037 ",85037,0.9074865579605103,199500,https://www.zillow.com/homedetails/9437-W-Terri-Lee-Dr-Phoenix-AZ-85037/67764458_zpid/,33.4667,-112.264,6593,2018-01-19
41510,23941218,"631 N 69TH Ave, Phoenix, AZ 85043 ",85043,0.9074298739433289,181999,https://www.zillow.com/homedetails/631-N-69TH-Ave-Phoenix-AZ-85043/7476327_zpid/,33.455999999999996,-112.208,6660,2018-03-27
388756,23937802,"3835 W Morten Ave, Phoenix, AZ 85051 ",85051,0.9074099361896515,239900,https://www.zillow.com/homedetails/3835-W-Morten-Ave-Phoenix-AZ-85051/7755625_zpid/,33.5471,-112.14200000000001,6671,2018-04-07
9033762,23933671,"4132 N 74TH Ave, Phoenix, AZ 85033 ",85033,0.9072824120521545,153000,https://www.zillow.com/homedetails/4132-N-74TH-Ave-Phoenix-AZ-85033/7711113_zpid/,33.4964,-112.219,6669,2018-04-05
832662,23884685,"4236 W Palo Verde Dr, Phoenix, AZ 85019 ",85019,0.9072230756282806,219900,https://www.zillow.com/homedetails/4236-W-Palo-Verde-Dr-Phoenix-AZ-85019/7718989_zpid/,33.5232,-112.15100000000001,6576,2018-01-02
9004887,23940825,"8900 W Cameron Dr, Peoria, AZ 85345 ",85345,0.907214343547821,242000,https://www.zillow.com/homedetails/8900-W-Cameron-Dr-Peoria-AZ-85345/95133083_zpid/,33.5906,-112.25,6660,2018-03-27
321397,23933338,"3147 N 4TH Ave, Phoenix, AZ 85013 ",85013,0.9069665670394897,200000,https://www.zillow.com/homedetails/3147-N-4TH-Ave-Phoenix-AZ-85013/7536011_zpid/,33.4857,-112.079,6671,2018-04-07
9033245,23929967,"8536 W Magnolia St, Tolleson, AZ 85353 ",85353,0.9067642688751221,230000,https://www.zillow.com/homedetails/8536-W-Magnolia-St-Tolleson-AZ-85353/59271181_zpid/,33.4238,-112.245,6643,2018-03-10
9034178,23935495,"3643 E Ludlow Dr, Phoenix, AZ 85032 ",85032,0.9064459800720215,245000,https://www.zillow.com/homedetails/3643-E-Ludlow-Dr-Phoenix-AZ-85032/8012330_zpid/,33.6136,-112.00200000000001,6669,2018-04-05
1421529,23938351,"8028 W Sierra Vista Dr, Glendale, AZ 85303 ",85303,0.9062868058681488,239900,https://www.zillow.com/homedetails/8028-W-Sierra-Vista-Dr-Glendale-AZ-85303/7462653_zpid/,33.5316,-112.23299999999999,6661,2018-03-28
9031623,23933685,"5702 W Cheery Lynn Rd, Phoenix, AZ 85031 ",85031,0.9062294960021973,184000,https://www.zillow.com/homedetails/5702-W-Cheery-Lynn-Rd-Phoenix-AZ-85031/7497554_zpid/,33.4859,-112.18299999999999,6659,2018-03-26
522131,23915056,"9008 W Pinchot Ave, Phoenix, AZ 85037 ",85037,0.9060557186603546,199000,https://www.zillow.com/homedetails/9008-W-Pinchot-Ave-Phoenix-AZ-85037/55257098_zpid/,33.4824,-112.25299999999999,6654,2018-03-21
449708,23933771,"8609 W Roma Ave, Phoenix, AZ 85037 ",85037,0.9060095250606537,239900,https://www.zillow.com/homedetails/8609-W-Roma-Ave-Phoenix-AZ-85037/7480544_zpid/,33.4999,-112.245,6670,2018-04-06
42567,23875698,"6926 W Pierce St, Phoenix, AZ 85043 ",85043,0.9058812856674194,197900,https://www.zillow.com/homedetails/6926-W-Pierce-St-Phoenix-AZ-85043/7476307_zpid/,33.4554,-112.209,6605,2018-01-31
9034172,23935482,"3515 E Helena Dr, Phoenix, AZ 85032 ",85032,0.9058417975902557,239950,https://www.zillow.com/homedetails/3515-E-Helena-Dr-Phoenix-AZ-85032/7998182_zpid/,33.6451,-112.006,6654,2018-03-21
391066,23946022,"4049 W Townley Ave, Phoenix, AZ 85051 ",85051,0.9057667255401611,239000,https://www.zillow.com/homedetails/4049-W-Townley-Ave-Phoenix-AZ-85051/7754499_zpid/,33.5658,-112.147,6675,2018-04-11
411832,23919811,"5309 W Sierra St, Glendale, AZ 85304 ",85304,0.9055030941963196,199000,https://www.zillow.com/homedetails/5309-W-Sierra-St-Glendale-AZ-85304/7737309_zpid/,33.5911,-112.17399999999999,6641,2018-03-08
227983,23948520,"1547 W Topeka Dr, Phoenix, AZ 85027 ",85027,0.9054504930973053,224000,https://www.zillow.com/homedetails/1547-W-Topeka-Dr-Phoenix-AZ-85027/92347666_zpid/,33.6596,-112.09299999999999,6677,2018-04-13
9032247,23938078,"17602 N 56TH Ave, Glendale, AZ 85308 ",85308,0.9050118029117584,189980,https://www.zillow.com/homedetails/17602-N-56TH-Ave-Glendale-AZ-85308/8099691_zpid/,33.6454,-112.181,6673,2018-04-09
476520,23933577,"3215 N 54TH Ln, Phoenix, AZ 85031 ",85031,0.9048146605491638,185000,https://www.zillow.com/homedetails/3215-N-54TH-Ln-Phoenix-AZ-85031/7497016_zpid/,33.4862,-112.177,6671,2018-04-07
9028072,23929636,"9923 W Desert Hills Dr, Sun City, AZ 85351 ",85351,0.9044252634048462,192500,https://www.zillow.com/homedetails/9923-W-Desert-Hills-Dr-Sun-City-AZ-85351/7694464_zpid/,33.594,-112.274,6656,2018-03-23
449589,23950202,"8551 W Sheridan St, Phoenix, AZ 85037 ",85037,0.9044146537780762,220000,https://www.zillow.com/homedetails/8551-W-Sheridan-St-Phoenix-AZ-85037/7487376_zpid/,33.4745,-112.245,6625,2018-02-20
467762,23884567,"3157 N 25th Dr, Phoenix, AZ 85017 ",85017,0.903983861207962,196000,https://www.zillow.com/homedetails/3157-N-25th-Dr-Phoenix-AZ-85017/7517468_zpid/,33.4861,-112.11399999999999,6615,2018-02-10
10609,23938177,"5166 W Laurel Ave, Glendale, AZ 85304 ",85304,0.9039215743541718,215000,https://www.zillow.com/homedetails/5166-W-Laurel-Ave-Glendale-AZ-85304/60978642_zpid/,33.5946,-112.17,6664,2018-03-31
9034544,23940245,"10637 N 81ST Ave, Peoria, AZ 85345 ",85345,0.9037816822528839,193200,https://www.zillow.com/homedetails/10637-N-81ST-Ave-Peoria-AZ-85345/7681375_zpid/,33.5824,-112.23299999999999,6662,2018-03-29
435693,23933737,"7944 W Pierson St, Phoenix, AZ 85033 ",85033,0.9037184715270996,159900,https://www.zillow.com/homedetails/7944-W-Pierson-St-Phoenix-AZ-85033/7482645_zpid/,33.5069,-112.23100000000001,6667,2018-04-03
9034684,23941120,"2744 W Papago St, Phoenix, AZ 85009 ",85009,0.9036978185176849,175000,https://www.zillow.com/homedetails/2744-W-Papago-St-Phoenix-AZ-85009/81987635_zpid/,33.4345,-112.119,6656,2018-03-23
9031381,23913537,"10356 N 68TH Ln, Peoria, AZ 85345 ",85345,0.9035626947879791,239000,https://www.zillow.com/homedetails/10356-N-68TH-Ln-Peoria-AZ-85345/7702010_zpid/,33.5798,-112.20700000000001,6648,2018-03-15
1406713,23920009,"6787 N 79TH Dr, Glendale, AZ 85303 ",85303,0.9032810032367706,229900,https://www.zillow.com/homedetails/6787-N-79TH-Dr-Glendale-AZ-85303/60974481_zpid/,33.5353,-112.229,6655,2018-03-22
836078,23943797,"3836 W Mitchell Dr, Phoenix, AZ 85019 ",85019,0.9029445350170135,77000,https://www.zillow.com/homedetails/3836-W-Mitchell-Dr-Phoenix-AZ-85019/7508985_zpid/,33.4887,-112.14200000000001,6675,2018-04-11
9031620,23915002,"4723 N 79TH Ave, Phoenix, AZ 85033 ",85033,0.9029062688350677,179900,https://www.zillow.com/homedetails/4723-N-79TH-Ave-Phoenix-AZ-85033/7467782_zpid/,33.5072,-112.228,6656,2018-03-23
9034345,23937740,"2415 W Mclellan Blvd, Phoenix, AZ 85015 ",85015,0.9027070105075836,120000,https://www.zillow.com/homedetails/2415-W-Mclellan-Blvd-Phoenix-AZ-85015/7772839_zpid/,33.5328,-112.111,6639,2018-03-06
491735,23933678,"5618 W Berkeley Rd, Phoenix, AZ 85035 ",85035,0.902629554271698,160000,https://www.zillow.com/homedetails/5618-W-Berkeley-Rd-Phoenix-AZ-85035/7492650_zpid/,33.4685,-112.181,6656,2018-03-23
349676,23941154,"3640 W Melvin St, Phoenix, AZ 85009 ",85009,0.9025689363479614,130000,https://www.zillow.com/homedetails/3640-W-Melvin-St-Phoenix-AZ-85009/7505964_zpid/,33.4526,-112.13799999999999,6655,2018-03-22
9034602,23940597,"6932 W Cameron Dr, Peoria, AZ 85345 ",85345,0.9021114408969879,227500,https://www.zillow.com/homedetails/6932-W-Cameron-Dr-Peoria-AZ-85345/7700052_zpid/,33.5898,-112.209,6667,2018-04-03
388654,23937300,"2348 W Sunnyside Dr, Phoenix, AZ 85029 ",85029,0.9020324945449829,215900,https://www.zillow.com/homedetails/2348-W-Sunnyside-Dr-Phoenix-AZ-85029/7749527_zpid/,33.5932,-112.12200000000001,6653,2018-03-20
643978,23950402,"647 W Medina Ave, Mesa, AZ 85210 ",85210,0.9020013213157654,240000,https://www.zillow.com/homedetails/647-W-Medina-Ave-Mesa-AZ-85210/8170696_zpid/,33.3717,-111.848,6691,2018-04-27
9029913,23905293,"19019 N 83rd Ln, Peoria, AZ 85382 ",85382,0.9018466174602509,249900,https://www.zillow.com/homedetails/19019-N-83rd-Ln-Peoria-AZ-85382/8101939_zpid/,33.6584,-112.23899999999999,6605,2018-01-31
500715,23888248,"7341 W Cypress St, Phoenix, AZ 85035 ",85035,0.9017916321754456,172000,https://www.zillow.com/homedetails/7341-W-Cypress-St-Phoenix-AZ-85035/7474860_zpid/,33.472,-112.21799999999999,6622,2018-02-17
394085,23950086,"7130 N 28th Ave, Phoenix, AZ 85051 ",85051,0.9015469253063202,248800,https://www.zillow.com/homedetails/7130-N-28TH-Ave-Phoenix-AZ-85051/7757271_zpid/,33.5406,-112.119,6685,2018-04-21
327561,23884356,"2038 W Orange Dr, Phoenix, AZ 85015 ",85015,0.9015089273452759,199900,https://www.zillow.com/homedetails/2038-W-Orange-Dr-Phoenix-AZ-85015/7765251_zpid/,33.5126,-112.104,6593,2018-01-19
418906,23882456,"5241 W Barbara Ave, Glendale, AZ 85302 ",85302,0.901384174823761,241995,https://www.zillow.com/homedetails/5241-W-Barbara-Ave-Glendale-AZ-85302/7733970_zpid/,33.5639,-112.17299999999999,6620,2018-02-15
9032267,23920060,"5732 W Michelle Dr, Glendale, AZ 85308 ",85308,0.9012207388877869,220000,https://www.zillow.com/homedetails/5732-W-Michelle-Dr-Glendale-AZ-85308/7900937_zpid/,33.6488,-112.18299999999999,6653,2018-03-20
403996,23943370,"16225 N 45TH Ave, Glendale, AZ 85306 ",85306,0.9012134671211243,219900,https://www.zillow.com/homedetails/16225-N-45TH-Ave-Glendale-AZ-85306/7950687_zpid/,33.6331,-112.155,6676,2018-04-12
1933748,23915060,"7145 W Mulberry Dr, Phoenix, AZ 85033 ",85033,0.9011647403240204,185000,https://www.zillow.com/homedetails/7145-W-Mulberry-Dr-Phoenix-AZ-85033/7485834_zpid/,33.4866,-112.214,6628,2018-02-23
9034764,23950390,"1734 W Bentley St, Mesa, AZ 85201 ",85201,0.9008049368858337,190000,https://www.zillow.com/homedetails/1734-W-Bentley-St-Mesa-AZ-85201/7612452_zpid/,33.4202,-111.869,6691,2018-04-27
316546,23912005,"718 W Cocopah St, Phoenix, AZ 85007 ",85007,0.9007599949836731,120000,https://www.zillow.com/homedetails/718-W-Cocopah-St-Phoenix-AZ-85007/7501483_zpid/,33.4324,-112.083,6631,2018-02-26
250505,23948555,"2307 W Village Dr, Phoenix, AZ 85023 ",85023,0.9005719423294067,245000,https://www.zillow.com/homedetails/2307-W-Village-Dr-Phoenix-AZ-85023/7964002_zpid/,33.6444,-112.10799999999999,6677,2018-04-13
9028601,23933654,"4711 N 79TH Dr, Phoenix, AZ 85033 ",85033,0.9003530740737915,170000,https://www.zillow.com/homedetails/4711-N-79TH-Dr-Phoenix-AZ-85033/82776280_zpid/,33.506,-112.229,6670,2018-04-06
9032097,23918755,"2034 W Holly St, Phoenix, AZ 85009 ",85009,0.9003205001354218,130000,https://www.zillow.com/homedetails/2034-W-Holly-St-Phoenix-AZ-85009/88886539_zpid/,33.4703,-112.104,6656,2018-03-23
9035947,23951042,"1602 W Argon St, Mesa, AZ 85201 ",85201,0.9002946019172668,190000,https://www.zillow.com/homedetails/1602-W-Argon-St-Mesa-AZ-85201/7612405_zpid/,33.4185,-111.866,6703,2018-05-09
424652,23888996,"9451 N 65th Ave, Glendale, AZ 85302 ",85302,0.9001591503620148,194400,https://www.zillow.com/homedetails/9451-N-65th-Ave-Glendale-AZ-85302/7703396_zpid/,33.573,-112.199,6623,2018-02-18
415297,23835189,"10114 N 66TH Ln, Glendale, AZ 85302 ",85302,0.899897962808609,197500,https://www.zillow.com/homedetails/10114-N-66TH-Ln-Glendale-AZ-85302/67083300_zpid/,33.5779,-112.20299999999999,6528,2017-11-15
9030739,23937950,"7307 N 41ST Dr, Phoenix, AZ 85051 ",85051,0.8996409773826599,216900,https://www.zillow.com/homedetails/7307-N-41ST-Dr-Phoenix-AZ-85051/7756457_zpid/,33.5444,-112.148,6667,2018-04-03
9026784,23923310,"9710 W Royal Oak Rd, Sun City, AZ 85351 ",85351,0.899617075920105,146500,https://www.zillow.com/homedetails/9710-W-Royal-Oak-Rd-Sun-City-AZ-85351/8095855_zpid/,33.5993,-112.265,6633,2018-02-28
460843,23890927,"2901 N 55TH Ave, Phoenix, AZ 85031 ",85031,0.8995106518268585,159000,https://www.zillow.com/homedetails/2901-N-55th-Ave-Phoenix-AZ-85031/7497233_zpid/,33.4808,-112.178,6621,2018-02-16
9031702,23915679,"3737 W Wagoner Rd, Glendale, AZ 85308 ",85308,0.8990022838115692,249900,https://www.zillow.com/homedetails/3737-W-Wagoner-Rd-Glendale-AZ-85308/7948264_zpid/,33.6531,-112.141,6657,2018-03-24
389317,23937797,"3910 W Northview Ave, Phoenix, AZ 85051 ",85051,0.8987548351287842,228900,https://www.zillow.com/homedetails/3910-W-Northview-Ave-Phoenix-AZ-85051/7757820_zpid/,33.544000000000004,-112.14299999999999,6649,2018-03-16
441079,23933550,"2725 N 90TH Dr, Phoenix, AZ 85037 ",85037,0.8986813426017761,210000,https://www.zillow.com/homedetails/2725-N-90TH-Dr-Phoenix-AZ-85037/7487853_zpid/,33.4779,-112.25299999999999,6662,2018-03-29
237512,23943500,"3001 W Grandview Rd, Phoenix, AZ 85053 ",85053,0.8985358476638794,240000,https://www.zillow.com/homedetails/3001-W-Grandview-Rd-Phoenix-AZ-85053/7954127_zpid/,33.633,-112.12200000000001,6671,2018-04-07
1080103,23930072,"237 W Galveston St, Chandler, AZ 85225",85225,0.8983517289161682,149900,"https://mcassessor.maricopa.gov/mcs.php?q=237 W Galveston St, Chandler, AZ 85225",33.3131,-111.84700000000001,6650,2018-03-17
829873,23937782,"3726 W Cavalier Dr, Phoenix, AZ 85019 ",85019,0.8981272578239441,159900,https://www.zillow.com/homedetails/3726-W-Cavalier-Dr-Phoenix-AZ-85019/7758947_zpid/,33.5264,-112.14,6668,2018-04-04
416979,23919743,"4635 W Palo Verde Ave, Glendale, AZ 85302 ",85302,0.898019015789032,214900,https://www.zillow.com/homedetails/4635-W-Palo-Verde-Ave-Glendale-AZ-85302/7729514_zpid/,33.5728,-112.15899999999999,6645,2018-03-12
347649,23937522,"9424 N 4TH Ave, Phoenix, AZ 85021 ",85021,0.897950679063797,150000,https://www.zillow.com/homedetails/9424-N-4TH-Ave-Phoenix-AZ-85021/7789149_zpid/,33.5723,-112.08,6669,2018-04-05
452597,23914903,"4405 N 48TH Ave, Phoenix, AZ 85031 ",85031,0.8977056741714478,175000,https://www.zillow.com/homedetails/4405-N-48TH-Ave-Phoenix-AZ-85031/7720927_zpid/,33.5007,-112.162,6656,2018-03-23
479954,23877695,"2223 N 47th Ln, Phoenix, AZ 85035 ",85035,0.8976533114910126,105000,https://www.zillow.com/homedetails/2223-N-47th-Ln-Phoenix-AZ-85035/7494449_zpid/,33.4722,-112.161,6612,2018-02-07
9030451,23907844,"2522 N 60th Dr, Phoenix, AZ 85035 ",85035,0.8975776135921478,165500,https://www.zillow.com/homedetails/2522-N-60th-Dr-Phoenix-AZ-85035/2091236966_zpid/,33.4755,-112.189,6619,2018-02-14
460884,23891543,"2908 N 53RD Pkwy, Phoenix, AZ 85031 ",85031,0.8975025713443756,171900,https://www.zillow.com/homedetails/2908-N-53rd-Pkwy-Phoenix-AZ-85031/7497221_zpid/,33.4825,-112.177,6621,2018-02-16
835317,23884573,"3625 W Rose Ln, Phoenix, AZ 85019 ",85019,0.8973943889141083,182000,https://www.zillow.com/homedetails/3625-W-Rose-Ln-Phoenix-AZ-85019/7759060_zpid/,33.5274,-112.137,6611,2018-02-06
476379,23933565,"3126 N 52ND Pkwy, Phoenix, AZ 85031 ",85031,0.8973760902881622,175000,https://www.zillow.com/homedetails/3126-N-52ND-Pkwy-Phoenix-AZ-85031/7497084_zpid/,33.4854,-112.17200000000001,6671,2018-04-07
9034184,23935527,"3911 E Nisbet Rd, Phoenix, AZ 85032 ",85032,0.897302508354187,223000,https://www.zillow.com/homedetails/3911-E-Nisbet-Rd-Phoenix-AZ-85032/8013403_zpid/,33.6226,-111.99799999999999,6654,2018-03-21
470900,23890070,"4143 N 29TH Dr, Phoenix, AZ 85017 ",85017,0.8971638977527618,149900,https://www.zillow.com/homedetails/4143-N-29TH-Dr-Phoenix-AZ-85017/7768574_zpid/,33.4968,-112.12200000000001,6625,2018-02-20
390187,23937805,"4008 W Kaler Dr, Phoenix, AZ 85051 ",85051,0.8969247341156006,199900,https://www.zillow.com/homedetails/4008-W-Kaler-Dr-Phoenix-AZ-85051/7757936_zpid/,33.5487,-112.145,6668,2018-04-04
410344,23937471,"4744 W Windrose Dr, Glendale, AZ 85304 ",85304,0.8966163992881775,193000,https://www.zillow.com/homedetails/4744-W-Windrose-Dr-Glendale-AZ-85304/7954514_zpid/,33.6011,-112.162,6672,2018-04-08
9035747,23948246,"3634 E Blanche Dr, Phoenix, AZ 85032 ",85032,0.8965993523597717,230000,https://www.zillow.com/homedetails/3634-E-Blanche-Dr-Phoenix-AZ-85032/8013226_zpid/,33.6236,-112.00299999999999,6675,2018-04-11
9035843,23949137,"1928 W 2nd Pl, Mesa, AZ 85201 ",85201,0.8965908586978912,212000,https://www.zillow.com/homedetails/1928-W-2nd-Pl-Mesa-AZ-85201/7612248_zpid/,33.42,-111.87299999999999,6685,2018-04-21
391388,23937814,"4111 W Orangewood Ave, Phoenix, AZ 85051 ",85051,0.8965556919574738,215500,https://www.zillow.com/homedetails/4111-W-Orangewood-Ave-Phoenix-AZ-85051/7756400_zpid/,33.5455,-112.148,6656,2018-03-23
8931812,23923293,"9608 W Indian Hills Dr, Sun City, AZ 85351 ",85351,0.8962984383106232,199900,https://www.zillow.com/homedetails/9608-W-Indian-Hills-Dr-Sun-City-AZ-85351/7921775_zpid/,33.6218,-112.265,6650,2018-03-17
389712,23937309,"2634 W Roveen Ave, Phoenix, AZ 85029 ",85029,0.8962186276912689,249000,https://www.zillow.com/homedetails/2634-W-Roveen-Ave-Phoenix-AZ-85029/7738355_zpid/,33.6063,-112.116,6661,2018-03-28
9033760,23933604,"3111 W Granada Rd, Phoenix, AZ 85009 ",85009,0.8961297869682312,187000,https://www.zillow.com/homedetails/3111-W-Granada-Rd-Phoenix-AZ-85009/89710532_zpid/,33.468,-112.126,6674,2018-04-10
413457,23938220,"6021 W Shangri La Rd, Glendale, AZ 85304 ",85304,0.8960948288440704,225000,https://www.zillow.com/homedetails/6021-W-Shangri-La-Rd-Glendale-AZ-85304/7698519_zpid/,33.586999999999996,-112.189,6662,2018-03-29
450133,23873086,"8659 W Palm Ln, Phoenix, AZ 85037 ",85037,0.8960350751876831,179900,https://www.zillow.com/homedetails/8659-W-Palm-Ln-Phoenix-AZ-85037/7487502_zpid/,33.47,-112.244,6607,2018-02-02
450568,23933799,"8734 W Amelia Ave, Phoenix, AZ 85037 ",85037,0.8958667814731598,179900,https://www.zillow.com/homedetails/8734-W-Amelia-Ave-Phoenix-AZ-85037/7471001_zpid/,33.4932,-112.24799999999999,6662,2018-03-29
9031629,23915015,"6315 W Cheery Lynn Rd, Phoenix, AZ 85033 ",85033,0.8957978785037994,185000,https://www.zillow.com/homedetails/6315-W-Cheery-Lynn-Rd-Phoenix-AZ-85033/7498580_zpid/,33.4847,-112.196,6655,2018-03-22
9028736,23900205,"6736 W Kings Ave, Peoria, AZ 85382 ",85382,0.8955959975719452,200000,https://www.zillow.com/homedetails/6736-W-Kings-Ave-Peoria-AZ-85382/7902943_zpid/,33.6345,-112.205,6627,2018-02-22
390377,23892065,"3010 W Shaw Butte Dr, Phoenix, AZ 85029 ",85029,0.8953892588615417,224900,https://www.zillow.com/homedetails/3010-W-Shaw-Butte-Dr-Phoenix-AZ-85029/7740928_zpid/,33.5957,-112.12299999999999,6627,2018-02-22
502608,23914893,"4133 N 56TH Dr, Phoenix, AZ 85031 ",85031,0.8953606188297272,249900,https://www.zillow.com/homedetails/4133-N-56TH-Dr-Phoenix-AZ-85031/7713212_zpid/,33.4957,-112.181,6656,2018-03-23
1416563,23872427,"7608 W Peck Dr, Glendale, AZ 85303 ",85303,0.8953558802604675,249900,https://www.zillow.com/homedetails/7608-W-Peck-Dr-Glendale-AZ-85303/95094058_zpid/,33.5268,-112.22399999999999,6605,2018-01-31
9036012,23951447,"433 N Robson, Mesa, AZ 85201 ",85201,0.8953191936016083,224500,https://www.zillow.com/homedetails/433-N-Robson-Mesa-AZ-85201/7622209_zpid/,33.4234,-111.837,6711,2018-05-17
9024049,23871156,"9545 W Briarwood Cir N, Sun City, AZ 85351 ",85351,0.8952799439430237,199900,https://www.zillow.com/homedetails/9545-W-Briarwood-Cir-N-Sun-City-AZ-85351/7904970_zpid/,33.6371,-112.266,6599,2018-01-25
465456,23884442,"2936 W Rancho Dr, Phoenix, AZ 85017 ",85017,0.8952635228633881,140500,https://www.zillow.com/homedetails/2936-W-Rancho-Dr-Phoenix-AZ-85017/7762792_zpid/,33.5227,-112.12299999999999,6612,2018-02-07
9034391,23938387,"8449 W 61st Dr, Glendale, AZ 85302 ",85302,0.8947260081768036,234587,https://www.zillow.com/homedetails/8449-W-61st-Dr-Glendale-AZ-85302/2090261909_zpid/,33.5225,-112.19200000000001,6669,2018-04-05
448444,23877867,"8407 W Roma Ave, Phoenix, AZ 85037 ",85037,0.8945968747138977,150000,https://www.zillow.com/homedetails/8407-W-Roma-Ave-Phoenix-AZ-85037/7466939_zpid/,33.4999,-112.24,6618,2018-02-13
