property_id,transaction_id,address,zipcode,any_sell,good_sell,bayesian,list,url,lat,long,date_listed,transaction_date
9030467,23907928,"1105 S 6th Ave, Phoenix, AZ 85003 ",85003,0.037532392889261246,0.9998314678668976,0.03752606747502718,50000,https://www.zillow.com/homedetails/1105-S-6th-Ave-Phoenix-AZ-85003/2091048360_zpid/,33.437,-112.08200000000001,6619,2018-02-14
423622,23892126,"8816 N 44TH Ln, Glendale, AZ 85302 ",85302,0.03817870281636715,0.9164899587631226,0.03499039776980184,209000,https://www.zillow.com/homedetails/8816-N-44TH-Ln-Glendale-AZ-85302/7731485_zpid/,33.565,-112.155,6627,2018-02-22
485999,23881464,"4650 W Hubbell St, Phoenix, AZ 85035 ",85035,0.0383783895522356,0.9113910794258118,0.0349777218806363,173000,https://www.zillow.com/homedetails/4650-W-Hubbell-St-Phoenix-AZ-85035/7494965_zpid/,33.4703,-112.16,6620,2018-02-15
390332,23890671,"4015 W Harmont Dr, Phoenix, AZ 85051 ",85051,0.03817870281636715,0.907066136598587,0.034630608463987744,188000,https://www.zillow.com/homedetails/4015-W-Harmont-Dr-Phoenix-AZ-85051/7753081_zpid/,33.5542,-112.146,6626,2018-02-21
836918,23890072,"5609 N 38TH Dr, Phoenix, AZ 85019 ",85019,0.03817870281636715,0.9060376584529877,0.03459134250251378,195900,https://www.zillow.com/homedetails/5609-N-38TH-Dr-Phoenix-AZ-85019/7719599_zpid/,33.5183,-112.14200000000001,6625,2018-02-20
833315,23884788,"5610 N 38th Dr, Phoenix, AZ 85019 ",85019,0.0383783895522356,0.9011410772800446,0.0345843433053748,180000,https://www.zillow.com/homedetails/5610-N-38th-Dr-Phoenix-AZ-85019/7719600_zpid/,33.5183,-112.14200000000001,6613,2018-02-08
232284,23891805,"17842 N 34TH Dr, Phoenix, AZ 85053 ",85053,0.038148749619722366,0.9047860205173492,0.03451645535614134,145000,https://www.zillow.com/homedetails/17842-N-34TH-Dr-Phoenix-AZ-85053/7941332_zpid/,33.6488,-112.133,6627,2018-02-22
417983,23889534,"4933 W Golden Ln, Glendale, AZ 85302 ",85302,0.03794906288385391,0.9081017374992371,0.034461609941295546,200000,https://www.zillow.com/homedetails/4933-W-Golden-Ln-Glendale-AZ-85302/7730593_zpid/,33.5645,-112.166,6623,2018-02-18
9030778,23911308,"4941 W Townley Ave, Glendale, AZ 85302 ",85302,0.03794906288385391,0.9075510501861572,0.03444071187382214,200000,https://www.zillow.com/homedetails/4941-W-Townley-Ave-Glendale-AZ-85302/7730613_zpid/,33.5647,-112.167,6613,2018-02-08
411977,23892131,"5327 W Sierra St, Glendale, AZ 85304 ",85304,0.038148749619722366,0.9011664688587189,0.0343783739861806,164900,https://www.zillow.com/homedetails/5327-W-Sierra-St-Glendale-AZ-85304/7737312_zpid/,33.5911,-112.17399999999999,6627,2018-02-22
9033237,23929791,"2405 S 90TH Gln, Tolleson, AZ 85353 ",85353,0.035917941480875015,0.9559596478939056,0.03433610269113119,210000,https://www.zillow.com/homedetails/2405-S-90TH-Gln-Tolleson-AZ-85353/67772731_zpid/,33.4252,-112.255,6633,2018-02-28
413432,23882762,"6016 W Desert Cove Ave, Glendale, AZ 85304 ",85304,0.03817870281636715,0.8991358578205109,0.03432784070726863,206000,https://www.zillow.com/homedetails/6016-W-Desert-Cove-Ave-Glendale-AZ-85304/7698491_zpid/,33.5861,-112.189,6613,2018-02-08
362997,23929962,"9017 W Hilton Ave, Tolleson, AZ 85353 ",85353,0.035917941480875015,0.9552663266658783,0.03431120001983545,210000,https://www.zillow.com/homedetails/9017-W-Hilton-Ave-Tolleson-AZ-85353/62726889_zpid/,33.4271,-112.25399999999999,6638,2018-03-05
391579,23874170,"4119 W Las Palmaritas Dr, Phoenix, AZ 85051 ",85051,0.03817870281636715,0.8976900577545166,0.03427264193621715,197000,https://www.zillow.com/homedetails/4119-W-Las-Palmaritas-Dr-Phoenix-AZ-85051/7752798_zpid/,33.5576,-112.148,6613,2018-02-08
9027233,23895214,"8406 W Hamster Ln, Tolleson, AZ 85353 ",85353,0.03614206984639168,0.948192834854126,0.03426965166514595,189000,https://www.zillow.com/homedetails/8406-W-Hamster-Ln-Tolleson-AZ-85353/58883271_zpid/,33.4288,-112.241,6614,2018-02-09
424361,23920272,"9210 N 51ST Dr, Glendale, AZ 85302 ",85302,0.03794906288385391,0.9027442634105682,0.034258298820206035,195000,https://www.zillow.com/homedetails/9210-N-51ST-Dr-Glendale-AZ-85302/7734593_zpid/,33.57,-112.17,6635,2018-03-02
40027,23874516,"2248 S 82ND Ln, Phoenix, AZ 85043 ",85043,0.03614206984639168,0.9473125636577606,0.03423783684208315,210000,https://www.zillow.com/homedetails/2248-S-82ND-Ln-Phoenix-AZ-85043/52423821_zpid/,33.4267,-112.238,6612,2018-02-07
9029584,23903830,"6226 N 35TH Ave, Phoenix, AZ 85017 ",85017,0.0383783895522356,0.8919216692447662,0.034230517272355876,139650,https://www.zillow.com/homedetails/6226-N-35TH-Ave-Phoenix-AZ-85017/7761396_zpid/,33.5286,-112.135,6613,2018-02-08
350516,23914941,"3920 W Lewis Ave, Phoenix, AZ 85009 ",85009,0.038148749619722366,0.8970623314380646,0.034221806275315125,174900,https://www.zillow.com/homedetails/3920-W-Lewis-Ave-Phoenix-AZ-85009/7512548_zpid/,33.4749,-112.14399999999999,6638,2018-03-05
9028736,23900205,"6736 W Kings Ave, Peoria, AZ 85382 ",85382,0.03769397363066673,0.9073502123355865,0.03420163497755746,200000,https://www.zillow.com/homedetails/6736-W-Kings-Ave-Peoria-AZ-85382/7902943_zpid/,33.6345,-112.205,6627,2018-02-22
354449,23889724,"8137 W Hess Ave, Phoenix, AZ 85043 ",85043,0.03614206984639168,0.9461868405342102,0.03419715087832409,205000,https://www.zillow.com/homedetails/8137-W-Hess-Ave-Phoenix-AZ-85043/40371664_zpid/,33.4291,-112.236,6624,2018-02-19
835193,23888928,"3633 W Mariposa St, Phoenix, AZ 85019 ",85019,0.0383783895522356,0.8910452723503113,0.034196882570938114,180000,https://www.zillow.com/homedetails/3633-W-Mariposa-St-Phoenix-AZ-85019/7506850_zpid/,33.5075,-112.13799999999999,6619,2018-02-14
412377,23890689,"5433 W Altadena Ave, Glendale, AZ 85304 ",85304,0.03794906288385391,0.900246649980545,0.034163516731090526,202000,https://www.zillow.com/homedetails/5433-W-Altadena-Ave-Glendale-AZ-85304/92347301_zpid/,33.5918,-112.176,6613,2018-02-08
21550,23880121,"8329 W Gross Ave, Tolleson, AZ 85353 ",85353,0.03614206984639168,0.9441485404968262,0.03412348249600505,198000,https://www.zillow.com/homedetails/8329-W-Gross-Ave-Tolleson-AZ-85353/59271315_zpid/,33.4293,-112.24,6620,2018-02-15
398745,23882226,"4235 W Mescal St, Phoenix, AZ 85029 ",85029,0.038148749619722366,0.8944070637226105,0.034120511132064935,178000,https://www.zillow.com/homedetails/4235-W-Mescal-St-Phoenix-AZ-85029/7744613_zpid/,33.5861,-112.15100000000001,6614,2018-02-09
9022220,23879922,"3934 W Sheridan St, Phoenix, AZ 85009 ",85009,0.038148749619722366,0.8940636813640594,0.03410741152444474,172000,https://www.zillow.com/homedetails/3934-W-Sheridan-St-Phoenix-AZ-85009/7512512_zpid/,33.4754,-112.145,6614,2018-02-09
240163,23882082,"3107 W Country Gables Dr, Phoenix, AZ 85053 ",85053,0.0383783895522356,0.8883366882801056,0.03409293147635678,157900,https://www.zillow.com/homedetails/3107-W-Country-Gables-Dr-Phoenix-AZ-85053/7953053_zpid/,33.622,-112.126,6612,2018-02-07
402261,23882349,"14814 N 62nd Ave, Glendale, AZ 85306 ",85306,0.03769397363066673,0.9044608175754547,0.034092722207660464,190000,https://www.zillow.com/homedetails/14814-N-62nd-Ave-Glendale-AZ-85306/8098781_zpid/,33.6185,-112.191,6617,2018-02-12
39857,23889258,"1810 S 82nd Dr, Phoenix, AZ 85043 ",85043,0.03632700629532337,0.93836709856987,0.034088067497071994,179900,https://www.zillow.com/homedetails/1810-S-82nd-Dr-Phoenix-AZ-85043/60047254_zpid/,33.4316,-112.238,6624,2018-02-19
378443,23881872,"10043 N 39th Ln, Phoenix, AZ 85051 ",85051,0.03794906288385391,0.8982139527797699,0.034086377777194476,184000,https://www.zillow.com/homedetails/10043-N-39th-Ln-Phoenix-AZ-85051/7746015_zpid/,33.5789,-112.14399999999999,6615,2018-02-10
833768,23884876,"6226 N 35th Dr, Phoenix, AZ 85019 ",85019,0.0383783895522356,0.8881001770496368,0.03408385455622037,139650,https://www.zillow.com/homedetails/6226-N-35th-Dr-Phoenix-AZ-85019/7761396_zpid/,33.5286,-112.135,6613,2018-02-08
830423,23937776,"3812 W Missouri Ave, Phoenix, AZ 85019",85019,0.0383783895522356,0.8880555927753448,0.03408214348357369,162000,"https://mcassessor.maricopa.gov/mcs.php?q=3812 W Missouri Ave, Phoenix, AZ 85019",33.5169,-112.14200000000001,6626,2018-02-21
830118,23887515,"3742 W San Juan Ave, Phoenix, AZ 85019 ",85019,0.0383783895522356,0.8877959251403809,0.034072177857924935,178000,https://www.zillow.com/homedetails/3742-W-San-Juan-Ave-Phoenix-AZ-85019/7719490_zpid/,33.5191,-112.14,6621,2018-02-16
246977,23892063,"3417 W Saint Moritz Ln, Phoenix, AZ 85053 ",85053,0.0383783895522356,0.8872739672660828,0.034052145955295265,172500,https://www.zillow.com/homedetails/3417-W-Saint-Moritz-Ln-Phoenix-AZ-85053/7943599_zpid/,33.619,-112.132,6627,2018-02-22
412006,23890703,"5332 W Aster Dr, Glendale, AZ 85304 ",85304,0.03794906288385391,0.8971584439277649,0.034046322205395274,192600,https://www.zillow.com/homedetails/5332-W-Aster-Dr-Glendale-AZ-85304/7911537_zpid/,33.6008,-112.17399999999999,6619,2018-02-14
832708,23877794,"4248 W Cheery Lynn Rd, Phoenix, AZ 85019 ",85019,0.03794906288385391,0.8967763185501099,0.03403182090540913,198900,https://www.zillow.com/homedetails/4248-W-Cheery-Lynn-Rd-Phoenix-AZ-85019/7507231_zpid/,33.4852,-112.15100000000001,6614,2018-02-09
253163,23888405,"3809 W Redfield Rd, Phoenix, AZ 85053 ",85053,0.03817870281636715,0.8911759555339813,0.0340239419634239,208000,https://www.zillow.com/homedetails/3809-W-Redfield-Rd-Phoenix-AZ-85053/7944743_zpid/,33.613,-112.141,6622,2018-02-17
392213,23882221,"4143 W Harmont Dr, Phoenix, AZ 85051 ",85051,0.03817870281636715,0.8907137513160706,0.03400629560594781,209500,https://www.zillow.com/homedetails/4143-W-Harmont-Dr-Phoenix-AZ-85051/7752872_zpid/,33.5547,-112.149,6617,2018-02-12
834771,23884599,"3526 W Pierson St, Phoenix, AZ 85019 ",85019,0.03817870281636715,0.8904785811901093,0.03399731711559745,204900,https://www.zillow.com/homedetails/3526-W-Pierson-St-Phoenix-AZ-85019/7506783_zpid/,33.5071,-112.135,6618,2018-02-13
349674,23890334,"6325 W Magnolia St, Phoenix, AZ 85043 ",85043,0.03614206984639168,0.9399991929531097,0.0339735164872631,193000,https://www.zillow.com/homedetails/6325-W-Magnolia-St-Phoenix-AZ-85043/54948469_zpid/,33.4246,-112.197,6625,2018-02-20
232873,23881209,"18026 N 34th Ave, Phoenix, AZ 85053 ",85053,0.03794906288385391,0.8951510787010193,0.03397014457617464,189000,https://www.zillow.com/homedetails/18026-N-34th-Ave-Phoenix-AZ-85053/7941300_zpid/,33.6501,-112.132,6616,2018-02-11
8967906,23915527,"2908 W Angela Dr, Phoenix, AZ 85053 ",85053,0.03733270615339279,0.909809410572052,0.033965647380477915,189000,https://www.zillow.com/homedetails/2908-W-Angela-Dr-Phoenix-AZ-85053/7942295_zpid/,33.6461,-112.12200000000001,6638,2018-03-05
252070,23915737,"3728 W Carol Ann Way, Phoenix, AZ 85053 ",85053,0.03817870281636715,0.8895843923091888,0.03396317814405109,198900,https://www.zillow.com/homedetails/3728-W-Carol-Ann-Way-Phoenix-AZ-85053/7945963_zpid/,33.6283,-112.139,6627,2018-02-22
350839,23886786,"6514 W Sonora St, Phoenix, AZ 85043 ",85043,0.03632700629532337,0.9348747432231903,0.033961200682407655,175000,https://www.zillow.com/homedetails/6514-W-Sonora-St-Phoenix-AZ-85043/7500079_zpid/,33.4338,-112.2,6621,2018-02-16
350370,23890327,"6417 W Preston Ln, Phoenix, AZ 85043 ",85043,0.03614206984639168,0.9395399391651154,0.03395691810478019,203800,https://www.zillow.com/homedetails/6417-W-Preston-Ln-Phoenix-AZ-85043/55257431_zpid/,33.4233,-112.199,6626,2018-02-21
232639,23915245,"18011 N 33RD Dr, Phoenix, AZ 85053 ",85053,0.03794906288385391,0.8946825861930847,0.03395236572453042,199000,https://www.zillow.com/homedetails/18011-N-33RD-Dr-Phoenix-AZ-85053/7941273_zpid/,33.6496,-112.131,6628,2018-02-23
733,23887135,"1843 N 47th Ave, Phoenix, AZ 85035 ",85035,0.0383783895522356,0.884483128786087,0.03394503806893262,155000,https://www.zillow.com/homedetails/1843-N-47th-Ave-Phoenix-AZ-85035/7494963_zpid/,33.4697,-112.16,6621,2018-02-16
39873,23876462,"1904 S 82nd Dr, Phoenix, AZ 85043 ",85043,0.03614206984639168,0.9383094310760498,0.03391244499547863,207000,https://www.zillow.com/homedetails/1904-S-82nd-Dr-Phoenix-AZ-85043/58770129_zpid/,33.4313,-112.238,6619,2018-02-14
416437,23882370,"4515 W Brown St, Glendale, AZ 85302 ",85302,0.03794906288385391,0.8932017087936401,0.03389616781497562,200000,https://www.zillow.com/homedetails/4515-W-Brown-St-Glendale-AZ-85302/7729204_zpid/,33.5781,-112.15700000000001,6620,2018-02-15
259043,23891802,"18615 N 48TH Ave, Glendale, AZ 85308 ",85308,0.03769397363066673,0.8990032076835632,0.03388700320430904,210000,https://www.zillow.com/homedetails/18615-N-48TH-Ave-Glendale-AZ-85308/7939425_zpid/,33.655,-112.165,6627,2018-02-22
351306,23877786,"4119 W Monte Vista Rd, Phoenix, AZ 85009 ",85009,0.0383783895522356,0.8827573359012604,0.033878804917312266,164000,https://www.zillow.com/homedetails/4119-W-Monte-Vista-Rd-Phoenix-AZ-85009/7511620_zpid/,33.4715,-112.148,6619,2018-02-14
479110,23877666,"1848 N 47th Ave, Phoenix, AZ 85035 ",85035,0.0383783895522356,0.8823744356632233,0.033864109822817234,170000,https://www.zillow.com/homedetails/1848-N-47th-Ave-Phoenix-AZ-85035/67081851_zpid/,33.4698,-112.16,6613,2018-02-08
233618,23887001,"18243 N 31st Ave, Phoenix, AZ 85053 ",85053,0.03794906288385391,0.8920140862464905,0.033851098652251554,201592,https://www.zillow.com/homedetails/18243-N-31st-Ave-Phoenix-AZ-85053/7940528_zpid/,33.6526,-112.126,6621,2018-02-16
359312,23869360,"2024 S 85TH Ln, Tolleson, AZ 85353 ",85353,0.03614206984639168,0.9361999034881592,0.0338362023020542,185000,https://www.zillow.com/homedetails/2024-S-85th-Ln-Tolleson-AZ-85353/59271383_zpid/,33.4284,-112.244,6595,2018-01-21
412814,23882559,"5615 W Mescal St, Glendale, AZ 85304 ",85304,0.03794906288385391,0.8914570212364197,0.03382995855715398,199999,https://www.zillow.com/homedetails/5615-W-Mescal-St-Glendale-AZ-85304/7736409_zpid/,33.5861,-112.18,6612,2018-02-07
8958904,23877123,"18619 N 45th Dr, Glendale, AZ 85308 ",85308,0.03769397363066673,0.8971830010414124,0.03381839238313744,200000,https://www.zillow.com/homedetails/18619-N-45th-Dr-Glendale-AZ-85308/7938848_zpid/,33.6553,-112.15700000000001,6617,2018-02-12
7568472,23889389,"3920 W Sheridan St, Phoenix, AZ 85009 ",85009,0.038148749619722366,0.8863581717014313,0.03381345596563279,165000,https://www.zillow.com/homedetails/3920-W-Sheridan-St-Phoenix-AZ-85009/7512515_zpid/,33.4754,-112.14399999999999,6624,2018-02-19
417446,23882391,"4813 W Mountain View Rd, Glendale, AZ 85302 ",85302,0.03794906288385391,0.8910170495510101,0.03381326204399726,195000,https://www.zillow.com/homedetails/4813-W-Mountain-View-Rd-Glendale-AZ-85302/7730123_zpid/,33.5745,-112.162,6618,2018-02-13
390757,23874166,"4033 W Townley Ave, Phoenix, AZ 85051 ",85051,0.03794906288385391,0.8904993236064911,0.033793614829572105,209950,https://www.zillow.com/homedetails/4033-W-Townley-Ave-Phoenix-AZ-85051/7754496_zpid/,33.5658,-112.146,6613,2018-02-08
349981,23889261,"6342 W Whyman Ave, Phoenix, AZ 85043 ",85043,0.03632700629532337,0.9301183223724365,0.033788414152219115,179900,https://www.zillow.com/homedetails/6342-W-Whyman-Ave-Phoenix-AZ-85043/53206189_zpid/,33.4274,-112.198,6624,2018-02-19
454255,23877764,"4605 W Weldon Ave, Phoenix, AZ 85031 ",85031,0.03794906288385391,0.8900813162326813,0.03377775184145748,182900,https://www.zillow.com/homedetails/4605-W-Weldon-Ave-Phoenix-AZ-85031/7508175_zpid/,33.4911,-112.15799999999999,6614,2018-02-09
252204,23882157,"3731 W Evans Dr, Phoenix, AZ 85053 ",85053,0.03817870281636715,0.8845122754573822,0.033769531302116074,185000,https://www.zillow.com/homedetails/3731-W-Evans-Dr-Phoenix-AZ-85053/7944877_zpid/,33.6167,-112.14,6619,2018-02-14
8946286,23890062,"3545 W Griswold Rd, Phoenix, AZ 85051 ",85051,0.03794906288385391,0.8898127377033234,0.033767559537957625,203000,https://www.zillow.com/homedetails/3545-W-Griswold-Rd-Phoenix-AZ-85051/7753645_zpid/,33.5561,-112.13600000000001,6625,2018-02-20
259107,23915301,"18839 N 45TH Ave, Glendale, AZ 85308 ",85308,0.03769397363066673,0.8958125710487366,0.033766735431130845,198000,https://www.zillow.com/homedetails/18839-N-45TH-Ave-Glendale-AZ-85308/7938698_zpid/,33.6576,-112.15700000000001,6628,2018-02-23
832280,23887119,"4141 W Mulberry Dr, Phoenix, AZ 85019 ",85019,0.038148749619722366,0.8851030766963959,0.03376557566053673,159000,https://www.zillow.com/homedetails/4141-W-Mulberry-Dr-Phoenix-AZ-85019/7507323_zpid/,33.4867,-112.149,6621,2018-02-16
241469,23891806,"3136 W Woodridge Dr, Phoenix, AZ 85053 ",85053,0.03817870281636715,0.8837895691394806,0.0337419393123814,209900,https://www.zillow.com/homedetails/3136-W-Woodridge-Dr-Phoenix-AZ-85053/7941784_zpid/,33.6405,-112.126,6626,2018-02-21
385549,23892053,"3552 W Echo Ln, Phoenix, AZ 85051 ",85051,0.03794906288385391,0.8889353275299072,0.03373426264411172,189500,https://www.zillow.com/homedetails/3552-W-Echo-Ln-Phoenix-AZ-85051/7754436_zpid/,33.5597,-112.137,6627,2018-02-22
223573,23881957,"14016 N 33rd Dr, Phoenix, AZ 85053 ",85053,0.03817870281636715,0.8834987282752991,0.033730835385460956,204900,https://www.zillow.com/homedetails/14016-N-33rd-Dr-Phoenix-AZ-85053/7943377_zpid/,33.6133,-112.13,6614,2018-02-09
504041,23879864,"2130 N 49TH Ave, Phoenix, AZ 85035 ",85035,0.0383783895522356,0.8787869215011597,0.033726426806781395,174900,https://www.zillow.com/homedetails/2130-N-49th-Ave-Phoenix-AZ-85035/7494257_zpid/,33.4723,-112.166,6615,2018-02-10
9025721,23873511,"4808 W Michigan Ave, Glendale, AZ 85308 ",85308,0.03769397363066673,0.8946306705474854,0.03372218490480261,210000,https://www.zillow.com/homedetails/4808-W-Michigan-Ave-Glendale-AZ-85308/7949548_zpid/,33.6511,-112.163,6611,2018-02-06
363090,23874641,"9025 W Hilton Ave, Tolleson, AZ 85353 ",85353,0.035917941480875015,0.9384515881538391,0.033707249225943814,189900,https://www.zillow.com/homedetails/9025-W-Hilton-Ave-Tolleson-AZ-85353/67772691_zpid/,33.4271,-112.25399999999999,6608,2018-02-03
359526,23874541,"2429 S 83RD Dr, Tolleson, AZ 85353 ",85353,0.03614206984639168,0.9325239658355713,0.033703346306663384,209999,https://www.zillow.com/homedetails/2429-S-83RD-Dr-Tolleson-AZ-85353/59271229_zpid/,33.4258,-112.23899999999999,6600,2018-01-26
827980,23889709,"3137 N 37TH Dr, Phoenix, AZ 85019 ",85019,0.038148749619722366,0.8834372460842133,0.033702026305603705,154000,https://www.zillow.com/homedetails/3137-N-37TH-Dr-Phoenix-AZ-85019/7507607_zpid/,33.4856,-112.14,6625,2018-02-20
405482,23915699,"4721 W Lavey Rd, Glendale, AZ 85306 ",85306,0.03769397363066673,0.8940655887126923,0.03370088472502275,210000,https://www.zillow.com/homedetails/4721-W-Lavey-Rd-Glendale-AZ-85306/7951053_zpid/,33.6369,-112.162,6628,2018-02-23
417007,23882394,"4643 W Mountain View Rd, Glendale, AZ 85302 ",85302,0.03794906288385391,0.8877281546592712,0.033688451564932276,210000,https://www.zillow.com/homedetails/4643-W-Mountain-View-Rd-Glendale-AZ-85302/7729601_zpid/,33.5745,-112.16,6613,2018-02-08
383990,23887435,"13260 N 33rd Ave, Phoenix, AZ 85029 ",85029,0.03817870281636715,0.8822978138923645,0.033684986032126996,208000,https://www.zillow.com/homedetails/13260-N-33rd-Ave-Phoenix-AZ-85029/7745082_zpid/,33.6071,-112.12899999999999,6621,2018-02-16
359511,23875667,"2422 S 84th Ln, Tolleson, AZ 85353 ",85353,0.03614206984639168,0.9319826066493988,0.03368378046514475,197500,https://www.zillow.com/homedetails/2422-S-84th-Ln-Tolleson-AZ-85353/59271244_zpid/,33.4258,-112.242,6605,2018-01-31
9022216,23869757,"8333 W Watkins St, Tolleson, AZ 85353 ",85353,0.03614206984639168,0.9317436516284943,0.033675144136089075,190000,https://www.zillow.com/homedetails/8333-W-Watkins-St-Tolleson-AZ-85353/54886336_zpid/,33.4265,-112.24,6594,2018-01-20
405640,23881379,"4810 W Lavey Rd, Glendale, AZ 85306 ",85306,0.03769397363066673,0.8922412395477295,0.033632117755705515,210000,https://www.zillow.com/homedetails/4810-W-Lavey-Rd-Glendale-AZ-85306/7951067_zpid/,33.6373,-112.163,6613,2018-02-08
393531,23882111,"3417 W Corrine Dr, Phoenix, AZ 85029 ",85029,0.03794906288385391,0.8848019540309906,0.03357740499327888,189900,https://www.zillow.com/homedetails/3417-W-Corrine-Dr-Phoenix-AZ-85029/7747695_zpid/,33.6006,-112.133,6617,2018-02-12
9029750,23904583,"3902 W Davidson Ln, Phoenix, AZ 85051 ",85051,0.038148749619722366,0.8787646889686584,0.03352377409411855,177000,https://www.zillow.com/homedetails/3902-W-Davidson-Ln-Phoenix-AZ-85051/7746496_zpid/,33.5699,-112.14299999999999,6621,2018-02-16
22091,23889710,"8335 W Lewis Ave, Phoenix, AZ 85037 ",85037,0.03614206984639168,0.927131712436676,0.03350845910769107,184900,https://www.zillow.com/homedetails/8335-W-Lewis-Ave-Phoenix-AZ-85037/81996643_zpid/,33.4736,-112.23899999999999,6625,2018-02-20
225612,23888894,"14651 N 30th Dr, Phoenix, AZ 85053 ",85053,0.03817870281636715,0.877403199672699,0.03349811601043362,186800,https://www.zillow.com/homedetails/14651-N-30th-Dr-Phoenix-AZ-85053/7952887_zpid/,33.6198,-112.124,6623,2018-02-18
389383,23873931,"2532 W Wethersfield Rd, Phoenix, AZ 85029 ",85029,0.03711391054093838,0.9023973345756531,0.033491493947822026,209999,https://www.zillow.com/homedetails/2532-W-Wethersfield-Rd-Phoenix-AZ-85029/7748500_zpid/,33.5972,-112.11399999999999,6612,2018-02-07
466959,23884499,"3101 W Mclellan Blvd, Phoenix, AZ 85017 ",85017,0.03817870281636715,0.87714022397995,0.03348807593961223,209000,https://www.zillow.com/homedetails/3101-W-Mclellan-Blvd-Phoenix-AZ-85017/7759409_zpid/,33.5325,-112.126,6617,2018-02-12
408329,23887521,"6134 W Tierra Buena Ln, Glendale, AZ 85306 ",85306,0.03769397363066673,0.8882956504821777,0.03348339282551116,199900,https://www.zillow.com/homedetails/6134-W-Tierra-Buena-Ln-Glendale-AZ-85306/8096939_zpid/,33.6295,-112.19200000000001,6621,2018-02-16
9029763,23905774,"7055 W Lincoln St, Peoria, AZ 85345 ",85345,0.03614206984639168,0.9257375001907349,0.03345806939131757,198000,https://www.zillow.com/homedetails/7055-W-Lincoln-St-Peoria-AZ-85345/63200896_zpid/,33.5844,-112.211,6620,2018-02-15
389115,23882078,"2508 W Eugie Ave, Phoenix, AZ 85029 ",85029,0.03731359727680683,0.896061897277832,0.033435292770116476,133900,https://www.zillow.com/homedetails/2508-W-Eugie-Ave-Phoenix-AZ-85029/7738262_zpid/,33.6094,-112.113,6618,2018-02-13
835317,23884573,"3625 W Rose Ln, Phoenix, AZ 85019 ",85019,0.03817870281636715,0.8750711977481842,0.033409083201990375,182000,https://www.zillow.com/homedetails/3625-W-Rose-Ln-Phoenix-AZ-85019/7759060_zpid/,33.5274,-112.137,6611,2018-02-06
354297,23929964,"8118 W Whyman Ave, Phoenix, AZ 85043 ",85043,0.03508073836565018,0.9521048963069916,0.03340054276400006,205000,https://www.zillow.com/homedetails/8118-W-Whyman-Ave-Phoenix-AZ-85043/52423847_zpid/,33.4273,-112.235,6640,2018-03-07
413012,23882571,"5731 W Lupine Ave, Glendale, AZ 85304 ",85304,0.038148749619722366,0.8755069673061371,0.03339949608608428,169900,https://www.zillow.com/homedetails/5731-W-Lupine-Ave-Glendale-AZ-85304/7737737_zpid/,33.5905,-112.18299999999999,6612,2018-02-07
233975,23881266,"18437 N 33rd Ave, Phoenix, AZ 85053 ",85053,0.03769397363066673,0.8855599462985992,0.03338027326415405,200000,https://www.zillow.com/homedetails/18437-N-33rd-Ave-Phoenix-AZ-85053/7941768_zpid/,33.6542,-112.13,6619,2018-02-14
350150,23874570,"6406 W Preston Ln, Phoenix, AZ 85043 ",85043,0.03632700629532337,0.9188307821750641,0.03337837160841045,169900,https://www.zillow.com/homedetails/6406-W-Preston-Ln-Phoenix-AZ-85043/55257443_zpid/,33.4237,-112.198,6606,2018-02-01
351665,23889721,"6616 W Johnson St, Phoenix, AZ 85043 ",85043,0.03632700629532337,0.9186815321445465,0.03337294980161226,180000,https://www.zillow.com/homedetails/6616-W-Johnson-St-Phoenix-AZ-85043/67788378_zpid/,33.4544,-112.20200000000001,6625,2018-02-20
523764,23888833,"9034 W Avalon Dr, Phoenix, AZ 85037 ",85037,0.03632700629532337,0.9180408716201782,0.03334967652271037,180000,https://www.zillow.com/homedetails/9034-W-Avalon-Dr-Phoenix-AZ-85037/54948475_zpid/,33.4832,-112.25399999999999,6623,2018-02-18
41535,23889260,"6314 W Mohave St, Phoenix, AZ 85043 ",85043,0.03614206984639168,0.9221774339675903,0.0333294012292229,190000,https://www.zillow.com/homedetails/6314-W-Mohave-St-Phoenix-AZ-85043/55257271_zpid/,33.431999999999995,-112.196,6623,2018-02-18
389681,23882088,"2623 W Willow Ave, Phoenix, AZ 85029 ",85029,0.03731359727680683,0.8930200338363647,0.033321789902690524,169900,https://www.zillow.com/homedetails/2623-W-Willow-Ave-Phoenix-AZ-85029/7738547_zpid/,33.6076,-112.116,6612,2018-02-07
352675,23874598,"7143 W Zak Rd, Phoenix, AZ 85043 ",85043,0.03614206984639168,0.9219565391540527,0.03332141763344332,190000,https://www.zillow.com/homedetails/7143-W-Zak-Rd-Phoenix-AZ-85043/52424124_zpid/,33.4268,-112.214,6606,2018-02-01
398139,23888411,"4133 W Bloomfield Rd, Phoenix, AZ 85029 ",85029,0.036945439875125885,0.9016716480255127,0.03331265565923225,230000,https://www.zillow.com/homedetails/4133-W-Bloomfield-Rd-Phoenix-AZ-85029/7742616_zpid/,33.5986,-112.148,6622,2018-02-17
9029830,23904987,"9503 N 82nd Ln, Peoria, AZ 85345 ",85345,0.03614206984639168,0.9212110340595245,0.03329447353624604,189900,https://www.zillow.com/homedetails/9503-N-82nd-Ln-Peoria-AZ-85345/67765087_zpid/,33.571,-112.236,6621,2018-02-16
411832,23919811,"5309 W Sierra St, Glendale, AZ 85304 ",85304,0.03680283576250076,0.9044431149959564,0.033286071417720775,199000,https://www.zillow.com/homedetails/5309-W-Sierra-St-Glendale-AZ-85304/7737309_zpid/,33.5911,-112.17399999999999,6641,2018-03-08
962858,23920761,"4276 W Park Ave, Chandler, AZ 85226 ",85226,0.03592861536890268,0.9264115989208221,0.03328468601091636,215000,https://www.zillow.com/homedetails/4276-W-Park-Ave-Chandler-AZ-85226/8153857_zpid/,33.3215,-111.91799999999999,6635,2018-03-02
470650,23892082,"3445 W Rancho Dr, Phoenix, AZ 85017 ",85017,0.0383783895522356,0.8672163486480713,0.03328236685448305,154900,https://www.zillow.com/homedetails/3445-W-Rancho-Dr-Phoenix-AZ-85017/7762576_zpid/,33.5225,-112.134,6627,2018-02-22
41792,23874571,"6411 W Winslow Ave, Phoenix, AZ 85043 ",85043,0.03614206984639168,0.9207502603530884,0.03327782022076464,210000,https://www.zillow.com/homedetails/6411-W-Winslow-Ave-Phoenix-AZ-85043/49641685_zpid/,33.4219,-112.198,6610,2018-02-05
9029622,23904013,"5207 W Campo Bello Dr, Glendale, AZ 85308 ",85308,0.036494119092822075,0.9117709398269653,0.03327427726341958,230000,https://www.zillow.com/homedetails/5207-W-Campo-Bello-Dr-Glendale-AZ-85308/8100316_zpid/,33.6426,-112.17200000000001,6625,2018-02-20
9019297,23887452,"3343 W Seldon Ln, Phoenix, AZ 85051 ",85051,0.03794906288385391,0.8765459060668945,0.033264095709917285,194900,https://www.zillow.com/homedetails/3343-W-Seldon-Ln-Phoenix-AZ-85051/7753876_zpid/,33.5611,-112.132,6621,2018-02-16
445506,23891936,"4646 N 84TH Ln, Phoenix, AZ 85037 ",85037,0.03614206984639168,0.9201599061489105,0.033256483597883135,198000,https://www.zillow.com/homedetails/4646-N-84TH-Ln-Phoenix-AZ-85037/7481172_zpid/,33.505,-112.242,6627,2018-02-22
833199,23888418,"5269 N 42ND Ln, Phoenix, AZ 85019 ",85019,0.03639795631170273,0.9133306741714478,0.033243369976630355,209900,https://www.zillow.com/homedetails/5269-N-42ND-Ln-Phoenix-AZ-85019/55260747_zpid/,33.5158,-112.15,6622,2018-02-17
9029861,23905103,"8642 W Echo Ln, Peoria, AZ 85345 ",85345,0.03614206984639168,0.9191307425498962,0.0332192874952042,185000,https://www.zillow.com/homedetails/8642-W-Echo-Ln-Peoria-AZ-85345/50187500_zpid/,33.5583,-112.24600000000001,6617,2018-02-12
832946,23884761,"5052 N 35th Dr, Phoenix, AZ 85019 ",85019,0.03817870281636715,0.8700891137123108,0.0332188736961786,210000,https://www.zillow.com/homedetails/5052-N-35th-Dr-Phoenix-AZ-85019/7719986_zpid/,33.5115,-112.135,6618,2018-02-13
9030987,23911472,"6155 N 36th Ave, Phoenix, AZ 85019 ",85019,0.0383783895522356,0.8655152022838593,0.03321707959663195,125000,https://www.zillow.com/homedetails/6155-N-36th-Ave-Phoenix-AZ-85019/7759091_zpid/,33.5273,-112.13600000000001,6614,2018-02-09
400129,23873890,"13807 N 52nd Ave, Glendale, AZ 85306 ",85306,0.036731619387865067,0.9040863215923309,0.033208554658504474,214900,https://www.zillow.com/homedetails/13807-N-52nd-Ave-Glendale-AZ-85306/8097449_zpid/,33.6112,-112.171,6612,2018-02-07
9027265,23895296,"8555 W Sonora St, Tolleson, AZ 85353 ",85353,0.03614206984639168,0.9184992611408234,0.03319646445001079,190500,https://www.zillow.com/homedetails/8555-W-Sonora-St-Tolleson-AZ-85353/58494114_zpid/,33.4325,-112.244,6608,2018-02-03
503480,23892091,"5748 N 31ST Ave, Phoenix, AZ 85017 ",85017,0.03817870281636715,0.869477391242981,0.03319551892581596,199000,https://www.zillow.com/homedetails/5748-N-31ST-Ave-Phoenix-AZ-85017/7762750_zpid/,33.5223,-112.126,6627,2018-02-22
467550,23884486,"3136 W Montebello Ave, Phoenix, AZ 85017 ",85017,0.03817870281636715,0.8694699108600616,0.03319523333449953,190000,https://www.zillow.com/homedetails/3136-W-Montebello-Ave-Phoenix-AZ-85017/7762600_zpid/,33.5206,-112.12700000000001,6614,2018-02-09
483296,23891539,"2625 N 73RD Dr, Phoenix, AZ 85035 ",85035,0.03614206984639168,0.9174253344535828,0.033157650516670634,205000,https://www.zillow.com/homedetails/2625-N-73rd-Dr-Phoenix-AZ-85035/95093273_zpid/,33.4771,-112.21600000000001,6623,2018-02-18
359281,23890314,"2013 S 86TH Ave, Tolleson, AZ 85353 ",85353,0.03493845835328102,0.9488376080989838,0.03315092325459312,211000,https://www.zillow.com/homedetails/2013-S-86TH-Ave-Tolleson-AZ-85353/59271375_zpid/,33.4287,-112.244,6624,2018-02-19
415917,23882369,"4342 W Orchid Ln, Glendale, AZ 85302 ",85302,0.03817870281636715,0.867843359708786,0.03313313372147936,199900,https://www.zillow.com/homedetails/4342-W-Orchid-Ln-Glendale-AZ-85302/7731107_zpid/,33.5621,-112.154,6611,2018-02-06
407754,23882612,"5927 W Redfield Rd, Glendale, AZ 85306 ",85306,0.03789366036653519,0.8743066191673279,0.033130678082940346,165000,https://www.zillow.com/homedetails/5927-W-Redfield-Rd-Glendale-AZ-85306/7910715_zpid/,33.6135,-112.18700000000001,6591,2018-01-17
9023675,23873926,"2433 W Willow Ave, Phoenix, AZ 85029 ",85029,0.03731359727680683,0.8873390853404999,0.03310981327836554,165000,https://www.zillow.com/homedetails/2433-W-Willow-Ave-Phoenix-AZ-85029/7738215_zpid/,33.6075,-112.11200000000001,6612,2018-02-07
9026524,23889225,"8051 S Calle Maravilla, Guadalupe, AZ 85283 ",85283,0.037532392889261246,0.8816183805465698,0.03308924743706809,115000,https://www.zillow.com/homedetails/8051-S-Calle-Maravilla-Guadalupe-AZ-85283/8138989_zpid/,33.3728,-111.96600000000001,6624,2018-02-19
365838,23892504,"9923 W Whyman Ave, Tolleson, AZ 85353 ",85353,0.03472979553043842,0.9523559510707855,0.0330751274528846,224000,https://www.zillow.com/homedetails/9923-W-Whyman-Ave-Tolleson-AZ-85353/95149673_zpid/,33.4254,-112.274,6634,2018-03-01
226967,23882020,"15040 N 28th Dr, Phoenix, AZ 85053 ",85053,0.03731359727680683,0.8864021301269531,0.03307485210886085,169000,https://www.zillow.com/homedetails/15040-N-28th-Dr-Phoenix-AZ-85053/7942619_zpid/,33.6232,-112.12,6616,2018-02-11
479954,23877695,"2223 N 47th Ln, Phoenix, AZ 85035 ",85035,0.0383783895522356,0.8617608845233917,0.03307299492711785,105000,https://www.zillow.com/homedetails/2223-N-47th-Ln-Phoenix-AZ-85035/7494449_zpid/,33.4722,-112.161,6612,2018-02-07
43860,23874625,"8140 W Gibson Ln, Phoenix, AZ 85043 ",85043,0.03493845835328102,0.9465688765048981,0.03307165727027839,214900,https://www.zillow.com/homedetails/8140-W-Gibson-Ln-Phoenix-AZ-85043/52423784_zpid/,33.4279,-112.236,6615,2018-02-10
450725,23873992,"8746 W Granada Rd, Phoenix, AZ 85037 ",85037,0.03614206984639168,0.9147808849811554,0.03306207463913291,199900,https://www.zillow.com/homedetails/8746-W-Granada-Rd-Phoenix-AZ-85037/7487519_zpid/,33.4683,-112.249,6611,2018-02-06
501561,23888074,"7826 W Palm Ln, Phoenix, AZ 85035 ",85035,0.03632700629532337,0.9095007181167603,0.03303943831262868,172000,https://www.zillow.com/homedetails/7826-W-Palm-Ln-Phoenix-AZ-85035/95097689_zpid/,33.469,-112.228,6622,2018-02-17
828899,23890080,"3614 W Solano Dr, Phoenix, AZ 85019 ",85019,0.0383783895522356,0.8603386580944061,0.033018412167194755,144900,https://www.zillow.com/homedetails/3614-W-Solano-Dr-Phoenix-AZ-85019/7719186_zpid/,33.5213,-112.137,6625,2018-02-20
403144,23887524,"15436 N 55th Dr, Glendale, AZ 85306 ",85306,0.037920303642749786,0.8704961538314819,0.03300947847313562,199900,https://www.zillow.com/homedetails/15436-N-55th-Dr-Glendale-AZ-85306/8096414_zpid/,33.6266,-112.178,6621,2018-02-16
402730,23873897,"15243 N 66th Dr, Glendale, AZ 85306 ",85306,0.036494119092822075,0.904362827539444,0.03300392473134578,232900,https://www.zillow.com/homedetails/15243-N-66th-Dr-Glendale-AZ-85306/8100497_zpid/,33.6248,-112.20100000000001,6612,2018-02-07
1414408,23870613,"7359 N 70th Ave, Glendale, AZ 85303 ",85303,0.03632700629532337,0.9079329669475555,0.03298248660603548,174900,https://www.zillow.com/homedetails/7359-N-70th-Ave-Glendale-AZ-85303/7704942_zpid/,33.5441,-112.21,6598,2018-01-24
355451,23891815,"414 E Danbury Rd, Phoenix, AZ 85022 ",85022,0.03731359727680683,0.8836863040924072,0.03297351486993394,179900,https://www.zillow.com/homedetails/414-E-Danbury-Rd-Phoenix-AZ-85022/7959485_zpid/,33.6425,-112.068,6627,2018-02-22
354192,23874622,"8108 W Magnolia St, Phoenix, AZ 85043 ",85043,0.03493845835328102,0.9433867335319519,0.03296047810054392,217000,https://www.zillow.com/homedetails/8108-W-Magnolia-St-Phoenix-AZ-85043/50884736_zpid/,33.425,-112.234,6613,2018-02-08
9016482,23874213,"7522 W Turquoise Ave, Peoria, AZ 85345 ",85345,0.03614206984639168,0.9118713140487671,0.0329569167232715,199000,https://www.zillow.com/homedetails/7522-W-Turquoise-Ave-Peoria-AZ-85345/7682171_zpid/,33.5747,-112.221,6613,2018-02-08
1370379,23919991,"6634 N 84TH Ln, Glendale, AZ 85305 ",85305,0.03614206984639168,0.9118012189865112,0.03295438334263556,205000,https://www.zillow.com/homedetails/6634-N-84TH-Ln-Glendale-AZ-85305/7461312_zpid/,33.5325,-112.241,6633,2018-02-28
448361,23888250,"8402 W Coolidge St, Phoenix, AZ 85037 ",85037,0.03614206984639168,0.9117754101753235,0.03295345055877896,183500,https://www.zillow.com/homedetails/8402-W-Coolidge-St-Phoenix-AZ-85037/7481009_zpid/,33.5049,-112.24,6622,2018-02-17
9029095,23901819,"8051 S Calle Maravilla, Tempe, AZ 85283 ",85283,0.037532392889261246,0.8779278993606567,0.032950734847247976,115000,https://www.zillow.com/homedetails/8051-S-Calle-Maravilla-Tempe-AZ-85283/8138989_zpid/,33.3732,-111.96700000000001,6624,2018-02-19
9026758,23893954,"8538 W Las Palmaritas Dr, Peoria, AZ 85345 ",85345,0.03614206984639168,0.9114546775817871,0.03294185861898136,198000,https://www.zillow.com/homedetails/8538-W-Las-Palmaritas-Dr-Peoria-AZ-85345/7683390_zpid/,33.5569,-112.243,6613,2018-02-08
7542144,23891819,"4205 W Rockwood Dr, Glendale, AZ 85308 ",85308,0.036494119092822075,0.9019626677036285,0.03291633301245572,219900,https://www.zillow.com/homedetails/4205-W-Rockwood-Dr-Glendale-AZ-85308/7935978_zpid/,33.6561,-112.149,6627,2018-02-22
402356,23882339,"11811 N 51ST Dr, Glendale, AZ 85304 ",85304,0.03794906288385391,0.8661571145057678,0.03286985080567684,189500,https://www.zillow.com/homedetails/11811-N-51ST-Dr-Glendale-AZ-85304/60978616_zpid/,33.5933,-112.169,6583,2018-01-09
337551,23882064,"2301 W Orchid Ln, Phoenix, AZ 85021 ",85021,0.03711391054093838,0.8855477869510651,0.032866141344627786,199000,https://www.zillow.com/homedetails/2301-W-Orchid-Ln-Phoenix-AZ-85021/7782329_zpid/,33.5623,-112.109,6616,2018-02-11
9029324,23902714,"7007 W Windsor Ave, Phoenix, AZ 85035 ",85035,0.03632700629532337,0.9047262072563171,0.03286599462654427,159900,https://www.zillow.com/homedetails/7007-W-Windsor-Ave-Phoenix-AZ-85035/2091066637_zpid/,33.4782,-112.21,6618,2018-02-13
486822,23888245,"4877 W Berkeley Rd, Phoenix, AZ 85035 ",85035,0.03817870281636715,0.8607688546180725,0.03286303829404813,188000,https://www.zillow.com/homedetails/4877-W-Berkeley-Rd-Phoenix-AZ-85035/7494907_zpid/,33.4677,-112.166,6621,2018-02-16
402542,23889509,"11840 N 49TH Ave, Glendale, AZ 85304 ",85304,0.036731619387865067,0.8946381509304047,0.032861508049839006,227500,https://www.zillow.com/homedetails/11840-N-49TH-Ave-Glendale-AZ-85304/7727457_zpid/,33.5948,-112.164,6624,2018-02-19
9029774,23904701,"7414 W Paradise Dr, Peoria, AZ 85345 ",85345,0.03632700629532337,0.9044952690601349,0.03285760533323773,179900,https://www.zillow.com/homedetails/7414-W-Paradise-Dr-Peoria-AZ-85345/7700773_zpid/,33.5939,-112.219,6620,2018-02-15
458026,23877814,"5408 W Mulberry Dr, Phoenix, AZ 85031 ",85031,0.036355484277009964,0.9036783576011658,0.03285366432124337,165000,https://www.zillow.com/homedetails/5408-W-Mulberry-Dr-Phoenix-AZ-85031/7497026_zpid/,33.4869,-112.175,6616,2018-02-11
450364,23891932,"8721 W Virginia Ave, Phoenix, AZ 85037 ",85037,0.03614206984639168,0.9090039730072021,0.032853285083073835,189000,https://www.zillow.com/homedetails/8721-W-Virginia-Ave-Phoenix-AZ-85037/7473685_zpid/,33.4763,-112.24799999999999,6627,2018-02-22
434384,23888835,"7629 W Flower St, Phoenix, AZ 85033 ",85033,0.03632700629532337,0.904369443655014,0.03285303447295379,175900,https://www.zillow.com/homedetails/7629-W-Flower-St-Phoenix-AZ-85033/7469131_zpid/,33.4849,-112.22399999999999,6623,2018-02-18
8989493,23890965,"3646 N 79TH Dr, Phoenix, AZ 85033 ",85033,0.03632700629532337,0.9040514230728149,0.0328414817372622,169900,https://www.zillow.com/homedetails/3646-N-79th-Dr-Phoenix-AZ-85033/7478627_zpid/,33.4902,-112.23100000000001,6625,2018-02-20
838479,23892080,"4127 W Cavalier Dr, Phoenix, AZ 85019 ",85019,0.03658289276063442,0.8976844251155853,0.03283989305689522,179900,https://www.zillow.com/homedetails/4127-W-Cavalier-Dr-Phoenix-AZ-85019/7760505_zpid/,33.525999999999996,-112.148,6627,2018-02-22
465377,23887474,"2933 W Citrus Way, Phoenix, AZ 85017 ",85017,0.037532392889261246,0.8748643696308136,0.03283575324579957,179900,https://www.zillow.com/homedetails/2933-W-Citrus-Way-Phoenix-AZ-85017/7761075_zpid/,33.5298,-112.12299999999999,6621,2018-02-16
382754,23881954,"12808 N 30th Ave, Phoenix, AZ 85029 ",85029,0.03711391054093838,0.8844573199748993,0.03282566985082652,189900,https://www.zillow.com/homedetails/12808-N-30th-Ave-Phoenix-AZ-85029/7741082_zpid/,33.6026,-112.12299999999999,6619,2018-02-14
416728,23890693,"4561 W Echo Ln, Glendale, AZ 85302 ",85302,0.036945439875125885,0.8883548378944397,0.032820660251206224,230000,https://www.zillow.com/homedetails/4561-W-Echo-Ln-Glendale-AZ-85302/7731772_zpid/,33.5592,-112.15799999999999,6626,2018-02-21
327629,23884338,"2044 W Ocotillo Rd, Phoenix, AZ 85015 ",85015,0.03731359727680683,0.8794230222702026,0.032814436488942667,176900,https://www.zillow.com/homedetails/2044-W-Ocotillo-Rd-Phoenix-AZ-85015/7773527_zpid/,33.5357,-112.104,6615,2018-02-10
559662,23912498,"1302 W 7TH Dr, Mesa, AZ 85202 ",85202,0.037532392889261246,0.8742789924144745,0.03281378263812751,177000,https://www.zillow.com/homedetails/1302-W-7TH-Dr-Mesa-AZ-85202/7604299_zpid/,33.4017,-111.859,6635,2018-03-02
9024755,23914845,"3026 N 75TH Dr, Phoenix, AZ 85033 ",85033,0.03632700629532337,0.9029174447059631,0.032800287697990815,174000,https://www.zillow.com/homedetails/3026-N-75TH-Dr-Phoenix-AZ-85033/7469531_zpid/,33.4832,-112.221,6629,2018-02-24
973060,23891307,"600 N Aspen Dr, Chandler, AZ 85226 ",85226,0.03572789952158928,0.917905181646347,0.03279482410020684,223900,https://www.zillow.com/homedetails/600-N-Aspen-Dr-Chandler-AZ-85226/8262023_zpid/,33.3128,-111.945,6624,2018-02-19
415468,23882335,"10236 N 66th Dr, Glendale, AZ 85302 ",85302,0.03614206984639168,0.9072096943855286,0.03278843613980542,184000,https://www.zillow.com/homedetails/10236-N-66th-Dr-Glendale-AZ-85302/7706401_zpid/,33.5795,-112.20200000000001,6620,2018-02-15
831339,23887481,"4008 W Sierra Vista Dr, Phoenix, AZ 85019 ",85019,0.03658289276063442,0.8961460888385773,0.03278361626584364,169900,https://www.zillow.com/homedetails/4008-W-Sierra-Vista-Dr-Phoenix-AZ-85019/7762318_zpid/,33.5322,-112.145,6621,2018-02-16
559473,23891456,"1248 W 6TH Ave, Mesa, AZ 85202 ",85202,0.037532392889261246,0.8732014894485474,0.03277334137347099,169900,https://www.zillow.com/homedetails/1248-W-6th-Ave-Mesa-AZ-85202/7604264_zpid/,33.4037,-111.85799999999999,6618,2018-02-13
2066173,23881213,"17427 N 16th Ln, Phoenix, AZ 85023 ",85023,0.03711391054093838,0.8829752504825592,0.03277066445627236,210000,https://www.zillow.com/homedetails/17427-N-16th-Ln-Phoenix-AZ-85023/7958487_zpid/,33.6447,-112.095,6618,2018-02-13
9030886,23910458,"18650 N 45th Dr, Glendale, AZ 85308 ",85308,0.036494119092822075,0.897960901260376,0.032770292071294005,214900,https://www.zillow.com/homedetails/18650-N-45th-Dr-Glendale-AZ-85308/7938990_zpid/,33.6559,-112.15799999999999,6619,2018-02-14
411014,23872310,"5111 W Eugie Ave, Glendale, AZ 85304 ",85304,0.038148749619722366,0.8585290014743805,0.032751807918516396,152000,http://www.zillow.com/homedetails/5111-W-Eugie-Ave-Glendale-AZ-85304/7911637_zpid,33.6078,-112.169,6605,2018-01-31
415645,23888944,"10411 N 65TH Ln, Glendale, AZ 85302 ",85302,0.03614206984639168,0.9059582948684692,0.03274320797105412,184900,https://www.zillow.com/homedetails/10411-N-65TH-Ln-Glendale-AZ-85302/7706471_zpid/,33.5809,-112.199,6623,2018-02-18
1933748,23915060,"7145 W Mulberry Dr, Phoenix, AZ 85033 ",85033,0.03614206984639168,0.9059140980243683,0.032741610605627636,185000,https://www.zillow.com/homedetails/7145-W-Mulberry-Dr-Phoenix-AZ-85033/7485834_zpid/,33.4866,-112.214,6628,2018-02-23
832421,23937817,"4207 W Keim Dr, Phoenix, AZ 85019 ",85019,0.03639795631170273,0.8995241820812225,0.03274084188071247,195000,https://www.zillow.com/homedetails/4207-W-Keim-Dr-Phoenix-AZ-85019/7760485_zpid/,33.5268,-112.149,6634,2018-03-01
500715,23888248,"7341 W Cypress St, Phoenix, AZ 85035 ",85035,0.03632700629532337,0.9012258350849152,0.032738836584637776,172000,https://www.zillow.com/homedetails/7341-W-Cypress-St-Phoenix-AZ-85035/7474860_zpid/,33.472,-112.21799999999999,6622,2018-02-17
9024754,23889061,"2007 N 70th Dr, Phoenix, AZ 85035 ",85035,0.03632700629532337,0.9011686444282532,0.03273675901929318,159000,https://www.zillow.com/homedetails/2007-N-70th-Dr-Phoenix-AZ-85035/92350230_zpid/,33.4701,-112.211,6622,2018-02-17
9029943,23905404,"6848 W Mission Ln, Peoria, AZ 85345 ",85345,0.03632700629532337,0.901143491268158,0.032735845280288056,164900,https://www.zillow.com/homedetails/6848-W-Mission-Ln-Peoria-AZ-85345/7702926_zpid/,33.5695,-112.20700000000001,6611,2018-02-06
466605,23890675,"3025 W Camelback Rd, Phoenix, AZ 85017 ",85017,0.0383783895522356,0.8528560996055603,0.03273124362266244,175000,https://www.zillow.com/homedetails/3025-W-Camelback-Rd-Phoenix-AZ-85017/7766253_zpid/,33.5091,-112.124,6625,2018-02-20
382603,23869310,"12646 N 38TH Ave, Phoenix, AZ 85029 ",85029,0.0383783895522356,0.8526095151901245,0.03272178010990934,125000,https://www.zillow.com/homedetails/12646-N-38th-Ave-Phoenix-AZ-85029/7742797_zpid/,33.601,-112.14,6591,2018-01-17
460994,23890564,"2924 N 53RD Pkwy, Phoenix, AZ 85031 ",85031,0.036355484277009964,0.8997933268547058,0.032712422147024744,174500,https://www.zillow.com/homedetails/2924-N-53RD-Pkwy-Phoenix-AZ-85031/7497218_zpid/,33.4826,-112.176,6626,2018-02-21
234953,23882081,"2813 W Port Royale Ln, Phoenix, AZ 85053 ",85053,0.03731359727680683,0.8766691386699677,0.032711679185336295,170000,https://www.zillow.com/homedetails/2813-W-Port-Royale-Ln-Phoenix-AZ-85053/7953014_zpid/,33.6215,-112.119,6611,2018-02-06
9033207,23929338,"4911 W Beverly Ln, Glendale, AZ 85306 ",85306,0.036494119092822075,0.8963184654712677,0.032710352824003974,214900,https://www.zillow.com/homedetails/4911-W-Beverly-Ln-Glendale-AZ-85306/7950888_zpid/,33.6329,-112.165,6630,2018-02-25
9029901,23905267,"7329 W Peoria Ave, Peoria, AZ 85345 ",85345,0.03614206984639168,0.9048466086387634,0.03270302932969282,192000,https://www.zillow.com/homedetails/7329-W-Peoria-Ave-Peoria-AZ-85345/7705949_zpid/,33.5815,-112.21700000000001,6621,2018-02-16
451876,23881479,"8821 W Columbus Ave, Phoenix, AZ 85037 ",85037,0.03632700629532337,0.9002054333686829,0.032701768445068446,174000,https://www.zillow.com/homedetails/8821-W-Columbus-Ave-Phoenix-AZ-85037/7470735_zpid/,33.4888,-112.249,6620,2018-02-15
832462,23892108,"4208 W Palo Verde Dr, Phoenix, AZ 85019 ",85019,0.03658289276063442,0.8938103914260864,0.032698169697881196,179000,https://www.zillow.com/homedetails/4208-W-Palo-Verde-Dr-Phoenix-AZ-85019/7718993_zpid/,33.5233,-112.149,6627,2018-02-22
452001,23881474,"8826 W Wilshire Dr, Phoenix, AZ 85037 ",85037,0.03614206984639168,0.9044150412082672,0.0326874315894764,187000,https://www.zillow.com/homedetails/8826-W-Wilshire-Dr-Phoenix-AZ-85037/7473924_zpid/,33.475,-112.25,6620,2018-02-15
440692,23880113,"2509 N 90th Ln, Phoenix, AZ 85037 ",85037,0.03614206984639168,0.9041016697883606,0.03267610569773027,205000,https://www.zillow.com/homedetails/2509-N-90th-Ln-Phoenix-AZ-85037/7473832_zpid/,33.4751,-112.25399999999999,6620,2018-02-15
9015636,23887124,"7118 W Sells Dr, Phoenix, AZ 85033 ",85033,0.03632700629532337,0.8994291424751282,0.03267356812089128,175000,https://www.zillow.com/homedetails/7118-W-Sells-Dr-Phoenix-AZ-85033/88889219_zpid/,33.5022,-112.213,6620,2018-02-15
5231985,23914892,"4221 N 79TH Dr, Phoenix, AZ 85033 ",85033,0.03614206984639168,0.9038792848587036,0.032668068246069826,183000,https://www.zillow.com/homedetails/4221-N-79TH-Dr-Phoenix-AZ-85033/7481959_zpid/,33.4971,-112.229,6630,2018-02-25
425872,23889873,"4041 N 80TH Dr, Phoenix, AZ 85033 ",85033,0.03632700629532337,0.8992285132408142,0.032666279861433334,180000,https://www.zillow.com/homedetails/4041-N-80TH-Dr-Phoenix-AZ-85033/7478679_zpid/,33.4931,-112.23200000000001,6625,2018-02-20
9029981,23905553,"7307 W Sunnyslope Ln, Peoria, AZ 85345 ",85345,0.03614206984639168,0.903462827205658,0.032653016604485385,205000,https://www.zillow.com/homedetails/7307-W-Sunnyslope-Ln-Peoria-AZ-85345/7702241_zpid/,33.5705,-112.21600000000001,6612,2018-02-07
384648,23937758,"3501 W Belmont Ave, Phoenix, AZ 85051 ",85051,0.03658289276063442,0.892539381980896,0.03265167249565004,159900,https://www.zillow.com/homedetails/3501-W-Belmont-Ave-Phoenix-AZ-85051/7755842_zpid/,33.5485,-112.135,6635,2018-03-02
391862,23884713,"4128 W Solar Dr, Phoenix, AZ 85051 ",85051,0.03639795631170273,0.896881103515625,0.03264463922255345,195000,https://www.zillow.com/homedetails/4128-W-Solar-Dr-Phoenix-AZ-85051/7756636_zpid/,33.54,-112.148,6612,2018-02-07
448444,23877867,"8407 W Roma Ave, Phoenix, AZ 85037 ",85037,0.03632700629532337,0.8985077738761902,0.03264009755799735,150000,https://www.zillow.com/homedetails/8407-W-Roma-Ave-Phoenix-AZ-85037/7466939_zpid/,33.4999,-112.24,6618,2018-02-13
9029087,23901717,"6915 W Jenan Dr, Peoria, AZ 85345 ",85345,0.03614206984639168,0.9029983580112457,0.03263622972641944,203000,https://www.zillow.com/homedetails/6915-W-Jenan-Dr-Peoria-AZ-85345/7699796_zpid/,33.5918,-112.208,6620,2018-02-15
9027856,23897088,"3019 W Elm St, Phoenix, AZ 85017 ",85017,0.03817870281636715,0.8546384274959564,0.03262898653881546,210000,https://www.zillow.com/homedetails/3019-W-Elm-St-Phoenix-AZ-85017/7766171_zpid/,33.5069,-112.125,6624,2018-02-19
9029927,23905344,"11212 N 76th Dr, Peoria, AZ 85345 ",85345,0.03632700629532337,0.8981808423995972,0.032628221116189016,180000,https://www.zillow.com/homedetails/11212-N-76th-Dr-Peoria-AZ-85345/7681911_zpid/,33.5861,-112.22399999999999,6620,2018-02-15
9024363,23888231,"3147 N 77TH Ln, Phoenix, AZ 85033 ",85033,0.03614206984639168,0.9027667343616486,0.032627858368297624,197900,https://www.zillow.com/homedetails/3147-N-77TH-Ln-Phoenix-AZ-85033/7469330_zpid/,33.4853,-112.226,6621,2018-02-16
830424,23884627,"3812 W Lamar Rd, Phoenix, AZ 85019 ",85019,0.03639795631170273,0.8963600993156433,0.032625675734444304,204000,https://www.zillow.com/homedetails/3812-W-Lamar-Rd-Phoenix-AZ-85019/7758401_zpid/,33.5365,-112.141,6615,2018-02-10
561461,23912399,"1056 W Frito Ave, Mesa, AZ 85210 ",85210,0.03711391054093838,0.8790309429168701,0.03262427577813343,199900,https://www.zillow.com/homedetails/1056-W-Frito-Ave-Mesa-AZ-85210/7598718_zpid/,33.3955,-111.855,6638,2018-03-05
500170,23877836,"7149 W Palm Ln, Phoenix, AZ 85035 ",85035,0.03632700629532337,0.8980181217193604,0.032622309961013674,149888,https://www.zillow.com/homedetails/7149-W-Palm-Ln-Phoenix-AZ-85035/7475358_zpid/,33.4689,-112.214,6611,2018-02-06
1343338,23888952,"4533 W Mclellan Rd, Glendale, AZ 85301 ",85301,0.036355484277009964,0.8972128629684448,0.03261860813278039,120000,https://www.zillow.com/homedetails/4533-W-Mclellan-Rd-Glendale-AZ-85301/7723561_zpid/,33.5322,-112.15700000000001,6623,2018-02-18
1111311,23885718,"1319 W Straford Dr, Chandler, AZ 85224 ",85224,0.03556019254028797,0.9172638952732086,0.03261808072616984,209000,https://www.zillow.com/homedetails/1319-W-Straford-Dr-Chandler-AZ-85224/8172355_zpid/,33.353,-111.865,6618,2018-02-13
225985,23915214,"1505 E Taro Ln, Phoenix, AZ 85024 ",85024,0.03708651103079319,0.8792277872562408,0.032607491030658464,200000,https://www.zillow.com/homedetails/1505-E-Taro-Ln-Phoenix-AZ-85024/7995787_zpid/,33.6591,-112.04899999999999,6638,2018-03-05
7977745,23866230,"19033 N 45TH Dr, Glendale, AZ 85308 ",85308,0.03789366036653519,0.8603799343109131,0.032602945016959595,159000,https://www.zillow.com/homedetails/19033-N-45th-Dr-Glendale-AZ-85308/7939041_zpid/,33.6593,-112.15799999999999,6583,2018-01-09
222384,23888203,"1010 W Anderson Dr, Phoenix, AZ 85023 ",85023,0.03711391054093838,0.8784486055374146,0.03260266296072767,200000,https://www.zillow.com/homedetails/1010-W-Anderson-Dr-Phoenix-AZ-85023/7963547_zpid/,33.6432,-112.087,6621,2018-02-16
9030853,23909955,"3402 W Phelps Rd, Phoenix, AZ 85053 ",85053,0.036945439875125885,0.8824154436588287,0.03260122671857979,217900,https://www.zillow.com/homedetails/3402-W-Phelps-Rd-Phoenix-AZ-85053/7953388_zpid/,33.6382,-112.133,6618,2018-02-13
421866,23919982,"6425 W Hatcher Rd, Glendale, AZ 85302 ",85302,0.03614206984639168,0.9019949734210968,0.032599965330479486,194900,https://www.zillow.com/homedetails/6425-W-Hatcher-Rd-Glendale-AZ-85302/7703488_zpid/,33.5711,-112.198,6629,2018-02-24
446948,23914963,"4832 N 84TH Dr, Phoenix, AZ 85037 ",85037,0.03632700629532337,0.8973813354969025,0.03259917742390167,155000,https://www.zillow.com/homedetails/4832-N-84TH-Dr-Phoenix-AZ-85037/7481144_zpid/,33.508,-112.241,6633,2018-02-28
389802,23882092,"2715 W Mercer Ln, Phoenix, AZ 85029 ",85029,0.03731359727680683,0.8732283711433411,0.032583291771524636,169900,https://www.zillow.com/homedetails/2715-W-Mercer-Ln-Phoenix-AZ-85029/7740252_zpid/,33.5851,-112.12100000000001,6618,2018-02-13
9027451,23904608,"6826 W Carol Ave, Peoria, AZ 85345 ",85345,0.03632700629532337,0.8966550230979919,0.03257279266881408,155000,https://www.zillow.com/homedetails/6826-W-Carol-Ave-Peoria-AZ-85345/7702635_zpid/,33.5711,-112.206,6625,2018-02-20
836505,23888930,"4146 W Citrus Way, Phoenix, AZ 85019 ",85019,0.036355484277009964,0.8958239853382111,0.03256811481393174,175000,https://www.zillow.com/homedetails/4146-W-Citrus-Way-Phoenix-AZ-85019/7762092_zpid/,33.5299,-112.149,6623,2018-02-18
469841,23892079,"3348 W Sells Dr, Phoenix, AZ 85017 ",85017,0.038148749619722366,0.85366091132164,0.03256609636615326,179500,https://www.zillow.com/homedetails/3348-W-Sells-Dr-Phoenix-AZ-85017/7768184_zpid/,33.5017,-112.132,6627,2018-02-22
1411973,23883269,"7202 W Tuckey Ln, Glendale, AZ 85303 ",85303,0.03632700629532337,0.8960235118865967,0.032549851757062154,159900,https://www.zillow.com/homedetails/7202-W-Tuckey-Ln-Glendale-AZ-85303/7706850_zpid/,33.5332,-112.214,6613,2018-02-08
9030901,23910682,"3826 W Villa Rita Dr, Glendale, AZ 85308 ",85308,0.036494119092822075,0.8918119966983795,0.03254589321591811,227500,https://www.zillow.com/homedetails/3826-W-Villa-Rita-Dr-Glendale-AZ-85308/7948155_zpid/,33.6505,-112.14200000000001,6615,2018-02-10
382333,23881929,"12615 N 20th Dr, Phoenix, AZ 85029 ",85029,0.03711391054093838,0.8768546283245087,0.032543504233043585,199900,https://www.zillow.com/homedetails/12615-N-20th-Dr-Phoenix-AZ-85029/7738832_zpid/,33.6009,-112.103,6613,2018-02-08
244592,23872363,"1941 W Faria Ln, Phoenix, AZ 85023 ",85023,0.03711391054093838,0.8768021464347839,0.03254155642488332,194000,https://www.zillow.com/homedetails/1941-W-Faria-Ln-Phoenix-AZ-85023/81954546_zpid/,33.6312,-112.101,6605,2018-01-31
9029979,23905545,"6851 W Jenan Dr, Peoria, AZ 85345 ",85345,0.03614206984639168,0.9003263115882874,0.03253965643796808,194900,https://www.zillow.com/homedetails/6851-W-Jenan-Dr-Peoria-AZ-85345/7699802_zpid/,33.5918,-112.20700000000001,6612,2018-02-07
335006,23888936,"6615 N 19th Dr, Phoenix, AZ 85015 ",85015,0.03711391054093838,0.8764777183532715,0.0325295156300891,189500,https://www.zillow.com/homedetails/6615-N-19th-Dr-Phoenix-AZ-85015/7773425_zpid/,33.533,-112.1,6623,2018-02-18
379241,23881909,"11231 N 41st Dr, Phoenix, AZ 85029 ",85029,0.036731619387865067,0.8855061531066895,0.032526074981527486,229000,https://www.zillow.com/homedetails/11231-N-41st-Dr-Phoenix-AZ-85029/7744666_zpid/,33.5889,-112.148,6614,2018-02-09
836554,23888931,"4243 W Marlette Ave, Phoenix, AZ 85019 ",85019,0.036355484277009964,0.8946331739425659,0.032524822288960475,164900,https://www.zillow.com/homedetails/4243-W-Marlette-Ave-Phoenix-AZ-85019/7762056_zpid/,33.5288,-112.15100000000001,6622,2018-02-17
17711,23887053,"5008 W Wikieup Ln, Glendale, AZ 85308 ",85308,0.036494119092822075,0.8912011086940765,0.0325235993963367,229000,https://www.zillow.com/homedetails/5008-W-Wikieup-Ln-Glendale-AZ-85308/7938109_zpid/,33.6638,-112.16799999999999,6585,2018-01-11
215095,23886638,"1349 E Shangri La Rd, Phoenix, AZ 85020 ",85020,0.037532392889261246,0.866488128900528,0.03252137288777546,172900,https://www.zillow.com/homedetails/1349-E-Shangri-La-Rd-Phoenix-AZ-85020/71327020_zpid/,33.5876,-112.052,6618,2018-02-13
9032281,23920178,"7006 W Kings Ave, Peoria, AZ 85382 ",85382,0.035347891971468925,0.9199067056179047,0.03251676285401156,225000,https://www.zillow.com/homedetails/7006-W-Kings-Ave-Peoria-AZ-85382/7903074_zpid/,33.6345,-112.21,6639,2018-03-06
398546,23892073,"8837 N 37TH Ave, Phoenix, AZ 85051 ",85051,0.036731619387865067,0.8852439224720001,0.03251644282566224,218000,https://www.zillow.com/homedetails/8837-N-37TH-Ave-Phoenix-AZ-85051/7754084_zpid/,33.5666,-112.139,6627,2018-02-22
9031633,23915091,"7755 W Heatherbrae Dr, Phoenix, AZ 85033 ",85033,0.03614206984639168,0.8996560871601105,0.03251543313987215,189900,https://www.zillow.com/homedetails/7755-W-Heatherbrae-Dr-Phoenix-AZ-85033/7467562_zpid/,33.497,-112.228,6634,2018-03-01
650458,23872026,"2419 W Naranja Ave, Mesa, AZ 85202 ",85202,0.03595411963760853,0.9043509662151337,0.032515142833685784,218000,https://www.zillow.com/homedetails/2419-W-Naranja-Ave-Mesa-AZ-85202/8251330_zpid/,33.3643,-111.88600000000001,6603,2018-01-29
9030770,23911360,"5539 W Libby St, Glendale, AZ 85308 ",85308,0.036494119092822075,0.8907139301300049,0.0325058202438,225000,https://www.zillow.com/homedetails/5539-W-Libby-St-Glendale-AZ-85308/7900795_zpid/,33.6479,-112.179,6620,2018-02-15
233458,23864530,"18230 N 33RD Ave, Phoenix, AZ 85053 ",85053,0.03789366036653519,0.8577682077884674,0.032503977139147766,179900,https://www.zillow.com/homedetails/18230-N-33rd-Ave-Phoenix-AZ-85053/7941211_zpid/,33.652,-112.13,6584,2018-01-10
416989,23882373,"4638 W Lawrence Ln, Glendale, AZ 85302 ",85302,0.036945439875125885,0.8797565698623657,0.03250299345659702,229500,https://www.zillow.com/homedetails/4638-W-Lawrence-Ln-Glendale-AZ-85302/7731326_zpid/,33.5643,-112.15899999999999,6611,2018-02-06
9026853,23923313,"9920 W Cameo Dr, Sun City, AZ 85351 ",85351,0.03610287792980671,0.9002026319503784,0.03249990573339523,149900,https://www.zillow.com/homedetails/9920-W-Cameo-Dr-Sun-City-AZ-85351/7907926_zpid/,33.6129,-112.26899999999999,6632,2018-02-27
461084,23877712,"2937 N 55th Ave, Phoenix, AZ 85031 ",85031,0.036355484277009964,0.8939370512962341,0.03249951441303689,165000,https://www.zillow.com/homedetails/2937-N-55th-Ave-Phoenix-AZ-85031/7497240_zpid/,33.4819,-112.178,6612,2018-02-07
1410883,23888985,"7120 W Sierra Vista Dr, Glendale, AZ 85303 ",85303,0.03614206984639168,0.8991890549659729,0.03249855362969112,182000,https://www.zillow.com/homedetails/7120-W-Sierra-Vista-Dr-Glendale-AZ-85303/7706907_zpid/,33.5318,-112.213,6622,2018-02-17
9030451,23907844,"2522 N 60th Dr, Phoenix, AZ 85035 ",85035,0.03632700629532337,0.8945649266242981,0.03249686572105637,165500,https://www.zillow.com/homedetails/2522-N-60th-Dr-Phoenix-AZ-85035/2091236966_zpid/,33.4755,-112.189,6619,2018-02-14
526499,23877916,"9407 W Virginia Ave, Phoenix, AZ 85037 ",85037,0.03632700629532337,0.8943949937820435,0.032490692569626,172000,https://www.zillow.com/homedetails/9407-W-Virginia-Ave-Phoenix-AZ-85037/62727181_zpid/,33.476,-112.26100000000001,6615,2018-02-10
528117,23877942,"9562 W Monte Vista Rd, Phoenix, AZ 85037 ",85037,0.03614206984639168,0.8989623486995697,0.03249035999597616,209900,https://www.zillow.com/homedetails/9562-W-Monte-Vista-Rd-Phoenix-AZ-85037/60975006_zpid/,33.4704,-112.26700000000001,6617,2018-02-12
460843,23890927,"2901 N 55TH Ave, Phoenix, AZ 85031 ",85031,0.036355484277009964,0.893403559923172,0.03248011907581161,159000,https://www.zillow.com/homedetails/2901-N-55th-Ave-Phoenix-AZ-85031/7497233_zpid/,33.4808,-112.178,6621,2018-02-16
503933,23877682,"2048 N 74th Ln, Phoenix, AZ 85035 ",85035,0.03614206984639168,0.8986302614212036,0.032478357674366354,184000,https://www.zillow.com/homedetails/2048-N-74th-Ln-Phoenix-AZ-85035/7474844_zpid/,33.4711,-112.22,6615,2018-02-10
9025883,23888696,"7436 W Beryl Ave, Peoria, AZ 85345 ",85345,0.03614206984639168,0.8986210525035858,0.0324780248450226,189900,https://www.zillow.com/homedetails/7436-W-Beryl-Ave-Peoria-AZ-85345/7705847_zpid/,33.5785,-112.219,6620,2018-02-15
1406510,23868833,"6760 N 77th Ave, Glendale, AZ 85303 ",85303,0.03614206984639168,0.8985605835914612,0.03247583937337706,195000,https://www.zillow.com/homedetails/6760-N-77th-Ave-Glendale-AZ-85303/7463200_zpid/,33.5359,-112.225,6593,2018-01-19
459358,23891941,"5643 W Earll Dr, Phoenix, AZ 85031 ",85031,0.036355484277009964,0.8931909799575806,0.03247239062821494,175900,https://www.zillow.com/homedetails/5643-W-Earll-Dr-Phoenix-AZ-85031/7497770_zpid/,33.4843,-112.182,6627,2018-02-22
497626,23889892,"6811 W Encanto Blvd, Phoenix, AZ 85035 ",85035,0.03614206984639168,0.8983220458030701,0.03246721812396802,189900,https://www.zillow.com/homedetails/6811-W-Encanto-Blvd-Phoenix-AZ-85035/7475710_zpid/,33.4732,-112.206,6625,2018-02-20
1413599,23870195,"7315 W Midway Ave, Glendale, AZ 85303 ",85303,0.03614206984639168,0.8982758522033691,0.032465548591661175,203000,https://www.zillow.com/homedetails/7315-W-Midway-Ave-Glendale-AZ-85303/95160837_zpid/,33.541,-112.21600000000001,6597,2018-01-23
429236,23891937,"6338 W Verde Ln, Phoenix, AZ 85033 ",85033,0.03632700629532337,0.893635481595993,0.03246310176566197,159900,https://www.zillow.com/homedetails/6338-W-Verde-Ln-Phoenix-AZ-85033/7498713_zpid/,33.4819,-112.197,6627,2018-02-22
1126602,23890192,"2807 N Central Dr, Chandler, AZ 85224 ",85224,0.035745128989219666,0.9080969989299774,0.032460044361475315,180000,https://www.zillow.com/homedetails/2807-N-Central-Dr-Chandler-AZ-85224/8199127_zpid/,33.3475,-111.866,6625,2018-02-20
42458,23891642,"6830 W Garfield St, Phoenix, AZ 85043 ",85043,0.03614206984639168,0.8981173932552338,0.03245982155728988,199900,https://www.zillow.com/homedetails/6830-W-Garfield-St-Phoenix-AZ-85043/7476107_zpid/,33.4575,-112.20700000000001,6626,2018-02-21
498525,23890285,"6931 W Lewis Ave, Phoenix, AZ 85035 ",85035,0.03632700629532337,0.8935202360153198,0.03245891523872735,169888,https://www.zillow.com/homedetails/6931-W-Lewis-Ave-Phoenix-AZ-85035/7475491_zpid/,33.475,-112.209,6626,2018-02-21
7442560,23888689,"7114 W Cochise Dr, Peoria, AZ 85345 ",85345,0.03614206984639168,0.8980178534984589,0.03245622398444803,185000,https://www.zillow.com/homedetails/7114-W-Cochise-Dr-Peoria-AZ-85345/7701382_zpid/,33.58,-112.212,6621,2018-02-16
9030966,23911166,"17602 N 55th Ave, Glendale, AZ 85308 ",85308,0.036494119092822075,0.8893075287342072,0.032454494863769445,220000,https://www.zillow.com/homedetails/17602-N-55th-Ave-Glendale-AZ-85308/8099767_zpid/,33.6454,-112.178,6619,2018-02-14
8975236,23887133,"3643 N 73rd Ave, Phoenix, AZ 85033 ",85033,0.03614206984639168,0.8979616463184357,0.03245419254062176,184000,https://www.zillow.com/homedetails/3643-N-73rd-Ave-Phoenix-AZ-85033/7468824_zpid/,33.4911,-112.21600000000001,6621,2018-02-16
415051,23919687,"10007 N 48TH Dr, Glendale, AZ 85302 ",85302,0.036731619387865067,0.8835180401802063,0.03245304837421181,233000,https://www.zillow.com/homedetails/10007-N-48TH-Dr-Glendale-AZ-85302/7728794_zpid/,33.5766,-112.162,6630,2018-02-25
9025669,23888926,"3607 W Mclellan Blvd, Phoenix, AZ 85019 ",85019,0.03658289276063442,0.8870774209499359,0.032451858160991665,174000,https://www.zillow.com/homedetails/3607-W-Mclellan-Blvd-Phoenix-AZ-85019/7761699_zpid/,33.5325,-112.137,6617,2018-02-12
436257,23914816,"2352 N 84TH Dr, Phoenix, AZ 85037 ",85037,0.03508073836565018,0.924985945224762,0.0324491899363335,190000,https://www.zillow.com/homedetails/2352-N-84TH-Dr-Phoenix-AZ-85037/82818698_zpid/,33.4735,-112.241,6640,2018-03-07
9032611,23923305,"9319 W Arrowhead Dr, Sun City, AZ 85351 ",85351,0.03610287792980671,0.8987844586372375,0.032448705595387595,163000,https://www.zillow.com/homedetails/9319-W-Arrowhead-Dr-Sun-City-AZ-85351/7908165_zpid/,33.6099,-112.26,6638,2018-03-05
398369,23882281,"8814 N 29th Ave, Phoenix, AZ 85051 ",85051,0.03731359727680683,0.8695999085903168,0.03244790078108711,175000,https://www.zillow.com/homedetails/8814-N-29th-Ave-Phoenix-AZ-85051/7750545_zpid/,33.5663,-112.12100000000001,6614,2018-02-09
460884,23891543,"2908 N 53RD Pkwy, Phoenix, AZ 85031 ",85031,0.036355484277009964,0.8923056721687317,0.03244020483481713,171900,https://www.zillow.com/homedetails/2908-N-53rd-Pkwy-Phoenix-AZ-85031/7497221_zpid/,33.4825,-112.177,6621,2018-02-16
448574,23887126,"8418 W Fairmount Ave, Phoenix, AZ 85037 ",85037,0.03632700629532337,0.8928895890712738,0.03243600572322086,159996,https://www.zillow.com/homedetails/8418-W-Fairmount-Ave-Phoenix-AZ-85037/7470147_zpid/,33.4902,-112.24,6621,2018-02-16
350177,22541766,"6408 W Cordes Rd, Phoenix, AZ 85043 ",85043,0.03632700629532337,0.8928324282169342,0.03243392924050542,169900,https://www.zillow.com/homedetails/6408-W-Cordes-Rd-Phoenix-AZ-85043/49641248_zpid/,33.4216,-112.197,6442,2017-08-21
233032,23915285,"18202 N 29TH Ave, Phoenix, AZ 85053 ",85053,0.03618647903203964,0.8961909413337708,0.032429994707278365,209900,https://www.zillow.com/homedetails/18202-N-29TH-Ave-Phoenix-AZ-85053/7941101_zpid/,33.6512,-112.12100000000001,6641,2018-03-08
623384,23877222,"1441 S Revere, Mesa, AZ 85210 ",85210,0.03731359727680683,0.8689667880535126,0.032424276776349126,175000,https://www.zillow.com/homedetails/1441-S-Revere-Mesa-AZ-85210/7599342_zpid/,33.3886,-111.84700000000001,6618,2018-02-13
9027861,23897094,"4110 W Morten Ave, Phoenix, AZ 85051 ",85051,0.03639795631170273,0.8908225893974304,0.03242412169036557,189900,https://www.zillow.com/homedetails/4110-W-Morten-Ave-Phoenix-AZ-85051/7758065_zpid/,33.5482,-112.147,6623,2018-02-18
637717,23877260,"1942 W Portobello Ave, Mesa, AZ 85202 ",85202,0.03595411963760853,0.9017609059810638,0.032422019498161425,232500,https://www.zillow.com/homedetails/1942-W-Portobello-Ave-Mesa-AZ-85202/8191364_zpid/,33.3598,-111.876,6617,2018-02-12
40028,23875647,"2304 S 66TH Ln, Phoenix, AZ 85043 ",85043,0.03493845835328102,0.9278651177883148,0.032418176775309226,219900,https://www.zillow.com/homedetails/2304-S-66TH-Ln-Phoenix-AZ-85043/67773205_zpid/,33.427,-112.204,6617,2018-02-12
9027670,23896482,"6826 W Mariposa St, Phoenix, AZ 85033 ",85033,0.03614206984639168,0.8969645202159882,0.032418154339381444,194700,https://www.zillow.com/homedetails/6826-W-Mariposa-St-Phoenix-AZ-85033/7716575_zpid/,33.5084,-112.206,6624,2018-02-19
411754,23882433,"5264 W Lupine Ave, Glendale, AZ 85304 ",85304,0.036731619387865067,0.8825367987155914,0.03241700578620599,230000,https://www.zillow.com/homedetails/5264-W-Lupine-Ave-Glendale-AZ-85304/7737198_zpid/,33.5901,-112.17299999999999,6619,2018-02-14
9029692,23904310,"3614 N 64TH Dr, Phoenix, AZ 85033 ",85033,0.03610287792980671,0.8977761566638947,0.03241230299232761,159000,https://www.zillow.com/homedetails/3614-N-64TH-Dr-Phoenix-AZ-85033/7489243_zpid/,33.4902,-112.199,6622,2018-02-17
483392,23890915,"2628 N 65TH Dr, Phoenix, AZ 85035 ",85035,0.03632700629532337,0.8922300040721893,0.03241204497480682,149000,https://www.zillow.com/homedetails/2628-N-65th-Dr-Phoenix-AZ-85035/7490214_zpid/,33.4776,-112.2,6626,2018-02-21
9006368,23879941,"4701 N 79TH Dr, Phoenix, AZ 85033 ",85033,0.03614206984639168,0.8965604603290558,0.03240355077872581,187499,https://www.zillow.com/homedetails/4701-N-79TH-Dr-Phoenix-AZ-85033/82779611_zpid/,33.5056,-112.229,6614,2018-02-09
441758,23877763,"3636 N 86th Ln, Phoenix, AZ 85037 ",85037,0.03614206984639168,0.8965216279029846,0.03240214729447044,189800,https://www.zillow.com/homedetails/3636-N-86th-Ln-Phoenix-AZ-85037/7469813_zpid/,33.4903,-112.24600000000001,6618,2018-02-13
9031713,23915791,"4130 W Muriel Dr, Glendale, AZ 85308 ",85308,0.03524735476821661,0.9189933836460114,0.032392085823014755,240000,https://www.zillow.com/homedetails/4130-W-Muriel-Dr-Glendale-AZ-85308/7947225_zpid/,33.6458,-112.149,6636,2018-03-03
487489,23914899,"5021 W Cambridge Ave, Phoenix, AZ 85035 ",85035,0.036355484277009964,0.89096400141716,0.032391427744903445,175000,https://www.zillow.com/homedetails/5021-W-Cambridge-Ave-Phoenix-AZ-85035/7494009_zpid/,33.477,-112.166,6637,2018-03-04
457639,23877822,"5138 W Avalon Dr, Phoenix, AZ 85031 ",85031,0.03617054782807827,0.8955002725124359,0.03239073543696819,187500,https://www.zillow.com/homedetails/5138-W-Avalon-Dr-Phoenix-AZ-85031/7497418_zpid/,33.4836,-112.171,6619,2018-02-14
15301,23888262,"9312 W Madison St, Tolleson, AZ 85353 ",85353,0.03610287792980671,0.8970893621444702,0.03238750773362997,164900,https://www.zillow.com/homedetails/9312-W-Madison-St-Tolleson-AZ-85353/7460113_zpid/,33.4457,-112.26100000000001,6622,2018-02-17
9020420,23891034,"6001 W Indianola Ave, Phoenix, AZ 85033 ",85033,0.03610287792980671,0.8966089487075806,0.032370163425962106,179500,https://www.zillow.com/homedetails/6001-W-Indianola-Ave-Phoenix-AZ-85033/7496673_zpid/,33.4922,-112.189,6617,2018-02-12
441376,23881465,"3101 N 89th Ln, Phoenix, AZ 85037 ",85037,0.03614206984639168,0.8956204652786255,0.032369577411957895,189900,https://www.zillow.com/homedetails/3101-N-89th-Ln-Phoenix-AZ-85037/7470193_zpid/,33.4843,-112.25200000000001,6619,2018-02-14
431177,23887130,"6717 W Earll Dr, Phoenix, AZ 85033 ",85033,0.03614206984639168,0.8955589234828949,0.03236735316407813,199900,https://www.zillow.com/homedetails/6717-W-Earll-Dr-Phoenix-AZ-85033/7468542_zpid/,33.4834,-112.204,6621,2018-02-16
400956,23882343,"11016 N 47TH Dr, Glendale, AZ 85304 ",85304,0.036731619387865067,0.8811178803443909,0.0323648866166526,224900,https://www.zillow.com/homedetails/11016-N-47TH-Dr-Glendale-AZ-85304/7728073_zpid/,33.5862,-112.161,6618,2018-02-13
388744,23874159,"3835 W Camino Acequia, Phoenix, AZ 85051 ",85051,0.036731619387865067,0.8809942305088043,0.03236034475795446,229900,https://www.zillow.com/homedetails/3835-W-Camino-Acequia-Phoenix-AZ-85051/7745922_zpid/,33.5749,-112.14200000000001,6612,2018-02-07
254023,23882202,"3843 W Country Gables Dr, Phoenix, AZ 85053 ",85053,0.036945439875125885,0.8758868277072906,0.03236002413047445,219900,https://www.zillow.com/homedetails/3843-W-Country-Gables-Dr-Phoenix-AZ-85053/7944124_zpid/,33.622,-112.141,6613,2018-02-08
9026278,23865568,"8630 W El Caminito Dr, Peoria, AZ 85345 ",85345,0.03614206984639168,0.8952680826187134,0.032356841573250694,199999,https://www.zillow.com/homedetails/8630-W-El-Caminito-Dr-Peoria-AZ-85345/50187525_zpid/,33.5576,-112.24600000000001,6585,2018-01-11
350131,22705127,"6405 W Preston Ln, Phoenix, AZ 85043 ",85043,0.03614206984639168,0.89521923661232,0.032355076177475905,187000,https://www.zillow.com/homedetails/6405-W-Preston-Ln-Phoenix-AZ-85043/55257428_zpid/,33.4235,-112.198,6474,2017-09-22
1859,23868513,"9128 W Alvarado St, Phoenix, AZ 85037 ",85037,0.03614206984639168,0.8951723873615265,0.03235338294858148,210000,https://www.zillow.com/homedetails/9128-W-Alvarado-St-Phoenix-AZ-85037/60047210_zpid/,33.4712,-112.257,6592,2018-01-18
415739,23919682,"10452 N 63RD Dr, Glendale, AZ 85302 ",85302,0.03614206984639168,0.8950982987880707,0.03235070523418482,189900,https://www.zillow.com/homedetails/10452-N-63RD-Dr-Glendale-AZ-85302/7705971_zpid/,33.5815,-112.196,6635,2018-03-02
828943,23890684,"3619 W Krall St, Phoenix, AZ 85019 ",85019,0.03658289276063442,0.8842872679233551,0.0323497862920345,179990,https://www.zillow.com/homedetails/3619-W-Krall-St-Phoenix-AZ-85019/7761766_zpid/,33.5341,-112.137,6626,2018-02-21
9028713,23900112,"3049 W Pierson St, Phoenix, AZ 85017 ",85017,0.0383783895522356,0.8427329957485199,0.03234273519935921,149500,https://www.zillow.com/homedetails/3049-W-Pierson-St-Phoenix-AZ-85017/7766197_zpid/,33.5077,-112.125,6627,2018-02-22
9021889,23886670,"2926 E Charleston Ave, Phoenix, AZ 85032 ",85032,0.037070563063025475,0.8724363446235657,0.03234170653184332,169000,https://www.zillow.com/homedetails/2926-E-Charleston-Ave-Phoenix-AZ-85032/7998861_zpid/,33.6495,-112.01899999999999,6618,2018-02-13
351243,23874592,"6540 W Gross Ave, Phoenix, AZ 85043 ",85043,0.03493845835328102,0.9255898594856262,0.032338682757857784,229900,https://www.zillow.com/homedetails/6540-W-Gross-Ave-Phoenix-AZ-85043/62727279_zpid/,33.4297,-112.20200000000001,6613,2018-02-08
1937199,23887132,"7142 W Westview Dr, Phoenix, AZ 85033 ",85033,0.03632700629532337,0.8900011777877808,0.03233107838834193,174000,https://www.zillow.com/homedetails/7142-W-Westview-Dr-Phoenix-AZ-85033/7711546_zpid/,33.4979,-112.213,6621,2018-02-16
9027479,23914308,"8015 W Yucca St, Peoria, AZ 85345 ",85345,0.03614206984639168,0.8944724500179291,0.03232808576422108,209000,https://www.zillow.com/homedetails/8015-W-Yucca-St-Peoria-AZ-85345/7681526_zpid/,33.5872,-112.23200000000001,6627,2018-02-22
409669,23882225,"4502 W Aster Dr, Glendale, AZ 85304 ",85304,0.036731619387865067,0.8795615136623383,0.03230771874805949,225000,https://www.zillow.com/homedetails/4502-W-Aster-Dr-Glendale-AZ-85304/7955253_zpid/,33.602,-112.156,6613,2018-02-08
837022,23871277,"5743 N 38th Dr, Phoenix, AZ 85019 ",85019,0.03817870281636715,0.8460793495178223,0.03230221204430617,187900,https://www.zillow.com/homedetails/5743-N-38th-Dr-Phoenix-AZ-85019/7719105_zpid/,33.5219,-112.141,6601,2018-01-27
458375,23890563,"5507 W Clarendon Ave, Phoenix, AZ 85031 ",85031,0.036355484277009964,0.8884164392948151,0.032298809890219826,149999,https://www.zillow.com/homedetails/5507-W-Clarendon-Ave-Phoenix-AZ-85031/7489682_zpid/,33.4912,-112.178,6626,2018-02-21
426202,23889384,"4309 N 82nd Dr, Phoenix, AZ 85033 ",85033,0.03614206984639168,0.8936488628387451,0.03229831961886642,189900,https://www.zillow.com/homedetails/4309-N-82nd-Dr-Phoenix-AZ-85033/2091011523_zpid/,33.4983,-112.23700000000001,6624,2018-02-19
231305,23881182,"1507 W Danbury Rd, Phoenix, AZ 85023 ",85023,0.03731359727680683,0.8655107617378235,0.03229532000222746,150000,https://www.zillow.com/homedetails/1507-W-Danbury-Rd-Phoenix-AZ-85023/7965178_zpid/,33.6414,-112.09200000000001,6615,2018-02-10
328263,23891369,"2142 W Clarendon Ave, Phoenix, AZ 85015 ",85015,0.03731359727680683,0.8654527962207794,0.03229315710026853,168500,https://www.zillow.com/homedetails/2142-W-Clarendon-Ave-Phoenix-AZ-85015/7516010_zpid/,33.4915,-112.10600000000001,6620,2018-02-15
400927,23919688,"11014 N 59TH Ln, Glendale, AZ 85304 ",85304,0.03566377330571413,0.905204713344574,0.03228301569198483,235000,https://www.zillow.com/homedetails/11014-N-59TH-Ln-Glendale-AZ-85304/7698599_zpid/,33.5861,-112.18799999999999,6634,2018-03-01
398570,23887437,"8842 N 28th Dr, Phoenix, AZ 85051 ",85051,0.03731359727680683,0.8651643693447113,0.03228239485597112,174950,https://www.zillow.com/homedetails/8842-N-28th-Dr-Phoenix-AZ-85051/7750301_zpid/,33.5671,-112.12100000000001,6621,2018-02-16
433351,23887142,"7256 W College Dr, Phoenix, AZ 85033 ",85033,0.03614206984639168,0.8931455910205841,0.03228013033366273,185000,https://www.zillow.com/homedetails/7256-W-College-Dr-Phoenix-AZ-85033/7710678_zpid/,33.5085,-112.21600000000001,6621,2018-02-16
395006,23874214,"7608 N 40th Dr, Phoenix, AZ 85051 ",85051,0.03639795631170273,0.8865378797054291,0.032268167014187776,189700,https://www.zillow.com/homedetails/7608-N-40th-Dr-Phoenix-AZ-85051/7757951_zpid/,33.5478,-112.146,6613,2018-02-08
443817,23887960,"4318 N 85TH Ave, Phoenix, AZ 85037 ",85037,0.03614206984639168,0.8927909135818481,0.03226731155689899,184900,https://www.zillow.com/homedetails/4318-N-85TH-Ave-Phoenix-AZ-85037/7466861_zpid/,33.4987,-112.243,6621,2018-02-16
835105,23884585,"3605 W San Miguel Ave, Phoenix, AZ 85019 ",85019,0.036945439875125885,0.8733459115028381,0.03226614886361512,214900,https://www.zillow.com/homedetails/3605-W-San-Miguel-Ave-Phoenix-AZ-85019/7719340_zpid/,33.5194,-112.137,6613,2018-02-08
418360,23882413,"5113 W Vogel Ave, Glendale, AZ 85302 ",85302,0.03794906288385391,0.8501746952533722,0.03226333297243156,189990,https://www.zillow.com/homedetails/5113-W-Vogel-Ave-Glendale-AZ-85302/7734511_zpid/,33.5721,-112.17200000000001,6607,2018-02-02
492244,23876132,"5649 W Wilshire Dr, Phoenix, AZ 85035 ",85035,0.03610287792980671,0.8935798704624176,0.032260804983837155,155000,https://www.zillow.com/homedetails/5649-W-Wilshire-Dr-Phoenix-AZ-85035/7492095_zpid/,33.4751,-112.182,6618,2018-02-13
832308,23877784,"4147 W Pinchot Ave, Phoenix, AZ 85019 ",85019,0.038148749619722366,0.8456498384475708,0.03226048395289505,175000,https://www.zillow.com/homedetails/4147-W-Pinchot-Ave-Phoenix-AZ-85019/7509015_zpid/,33.482,-112.149,6604,2018-01-30
8996766,23877743,"4641 N 71st Ave, Phoenix, AZ 85033 ",85033,0.03632700629532337,0.8880329430103302,0.032259578311190806,161899,https://www.zillow.com/homedetails/4641-N-71st-Ave-Phoenix-AZ-85033/7716870_zpid/,33.5051,-112.211,6612,2018-02-07
455748,23891008,"4741 N 53RD Ave, Phoenix, AZ 85031 ",85031,0.03639795631170273,0.8862186074256897,0.032256546155698285,186500,https://www.zillow.com/homedetails/4741-N-53rd-Ave-Phoenix-AZ-85031/7712648_zpid/,33.5074,-112.17299999999999,6625,2018-02-20
533863,23914781,"1318 N 41ST Ave, Phoenix, AZ 85009 ",85009,0.037221647799015045,0.86658975481987,0.03225589864014,149900,https://www.zillow.com/homedetails/1318-N-41ST-Ave-Phoenix-AZ-85009/7506476_zpid/,33.4629,-112.148,6641,2018-03-08
249467,23927324,"413 E Rimrock Dr, Phoenix, AZ 85024 ",85024,0.03572789952158928,0.9028127491474152,0.032255603188348636,222000,https://www.zillow.com/homedetails/413-E-Rimrock-Dr-Phoenix-AZ-85024/7968011_zpid/,33.6625,-112.068,6637,2018-03-04
390730,23871064,"4032 W North Ln, Phoenix, AZ 85051 ",85051,0.03794906288385391,0.8498505651950836,0.03225103254046702,183900,https://www.zillow.com/homedetails/4032-W-North-Ln-Phoenix-AZ-85051/7746045_zpid/,33.5817,-112.146,6599,2018-01-25
9024040,23873322,"2215 S 99TH Ln, Tolleson, AZ 85353 ",85353,0.03472979553043842,0.9283623993396759,0.03224183630721417,213999,https://www.zillow.com/homedetails/2215-S-99TH-Ln-Tolleson-AZ-85353/95076703_zpid/,33.4261,-112.273,6610,2018-02-05
9030374,23907450,"4818 N 71st Ave, Phoenix, AZ 85033 ",85033,0.03614206984639168,0.8919817507266998,0.032238066736471116,195000,https://www.zillow.com/homedetails/4818-N-71st-Ave-Phoenix-AZ-85033/7716543_zpid/,33.508,-112.212,6615,2018-02-10
332864,23892089,"5326 N 19TH Dr, Phoenix, AZ 85015 ",85015,0.03733270615339279,0.8635293245315552,0.03223788652757431,195000,https://www.zillow.com/homedetails/5326-N-19TH-Dr-Phoenix-AZ-85015/7765074_zpid/,33.5159,-112.102,6627,2018-02-22
241374,23867942,"3135 W Acapulco Ln, Phoenix, AZ 85053 ",85053,0.0383783895522356,0.8399248123168945,0.032234961641686155,154500,https://www.zillow.com/homedetails/3135-W-Acapulco-Ln-Phoenix-AZ-85053/7953111_zpid/,33.6236,-112.12700000000001,6591,2018-01-17
227536,23890813,"15219 N 37TH Ave, Phoenix, AZ 85053 ",85053,0.036945439875125885,0.872387707233429,0.03223074758539157,215000,https://www.zillow.com/homedetails/15219-N-37th-Ave-Phoenix-AZ-85053/7944373_zpid/,33.6242,-112.137,6620,2018-02-15
9030418,23907670,"7608 W Indianola Ave, Phoenix, AZ 85033 ",85033,0.03632700629532337,0.8871593475341797,0.03222784320282912,179900,https://www.zillow.com/homedetails/7608-W-Indianola-Ave-Phoenix-AZ-85033/7478122_zpid/,33.4928,-112.22399999999999,6618,2018-02-13
9028740,23903920,"5309 N 22nd Dr, Phoenix, AZ 85015 ",85015,0.037532392889261246,0.8585105836391449,0.032221956524733364,179900,https://www.zillow.com/homedetails/5309-N-22nd-Dr-Phoenix-AZ-85015/7764988_zpid/,33.5153,-112.10700000000001,6625,2018-02-20
379359,23879763,"11404 N 30th Ave, Phoenix, AZ 85029 ",85029,0.036731619387865067,0.8770860731601715,0.032216791809716594,210900,https://www.zillow.com/homedetails/11404-N-30th-Ave-Phoenix-AZ-85029/7739905_zpid/,33.5896,-112.124,6617,2018-02-12
7409747,23888598,"11535 N 79th Dr, Peoria, AZ 85345 ",85345,0.03614206984639168,0.891281247138977,0.03221274908687599,195000,https://www.zillow.com/homedetails/11535-N-79th-Dr-Peoria-AZ-85345/7681067_zpid/,33.59,-112.23,6617,2018-02-12
836727,23884774,"5219 N 42nd Ave, Phoenix, AZ 85019 ",85019,0.03658289276063442,0.8805334270000458,0.03221245993209659,169000,https://www.zillow.com/homedetails/5219-N-42nd-Ave-Phoenix-AZ-85019/7721590_zpid/,33.5135,-112.149,6614,2018-02-09
235711,23887043,"2881 W Muriel Dr, Phoenix, AZ 85053 ",85053,0.036157794296741486,0.8907356858253479,0.03220703770083988,222900,https://www.zillow.com/homedetails/2881-W-Muriel-Dr-Phoenix-AZ-85053/7942467_zpid/,33.646,-112.12100000000001,6613,2018-02-08
1094634,23886104,"814 W Palomino Dr, Chandler, AZ 85225 ",85225,0.03556019254028797,0.9056229293346405,0.032204125736039424,195000,https://www.zillow.com/homedetails/814-W-Palomino-Dr-Chandler-AZ-85225/8177734_zpid/,33.3408,-111.85700000000001,6616,2018-02-11
427579,23877851,"6040 W Earll Dr, Phoenix, AZ 85033 ",85033,0.03610287792980671,0.8919554054737091,0.03220215712264857,175000,https://www.zillow.com/homedetails/6040-W-Earll-Dr-Phoenix-AZ-85033/7497995_zpid/,33.484,-112.19,6616,2018-02-11
497823,23887138,"6827 W Holly St, Phoenix, AZ 85035 ",85035,0.03632700629532337,0.886450469493866,0.03220209178579603,160000,https://www.zillow.com/homedetails/6827-W-Holly-St-Phoenix-AZ-85035/7481522_zpid/,33.4707,-112.20700000000001,6621,2018-02-16
400178,23868266,"10609 N 45TH Dr, Glendale, AZ 85304 ",85304,0.03794906288385391,0.8485409021377563,0.032201332054747844,184000,https://www.zillow.com/homedetails/10609-N-45th-Dr-Glendale-AZ-85304/7727734_zpid/,33.5826,-112.156,6591,2018-01-17
384329,23890041,"13442 N 16TH Ave, Phoenix, AZ 85029 ",85029,0.03595411963760853,0.8955311477184296,0.03219803402427329,225000,https://www.zillow.com/homedetails/13442-N-16TH-Ave-Phoenix-AZ-85029/7784159_zpid/,33.6098,-112.094,6625,2018-02-20
391006,23890668,"3102 W Charter Oak Rd, Phoenix, AZ 85029 ",85029,0.036731619387865067,0.8763959407806396,0.03219144212982439,219900,https://www.zillow.com/homedetails/3102-W-Charter-Oak-Rd-Phoenix-AZ-85029/7747375_zpid/,33.5981,-112.126,6626,2018-02-21
479866,23888239,"2221 N 61st Dr, Phoenix, AZ 85035 ",85035,0.03632700629532337,0.8859451413154602,0.03218373472587788,158000,https://www.zillow.com/homedetails/2221-N-61st-Dr-Phoenix-AZ-85035/7491086_zpid/,33.472,-112.191,6622,2018-02-17
524624,23887143,"9123 W Cambridge Ave, Phoenix, AZ 85037 ",85037,0.03493845835328102,0.9210190773010254,0.03217898667485919,232000,https://www.zillow.com/homedetails/9123-W-Cambridge-Ave-Phoenix-AZ-85037/60974866_zpid/,33.4764,-112.257,6620,2018-02-15
477598,23914855,"1641 N 72ND Ln, Phoenix, AZ 85035 ",85035,0.03525587357580662,0.9126852750778198,0.0321775166726439,173000,https://www.zillow.com/homedetails/1641-N-72ND-Ln-Phoenix-AZ-85035/7475213_zpid/,33.4673,-112.215,6642,2018-03-09
9021937,23889604,"9129 W Hutton Dr, Sun City, AZ 85351 ",85351,0.03610287792980671,0.8910424709320068,0.032169197558331586,170000,https://www.zillow.com/homedetails/9129-W-Hutton-Dr-Sun-City-AZ-85351/7904717_zpid/,33.6309,-112.257,6624,2018-02-19
2798,23890560,"1801 N 66TH Ave, Phoenix, AZ 85035 ",85035,0.03632700629532337,0.8854899406433105,0.03216719864819506,150000,https://www.zillow.com/homedetails/1801-N-66TH-Ave-Phoenix-AZ-85035/7490444_zpid/,33.4678,-112.20100000000001,6626,2018-02-21
9029837,23905016,"8053 W Caron Dr, Peoria, AZ 85345 ",85345,0.03632700629532337,0.8854326903820038,0.03216511891759216,169000,https://www.zillow.com/homedetails/8053-W-Caron-Dr-Peoria-AZ-85345/50187192_zpid/,33.5672,-112.23200000000001,6583,2018-01-09
224881,23891793,"1326 W Topeka Dr, Phoenix, AZ 85027 ",85027,0.037070563063025475,0.8676027953624725,0.032162524139141724,170000,https://www.zillow.com/homedetails/1326-W-Topeka-Dr-Phoenix-AZ-85027/7971741_zpid/,33.6599,-112.089,6627,2018-02-22
9030460,23907877,"3902 W Monte Vista Rd, Phoenix, AZ 85009 ",85009,0.0383783895522356,0.8378678858280182,0.03215602011561575,175000,https://www.zillow.com/homedetails/3902-W-Monte-Vista-Rd-Phoenix-AZ-85009/7512739_zpid/,33.4718,-112.14299999999999,6617,2018-02-12
9029821,23904953,"8011 N 87th Dr, Peoria, AZ 85345 ",85345,0.03493845835328102,0.9199119806289673,0.03214030642388943,214900,https://www.zillow.com/homedetails/8011-N-87th-Dr-Peoria-AZ-85345/50187488_zpid/,33.5525,-112.24700000000001,6614,2018-02-09
9028602,23899875,"8136 W Monterey Way, Phoenix, AZ 85033 ",85033,0.03632700629532337,0.8846463263034821,0.032136552664761286,179000,https://www.zillow.com/homedetails/8136-W-Monterey-Way-Phoenix-AZ-85033/7479180_zpid/,33.4844,-112.236,6621,2018-02-16
9028425,23899113,"6937 W Ironwood Dr, Peoria, AZ 85345 ",85345,0.03614206984639168,0.8889411389827728,0.03212817273444635,187000,https://www.zillow.com/homedetails/6937-W-Ironwood-Dr-Peoria-AZ-85345/7701801_zpid/,33.5758,-112.209,6624,2018-02-19
9026714,23893368,"9931 W El Dorado Dr, Sun City, AZ 85351 ",85351,0.03610287792980671,0.8897358775138855,0.03212202577565326,140000,https://www.zillow.com/homedetails/9931-W-El-Dorado-Dr-Sun-City-AZ-85351/7694640_zpid/,33.5811,-112.274,6617,2018-02-12
9029736,23904559,"14462 N Lakeforest Dr, Sun City, AZ 85351 ",85351,0.03610287792980671,0.889562338590622,0.03211576052109061,170000,https://www.zillow.com/homedetails/14462-N-Lakeforest-Dr-Sun-City-AZ-85351/7922311_zpid/,33.6164,-112.26700000000001,6625,2018-02-20
9031613,23914878,"3312 N 61ST Ave, Phoenix, AZ 85033 ",85033,0.03610287792980671,0.8893618583679199,0.03210852260808306,178000,https://www.zillow.com/homedetails/3312-N-61ST-Ave-Phoenix-AZ-85033/7498313_zpid/,33.4852,-112.191,6628,2018-02-23
498405,23877842,"6921 W Coronado Rd, Phoenix, AZ 85035 ",85035,0.03632700629532337,0.8836445808410645,0.03210016225104173,170000,https://www.zillow.com/homedetails/6921-W-Coronado-Rd-Phoenix-AZ-85035/7481300_zpid/,33.4675,-112.208,6619,2018-02-14
9029098,23901838,"7770 W Weldon Ave, Phoenix, AZ 85033 ",85033,0.03632700629532337,0.8835698664188385,0.03209744809975518,130000,https://www.zillow.com/homedetails/7770-W-Weldon-Ave-Phoenix-AZ-85033/7478486_zpid/,33.4901,-112.227,6625,2018-02-20
9026282,23865594,"9621 N 82nd Ln, Peoria, AZ 85345 ",85345,0.03614206984639168,0.8880590200424194,0.03209629113009127,205000,https://www.zillow.com/homedetails/9621-N-82nd-Ln-Peoria-AZ-85345/67710601_zpid/,33.5723,-112.236,6585,2018-01-11
248302,23882154,"3449 W Port Au Prince Ln, Phoenix, AZ 85053 ",85053,0.0383783895522356,0.8363077342510223,0.032096144010633265,169000,https://www.zillow.com/homedetails/3449-W-Port-Au-Prince-Ln-Phoenix-AZ-85053/7943679_zpid/,33.6228,-112.133,6610,2018-02-05
227509,23882001,"15216 N 30th Dr, Phoenix, AZ 85053 ",85053,0.03817870281636715,0.8406694233417511,0.03209566808057146,205000,https://www.zillow.com/homedetails/15216-N-30th-Dr-Phoenix-AZ-85053/7952816_zpid/,33.6244,-112.124,6608,2018-02-03
1958850,23885690,"9924 W Camden Ave, Sun City, AZ 85351 ",85351,0.035917941480875015,0.8933973014354706,0.03208899199213089,200000,https://www.zillow.com/homedetails/9924-W-Camden-Ave-Sun-City-AZ-85351/7688651_zpid/,33.5766,-112.274,6616,2018-02-11
343494,23875666,"2518 S 66th Dr, Phoenix, AZ 85043 ",85043,0.03614206984639168,0.8878281712532043,0.0320879477770275,194900,https://www.zillow.com/homedetails/2518-S-66th-Dr-Phoenix-AZ-85043/67773235_zpid/,33.425,-112.20200000000001,6581,2018-01-07
259461,23881240,"19660 N 48TH Ln, Glendale, AZ 85308 ",85308,0.036494119092822075,0.8791909217834473,0.03208529820489314,215000,https://www.zillow.com/homedetails/19660-N-48TH-Ln-Glendale-AZ-85308/7937777_zpid/,33.6639,-112.165,6584,2018-01-10
9026502,23873986,"8148 W Avalon Dr, Phoenix, AZ 85033 ",85033,0.03632700629532337,0.8831915259361267,0.03208370412265793,156400,https://www.zillow.com/homedetails/8148-W-Avalon-Dr-Phoenix-AZ-85033/7479723_zpid/,33.4826,-112.235,6612,2018-02-07
1353239,23879722,"6225 W Berridge Ln, Glendale, AZ 85301 ",85301,0.035917941480875015,0.8931261599063873,0.03207925314655624,185000,https://www.zillow.com/homedetails/6225-W-Berridge-Ln-Glendale-AZ-85301/7715515_zpid/,33.5253,-112.194,6615,2018-02-10
328365,23887157,"2201 W Mitchell Dr, Phoenix, AZ 85015 ",85015,0.03711391054093838,0.8642985820770264,0.03207750025586664,199000,https://www.zillow.com/homedetails/2201-W-Mitchell-Dr-Phoenix-AZ-85015/7517303_zpid/,33.4884,-112.10600000000001,6621,2018-02-16
361198,23929894,"8529 W Hughes Dr, Tolleson, AZ 85353 ",85353,0.03383541386574507,0.9480294287204742,0.03207696807766311,239900,https://www.zillow.com/homedetails/8529-W-Hughes-Dr-Tolleson-AZ-85353/59271124_zpid/,33.4249,-112.244,6635,2018-03-02
434720,23877826,"7721 W Elm St, Phoenix, AZ 85033 ",85033,0.03632700629532337,0.8829698264598846,0.032075650444388815,155000,https://www.zillow.com/homedetails/7721-W-Elm-St-Phoenix-AZ-85033/7468201_zpid/,33.5062,-112.226,6611,2018-02-06
9025869,23913573,"11848 N 79th Dr, Peoria, AZ 85345 ",85345,0.03493845835328102,0.9179332554340363,0.032071172816073745,215000,https://www.zillow.com/homedetails/11848-N-79th-Dr-Peoria-AZ-85345/146039846_zpid/,33.5928,-112.23,6632,2018-02-27
1884777,23888714,"8606 W Vogel Ave, Peoria, AZ 85345 ",85345,0.03493845835328102,0.9177433848381042,0.03206453903016526,225000,https://www.zillow.com/homedetails/8606-W-Vogel-Ave-Peoria-AZ-85345/7697101_zpid/,33.5717,-112.245,6614,2018-02-09
9030468,23907932,"7432 W Montecito Ave, Phoenix, AZ 85033 ",85033,0.03614206984639168,0.8870839476585388,0.03206104999588777,184900,https://www.zillow.com/homedetails/7432-W-Montecito-Ave-Phoenix-AZ-85033/7711234_zpid/,33.5001,-112.22,6616,2018-02-11
476880,23886645,"1615 N 54th Ave, Phoenix, AZ 85035 ",85035,0.03639795631170273,0.8807690143585205,0.0320581921053229,184000,https://www.zillow.com/homedetails/1615-N-54th-Ave-Phoenix-AZ-85035/7493812_zpid/,33.4668,-112.176,6619,2018-02-14
1466624,23913753,"17462 N 92ND Gln, Peoria, AZ 85382 ",85382,0.03472979553043842,0.9229832887649536,0.03205502089681844,224000,https://www.zillow.com/homedetails/17462-N-92ND-Gln-Peoria-AZ-85382/95142094_zpid/,33.6425,-112.259,6638,2018-03-05
1348426,23873785,"5406 W Sands Rd, Glendale, AZ 85301 ",85301,0.03617054782807827,0.8861691355705261,0.03205322310192049,205000,https://www.zillow.com/homedetails/5406-W-Sands-Rd-Glendale-AZ-85301/7726252_zpid/,33.5525,-112.17399999999999,6607,2018-02-02
232368,23889344,"17849 N 29th Dr, Phoenix, AZ 85053 ",85053,0.036157794296741486,0.8862464129924774,0.032044715497207,215000,https://www.zillow.com/homedetails/17849-N-29th-Dr-Phoenix-AZ-85053/7940824_zpid/,33.6491,-112.12200000000001,6624,2018-02-19
8107,23887040,"4213 W Renee Dr, Glendale, AZ 85308 ",85308,0.036494119092822075,0.8776898980140686,0.03203051966469228,224900,https://www.zillow.com/homedetails/4213-W-Renee-Dr-Glendale-AZ-85308/2100694760_zpid/,33.655,-112.149,6599,2018-01-25
561282,23877184,"1050 W Farmdale Ave, Mesa, AZ 85210 ",85210,0.03711391054093838,0.8627178072929382,0.032018831521944624,195000,https://www.zillow.com/homedetails/1050-W-Farmdale-Ave-Mesa-AZ-85210/7598750_zpid/,33.3962,-111.854,6619,2018-02-14
483772,23877702,"2643 N 45TH Dr, Phoenix, AZ 85035 ",85035,0.038148749619722366,0.8391529619693756,0.032012636238818115,170000,https://www.zillow.com/homedetails/2643-N-45TH-Dr-Phoenix-AZ-85035/7499311_zpid/,33.4785,-112.15700000000001,6604,2018-01-30
9029771,23904721,"8834 W Palo Verde Ave, Peoria, AZ 85345 ",85345,0.03614206984639168,0.8857024610042572,0.032011120208736865,206000,https://www.zillow.com/homedetails/8834-W-Palo-Verde-Ave-Peoria-AZ-85345/7696466_zpid/,33.5722,-112.25,6625,2018-02-20
1357797,23883517,"7780 N 58th Dr, Glendale, AZ 85301 ",85301,0.03617054782807827,0.8849468529224396,0.03200901246893845,205000,https://www.zillow.com/homedetails/7780-N-58th-Dr-Glendale-AZ-85301/62728686_zpid/,33.5501,-112.184,6605,2018-01-31
415150,23919739,"10021 N 53RD Ave, Glendale, AZ 85302 ",85302,0.03566377330571413,0.8974538445472717,0.03200659046427551,238900,https://www.zillow.com/homedetails/10021-N-53RD-Ave-Glendale-AZ-85302/7735790_zpid/,33.5774,-112.17299999999999,6631,2018-02-26
9030447,23907817,"7253 W Wolf St, Phoenix, AZ 85033 ",85033,0.03614206984639168,0.8854705989360809,0.03200274023367411,186500,https://www.zillow.com/homedetails/7253-W-Wolf-St-Phoenix-AZ-85033/7710784_zpid/,33.5061,-112.215,6611,2018-02-06
460574,23887118,"5830 W Mackenzie Dr, Phoenix, AZ 85031 ",85031,0.03617054782807827,0.8847564160823822,0.032002124264106924,200000,https://www.zillow.com/homedetails/5830-W-Mackenzie-Dr-Phoenix-AZ-85031/7713025_zpid/,33.4974,-112.186,6621,2018-02-16
1354032,23882938,"6345 W Lawrence Rd, Glendale, AZ 85301 ",85301,0.03632700629532337,0.8809061348438263,0.03200068270606066,139500,https://www.zillow.com/homedetails/6345-W-Lawrence-Rd-Glendale-AZ-85301/7707552_zpid/,33.5357,-112.197,6603,2018-01-29
392083,23870745,"4137 W Royal Palm Rd, Phoenix, AZ 85051 ",85051,0.0383783895522356,0.8336395919322968,0.03199374500534441,180000,https://www.zillow.com/homedetails/4137-W-Royal-Palm-Rd-Phoenix-AZ-85051/7752864_zpid/,33.5554,-112.149,6599,2018-01-25
9029809,23904890,"17460 N 92ND Ave, Peoria, AZ 85382 ",85382,0.03472979553043842,0.9210816323757172,0.03198897675925111,226000,https://www.zillow.com/homedetails/17460-N-92ND-Ave-Peoria-AZ-85382/95103614_zpid/,33.6425,-112.258,6621,2018-02-16
349587,23892378,"18405 N 16TH Way, Phoenix, AZ 85022 ",85022,0.03592861536890268,0.8903078138828278,0.031987527004924715,224900,https://www.zillow.com/homedetails/18405-N-16TH-Way-Phoenix-AZ-85022/8001243_zpid/,33.6533,-112.045,6630,2018-02-25
424652,23888996,"9451 N 65th Ave, Glendale, AZ 85302 ",85302,0.03614206984639168,0.8850201070308685,0.03198645852377069,194400,https://www.zillow.com/homedetails/9451-N-65th-Ave-Glendale-AZ-85302/7703396_zpid/,33.573,-112.199,6623,2018-02-18
490685,23873517,"5511 W Windsor Ave, Phoenix, AZ 85035 ",85035,0.036355484277009964,0.8797731101512909,0.03198457747344141,169000,https://www.zillow.com/homedetails/5511-W-Windsor-Ave-Phoenix-AZ-85035/7491875_zpid/,33.4779,-112.178,6611,2018-02-06
435409,23915054,"7910 W Catalina Dr, Phoenix, AZ 85033 ",85033,0.03493845835328102,0.9153341948986053,0.031980365647798936,217000,https://www.zillow.com/homedetails/7910-W-Catalina-Dr-Phoenix-AZ-85033/7469393_zpid/,33.4815,-112.228,6629,2018-02-24
435040,23890565,"7754 W Osborn Rd, Phoenix, AZ 85033 ",85033,0.03632700629532337,0.8802064061164856,0.03197526365617753,129000,https://www.zillow.com/homedetails/7754-W-Osborn-Rd-Phoenix-AZ-85033/7478577_zpid/,33.4875,-112.227,6626,2018-02-21
1666111,23885649,"17610 N Palo Verde Dr, Sun City, AZ 85373 ",85373,0.035917941480875015,0.8901782631874084,0.031973370764712294,210000,https://www.zillow.com/homedetails/17610-N-Palo-Verde-Dr-Sun-City-AZ-85373/8095261_zpid/,33.6443,-112.273,6613,2018-02-08
625114,23886893,"2235 S Hosick, Mesa, AZ 85210 ",85210,0.035343531519174576,0.9045924246311188,0.0319714908719565,200000,https://www.zillow.com/homedetails/2235-S-Hosick-Mesa-AZ-85210/8170281_zpid/,33.3741,-111.848,6621,2018-02-16
335242,23884995,"6803 N 19TH Dr, Phoenix, AZ 85015 ",85015,0.03731359727680683,0.8567361235618591,0.03196790668707983,155000,https://www.zillow.com/homedetails/6803-N-19TH-Dr-Phoenix-AZ-85015/7773475_zpid/,33.5368,-112.1,6620,2018-02-15
460594,23877800,"5832 W Campbell Ave, Phoenix, AZ 85031 ",85031,0.03617054782807827,0.8836209177970886,0.03196105266907001,198900,https://www.zillow.com/homedetails/5832-W-Campbell-Ave-Phoenix-AZ-85031/7713282_zpid/,33.5025,-112.185,6619,2018-02-14
834579,23884564,"3531 W Lamar Rd, Phoenix, AZ 85019 ",85019,0.03639795631170273,0.877979040145874,0.03195664274582022,199900,https://www.zillow.com/homedetails/3531-W-Lamar-Rd-Phoenix-AZ-85019/7761505_zpid/,33.5361,-112.13600000000001,6619,2018-02-14
1414034,23890084,"7334 W Lamar Rd, Glendale, AZ 85303 ",85303,0.03493845835328102,0.9144139885902405,0.031948215058017704,226000,https://www.zillow.com/homedetails/7334-W-Lamar-Rd-Glendale-AZ-85303/50188064_zpid/,33.5354,-112.21799999999999,6625,2018-02-20
519544,23891946,"8906 W Cypress St, Phoenix, AZ 85037 ",85037,0.03493845835328102,0.9140473008155823,0.03193540355247415,219000,https://www.zillow.com/homedetails/8906-W-Cypress-St-Phoenix-AZ-85037/7487715_zpid/,33.4719,-112.251,6627,2018-02-22
1415136,23887527,"7425 W Ocotillo Rd, Glendale, AZ 85303 ",85303,0.03614206984639168,0.8835336863994598,0.0319327362054892,188900,https://www.zillow.com/homedetails/7425-W-Ocotillo-Rd-Glendale-AZ-85303/7706749_zpid/,33.5341,-112.219,6621,2018-02-16
222670,23871974,"1018 W Anderson Dr, Phoenix, AZ 85023 ",85023,0.03711391054093838,0.8603707551956177,0.03193172324036975,198000,https://www.zillow.com/homedetails/1018-W-Anderson-Dr-Phoenix-AZ-85023/7963545_zpid/,33.6432,-112.087,6603,2018-01-29
9023484,23885682,"9501 W Hidden Valley Cir N, Sun City, AZ 85351 ",85351,0.035917941480875015,0.8889821767807007,0.031930409803150095,186000,https://www.zillow.com/homedetails/9501-W-Hidden-Valley-Cir-N-Sun-City-AZ-85351/7904887_zpid/,33.6359,-112.264,6620,2018-02-15
392498,23882193,"4201 W Eva St, Phoenix, AZ 85051 ",85051,0.036731619387865067,0.8692693710327148,0.03192967168230254,224000,https://www.zillow.com/homedetails/4201-W-Eva-St-Phoenix-AZ-85051/7746097_zpid/,33.5694,-112.149,6612,2018-02-07
384323,23864506,"1344 W Joan De Arc Ave, Phoenix, AZ 85029 ",85029,0.03711391054093838,0.860291451215744,0.031928779959555176,210000,https://www.zillow.com/homedetails/1344-W-Joan-De-Arc-Ave-Phoenix-AZ-85029/7784468_zpid/,33.6078,-112.089,6584,2018-01-10
417479,23889536,"4817 W Cheryl Dr, Glendale, AZ 85302 ",85302,0.036731619387865067,0.8691759407520294,0.0319262398367931,230000,https://www.zillow.com/homedetails/4817-W-Cheryl-Dr-Glendale-AZ-85302/7728548_zpid/,33.5788,-112.163,6624,2018-02-19
423926,23883680,"8921 N 65th Dr, Glendale, AZ 85302 ",85302,0.03493845835328102,0.9136241972446442,0.031920620965981805,228800,https://www.zillow.com/homedetails/8921-N-65th-Dr-Glendale-AZ-85302/50187782_zpid/,33.5665,-112.2,6614,2018-02-09
9026784,23923310,"9710 W Royal Oak Rd, Sun City, AZ 85351 ",85351,0.03610287792980671,0.8840400278568268,0.03191638921077794,146500,https://www.zillow.com/homedetails/9710-W-Royal-Oak-Rd-Sun-City-AZ-85351/8095855_zpid/,33.5993,-112.265,6633,2018-02-28
230933,23879852,"18608 N 17th Ave, Phoenix, AZ 85027 ",85027,0.036157794296741486,0.8826606571674347,0.03191506247568676,214900,https://www.zillow.com/homedetails/18608-N-17th-Ave-Phoenix-AZ-85027/7969674_zpid/,33.6552,-112.096,6618,2018-02-13
380250,23869299,"11620 N 31ST Dr, Phoenix, AZ 85029 ",85029,0.038148749619722366,0.8361806869506836,0.03189924766332908,173990,https://www.zillow.com/homedetails/11620-N-31st-Dr-Phoenix-AZ-85029/7749085_zpid/,33.5928,-112.12700000000001,6593,2018-01-19
1370616,23920014,"6750 N 89TH Ave, Glendale, AZ 85305 ",85305,0.03493845835328102,0.9125620722770691,0.031883511957036204,217700,https://www.zillow.com/homedetails/6750-N-89TH-Ave-Glendale-AZ-85305/7461686_zpid/,33.5333,-112.251,6630,2018-02-25
395943,23882179,"3836 W Peoria Ave, Phoenix, AZ 85029 ",85029,0.03794906288385391,0.840094804763794,0.03188081057438019,186000,https://www.zillow.com/homedetails/3836-W-Peoria-Ave-Phoenix-AZ-85029/7743605_zpid/,33.5823,-112.14200000000001,6603,2018-01-29
347500,23886782,"5941 W Latham St, Phoenix, AZ 85043 ",85043,0.03632700629532337,0.8773440718650818,0.03187128362180747,164900,https://www.zillow.com/homedetails/5941-W-Latham-St-Phoenix-AZ-85043/7495818_zpid/,33.4602,-112.18799999999999,6621,2018-02-16
40196,23874530,"2907 S 71st Dr, Phoenix, AZ 85043 ",85043,0.03383541386574507,0.9419111907482147,0.03186995496374259,240000,https://www.zillow.com/homedetails/2907-S-71st-Dr-Phoenix-AZ-85043/71604365_zpid/,33.4222,-112.213,6613,2018-02-08
408459,23882897,"6211 W Carol Ann Way, Glendale, AZ 85306 ",85306,0.03769397363066673,0.845421701669693,0.031867303329530805,185000,https://www.zillow.com/homedetails/6211-W-Carol-Ann-Way-Glendale-AZ-85306/8096840_zpid/,33.6279,-112.193,6592,2018-01-18
487915,23877801,"5130 W Berkeley Rd, Phoenix, AZ 85035 ",85035,0.03658289276063442,0.870999813079834,0.031863692756432194,169900,https://www.zillow.com/homedetails/5130-W-Berkeley-Rd-Phoenix-AZ-85035/7493714_zpid/,33.4684,-112.17,6619,2018-02-14
9030742,23909197,"3714 W Myrtle Ave, Phoenix, AZ 85051 ",85051,0.03658289276063442,0.8708782196044922,0.03185924451536337,179000,https://www.zillow.com/homedetails/3714-W-Myrtle-Ave-Phoenix-AZ-85051/7757342_zpid/,33.5421,-112.139,6611,2018-02-06
416186,23888950,"4431 W Mission Ln, Glendale, AZ 85302 ",85302,0.03794906288385391,0.8393981456756592,0.03185437301483596,182500,https://www.zillow.com/homedetails/4431-W-Mission-Ln-Glendale-AZ-85302/7729651_zpid/,33.5689,-112.156,6588,2018-01-14
9022171,23888517,"16402 N Orchard Hills Dr, Sun City, AZ 85351 ",85351,0.035917941480875015,0.8865869343280792,0.03184437762490433,199900,https://www.zillow.com/homedetails/16402-N-Orchard-Hills-Dr-Sun-City-AZ-85351/7923378_zpid/,33.6328,-112.257,6622,2018-02-17
487025,23877871,"4922 W Cypress St, Phoenix, AZ 85035 ",85035,0.03675727732479572,0.8663203418254852,0.03184357705659119,169900,https://www.zillow.com/homedetails/4922-W-Cypress-St-Phoenix-AZ-85035/7494301_zpid/,33.473,-112.166,6614,2018-02-09
461098,23891547,"2939 N 53RD Dr, Phoenix, AZ 85031 ",85031,0.034964973106980324,0.9103697240352631,0.03183105291830207,212999,https://www.zillow.com/homedetails/2939-N-53rd-Dr-Phoenix-AZ-85031/7497250_zpid/,33.4831,-112.176,6614,2018-02-09
9027668,23915751,"4828 W Kristal Way, Glendale, AZ 85308 ",85308,0.03524735476821661,0.9029033482074738,0.03182495463567944,239900,https://www.zillow.com/homedetails/4828-W-Kristal-Way-Glendale-AZ-85308/7939901_zpid/,33.6616,-112.165,6631,2018-02-26
9026773,23893527,"9217 W Briarwood Cir N, Sun City, AZ 85351 ",85351,0.03610287792980671,0.8814912140369415,0.03182436969657282,169000,https://www.zillow.com/homedetails/9217-W-Briarwood-Cir-N-Sun-City-AZ-85351/7923290_zpid/,33.6329,-112.259,6617,2018-02-12
9031391,23913583,"11213 N 69TH Ave, Peoria, AZ 85345 ",85345,0.03508073836565018,0.9071730077266693,0.03182429893643923,199900,https://www.zillow.com/homedetails/11213-N-69TH-Ave-Peoria-AZ-85345/7699594_zpid/,33.5872,-112.20700000000001,6640,2018-03-07
7652,23868185,"18611 N 22ND St LOT 44, Phoenix, AZ 85024 ",85024,0.03592861536890268,0.8857332468032837,0.03182316914384453,219000,https://www.zillow.com/homedetails/18611-N-22nd-St-LOT-44-Phoenix-AZ-85024/11884597_zpid/,33.6568,-112.03299999999999,6589,2018-01-15
389360,23882075,"2529 W Sweetwater Ave, Phoenix, AZ 85029 ",85029,0.03595411963760853,0.8850498795509338,0.03182118925462529,225000,https://www.zillow.com/homedetails/2529-W-Sweetwater-Ave-Phoenix-AZ-85029/7748296_zpid/,33.6034,-112.115,6616,2018-02-11
522482,23866699,"9013 W Virginia Ave, Phoenix, AZ 85037 ",85037,0.03632700629532337,0.8757659196853638,0.03181395407763987,174900,https://www.zillow.com/homedetails/9013-W-Virginia-Ave-Phoenix-AZ-85037/7473884_zpid/,33.4743,-112.25399999999999,6583,2018-01-09
