property_id,transaction_id,address,zipcode,any_sell,good_sell,bayesian,list,url,lat,long,date_listed,transaction_date
237883,17872058,"3009 W Charleston Ave, Phoenix, AZ 85053 ",85053,0.7709666788578033,0.9940050840377808,0.7663447984083795,220000,https://www.zillow.com/homedetails/3009-W-Charleston-Ave-Phoenix-AZ-85053/7940776_zpid/,33.6487,-112.124,6284,2017-03-16
240418,17871990,"17441 N 9th Ave, Phoenix, AZ 85023 ",85023,0.7488872408866882,0.9940050840377808,0.7443977248123943,219900,https://www.zillow.com/homedetails/17441-N-9th-Ave-Phoenix-AZ-85023/7963646_zpid/,33.6458,-112.085,6284,2017-03-16
9023243,23866706,"9140 W Gelding Dr, Peoria, AZ 85381 ",85381,0.8055090308189392,0.9136490821838379,0.7359525866985166,247000,https://www.zillow.com/homedetails/9140-W-Gelding-Dr-Peoria-AZ-85381/7908642_zpid/,33.6153,-112.255,6579,2018-01-05
629569,23853723,"1645 W Peralta Ave, Mesa, AZ 85202 ",85202,0.7823470234870911,0.929783821105957,0.7274136049286994,222900,https://www.zillow.com/homedetails/1645-W-Peralta-Ave-Mesa-AZ-85202/8191627_zpid/,33.3572,-111.87,6553,2017-12-10
9026050,23861695,"19901 N 98th Ave, Peoria, AZ 85382 ",85382,0.796308159828186,0.902323305606842,0.7185274110578703,239000,https://www.zillow.com/homedetails/19901-N-98th-Ave-Peoria-AZ-85382/7896097_zpid/,33.6647,-112.271,6571,2017-12-28
9026801,23893603,"13215 N Lakeforest Dr, Sun City, AZ 85351 ",85351,0.7990103662014008,0.8943046033382416,0.7145586486088868,225000,https://www.zillow.com/homedetails/13215-N-Lakeforest-Dr-Sun-City-AZ-85351/8096016_zpid/,33.6047,-112.26799999999999,6577,2018-01-03
1667493,23859750,"18423 N 94TH Dr, Sun City, AZ 85373 ",85373,0.7973455190658569,0.895914614200592,0.714353503098458,249900,https://www.zillow.com/homedetails/18423-N-94th-Dr-Sun-City-AZ-85373/7897476_zpid/,33.6522,-112.26299999999999,6571,2017-12-28
422815,23883544,"8324 N 56th Ln, Glendale, AZ 85302 ",85302,0.7768099904060364,0.9126763045787811,0.7089760714036597,242900,https://www.zillow.com/homedetails/8324-N-56th-Ln-Glendale-AZ-85302/7732897_zpid/,33.5576,-112.181,6568,2017-12-25
413890,23882883,"6209 W Bloomfield Rd, Glendale, AZ 85304 ",85304,0.7818410694599152,0.9028899967670441,0.7059164806770051,225000,https://www.zillow.com/homedetails/6209-W-Bloomfield-Rd-Glendale-AZ-85304/7912238_zpid/,33.5984,-112.19200000000001,6561,2017-12-18
261662,23863593,"4827 W Topeka Dr, Glendale, AZ 85308 ",85308,0.7810681760311127,0.9033472537994385,0.705575791847842,230000,https://www.zillow.com/homedetails/4827-W-Topeka-Dr-Glendale-AZ-85308/7939843_zpid/,33.6597,-112.166,6569,2017-12-26
9022649,23862722,"7133 W Mountain View Rd, Peoria, AZ 85345 ",85345,0.7755206227302551,0.9093136489391327,0.7051914872823968,205000,https://www.zillow.com/homedetails/7133-W-Mountain-View-Rd-Peoria-AZ-85345/7702397_zpid/,33.5743,-112.213,6576,2018-01-02
1091154,23858452,"668 W Shawnee Dr, Chandler, AZ 85225 ",85225,0.7757173180580139,0.908843606710434,0.7050057251315902,239900,https://www.zillow.com/homedetails/668-W-Shawnee-Dr-Chandler-AZ-85225/8200509_zpid/,33.3448,-111.852,6535,2017-11-22
9007274,23854421,"8426 W Bluefield Ave, Peoria, AZ 85382 ",85382,0.7934266626834869,0.8866887092590332,0.7035224634265234,229000,https://www.zillow.com/homedetails/8426-W-Bluefield-Ave-Peoria-AZ-85382/8129054_zpid/,33.6509,-112.241,6552,2017-12-09
1412767,23846610,"7238 W Ocotillo Rd, Glendale, AZ 85303 ",85303,0.7629257440567017,0.9207654595375061,0.7024756733193627,245000,https://www.zillow.com/homedetails/7238-W-Ocotillo-Rd-Glendale-AZ-85303/67800379_zpid/,33.5344,-112.215,6543,2017-11-30
393911,23884959,"7111 N 27th Ln, Phoenix, AZ 85051 ",85051,0.7879776954650879,0.8901417255401611,0.7014118255284529,225000,https://www.zillow.com/homedetails/7111-N-27th-Ln-Phoenix-AZ-85051/81986825_zpid/,33.5411,-112.118,6561,2017-12-18
625494,23866146,"1522 W Plana Ave, Mesa, AZ 85202 ",85202,0.7423083186149597,0.9442263245582581,0.7009070553748238,242500,https://www.zillow.com/homedetails/1522-W-Plana-Ave-Mesa-AZ-85202/8172015_zpid/,33.3588,-111.866,6585,2018-01-11
1665351,23862007,"17415 N Country Club Dr, Sun City, AZ 85373 ",85373,0.7933639883995056,0.8815411329269409,0.6993829891571366,219500,https://www.zillow.com/homedetails/17415-N-Country-Club-Dr-Sun-City-AZ-85373/7897399_zpid/,33.6428,-112.26,6574,2017-12-31
359220,23854837,"1816 S 84TH Dr, Tolleson, AZ 85353 ",85353,0.7514544427394867,0.9305427074432373,0.6992604516670511,225000,https://www.zillow.com/homedetails/1816-S-84th-Dr-Tolleson-AZ-85353/59249294_zpid/,33.4304,-112.241,6557,2017-12-14
646296,17862449,"2248 W Del Oro Cir, Mesa, AZ 85202 ",85202,0.7032766342163086,0.9940050840377808,0.6990605498959894,230000,https://www.zillow.com/homedetails/2248-W-Del-Oro-Cir-Mesa-AZ-85202/7602090_zpid/,33.4019,-111.88,6291,2017-03-23
9021795,23854390,"747 W Rosal Pl, Chandler, AZ 85225 ",85225,0.750342845916748,0.9310185313224792,0.6985830943937401,244800,https://www.zillow.com/homedetails/747-W-Rosal-Pl-Chandler-AZ-85225/8177685_zpid/,33.3412,-111.855,6551,2017-12-08
9025869,23860030,"11848 N 79th Dr, Peoria, AZ 85345 ",85345,0.7761813104152679,0.8997786343097687,0.6983913594622164,215000,https://www.zillow.com/homedetails/11848-N-79th-Dr-Peoria-AZ-85345/2091778016_zpid/,33.5928,-112.23,6557,2017-12-14
350999,23875711,"6522 W Preston Ln, Phoenix, AZ 85043 ",85043,0.755171000957489,0.9234490394592285,0.6973619354616574,230000,https://www.zillow.com/homedetails/6522-W-Preston-Ln-Phoenix-AZ-85043/62727413_zpid/,33.4236,-112.20100000000001,6561,2017-12-18
8977160,23825434,"16231 N 91st Dr, Peoria, AZ 85382 ",85382,0.7907545268535614,0.8808148801326752,0.69650835378489,233000,https://www.zillow.com/homedetails/16231-N-91st-Dr-Peoria-AZ-85382/2123153916_zpid/,33.6316,-112.25200000000001,6526,2017-11-13
349688,23875696,"6325 W Whyman Ave, Phoenix, AZ 85043 ",85043,0.7480432987213135,0.9292100965976715,0.6950893858640725,225000,https://www.zillow.com/homedetails/6325-W-Whyman-Ave-Phoenix-AZ-85043/53206198_zpid/,33.4269,-112.197,6579,2018-01-05
9026266,23865520,"11403 N Arbor Ct, Sun City, AZ 85351 ",85351,0.7899797260761261,0.8788931667804718,0.6943077831434161,190000,https://www.zillow.com/homedetails/11403-N-Arbor-Ct-Sun-City-AZ-85351/7685894_zpid/,33.5879,-112.26799999999999,6559,2017-12-16
405758,23864265,"4841 W Paradise Ln, Glendale, AZ 85306 ",85306,0.7709358930587769,0.9004440009593964,0.6941846000290504,249999,https://www.zillow.com/homedetails/4841-W-Paradise-Ln-Glendale-AZ-85306/7951435_zpid/,33.6321,-112.163,6579,2018-01-05
436097,23866308,"2311 N 91st Gln, Phoenix, AZ 85037 ",85037,0.7523162066936493,0.922483503818512,0.6939992903302095,239900,https://www.zillow.com/homedetails/2311-N-91st-Gln-Phoenix-AZ-85037/60974969_zpid/,33.4747,-112.257,6579,2018-01-05
2042666,23866719,"9694 N 82nd Gln, Peoria, AZ 85345 ",85345,0.7696163952350616,0.9012535512447357,0.6936195093017714,219000,https://www.zillow.com/homedetails/9694-N-82nd-Gln-Peoria-AZ-85345/60978309_zpid/,33.5735,-112.23700000000001,6578,2018-01-04
1115749,23864072,"1721 W Nopal Dr, Chandler, AZ 85224 ",85224,0.7360227406024933,0.9419024288654327,0.6932616070736808,249900,https://www.zillow.com/homedetails/1721-W-Nopal-Dr-Chandler-AZ-85224/8198402_zpid/,33.3418,-111.874,6581,2018-01-07
9018003,23819878,"1842 W Alamo Dr, Chandler, AZ 85224 ",85224,0.7701465487480164,0.8970500826835632,0.6908600252328689,244500,https://www.zillow.com/homedetails/1842-W-Alamo-Dr-Chandler-AZ-85224/8199834_zpid/,33.3482,-111.875,6516,2017-11-03
9026795,23893587,"9807 W Royal Oak Rd, Sun City, AZ 85351 ",85351,0.7802171409130096,0.883895069360733,0.6896300838837375,164900,https://www.zillow.com/homedetails/9807-W-Royal-Oak-Rd-Sun-City-AZ-85351/8096145_zpid/,33.5995,-112.266,6565,2017-12-22
976127,23846057,"734 N Tangerine Dr, Chandler, AZ 85226 ",85226,0.7527380585670471,0.9159491062164307,0.689469751959578,204900,https://www.zillow.com/homedetails/734-N-Tangerine-Dr-Chandler-AZ-85226/8156625_zpid/,33.3162,-111.928,6544,2017-12-01
1410517,23856547,"7108 N 73rd Dr, Glendale, AZ 85303 ",85303,0.7666499018669128,0.8989096581935883,0.6891490012413346,222000,https://www.zillow.com/homedetails/7108-N-73rd-Dr-Glendale-AZ-85303/82823489_zpid/,33.5387,-112.21700000000001,6532,2017-11-19
415049,23846150,"10006 N 66TH Ave, Glendale, AZ 85302 ",85302,0.7602432072162628,0.906101793050766,0.6888577332133208,199000,https://www.zillow.com/homedetails/10006-N-66th-Ave-Glendale-AZ-85302/7706542_zpid/,33.5765,-112.20100000000001,6544,2017-12-01
447418,23856851,"8311 W Coolidge St, Phoenix, AZ 85037 ",85037,0.7512994706630707,0.915758490562439,0.688008869214773,189900,https://www.zillow.com/homedetails/8311-W-Coolidge-St-Phoenix-AZ-85037/7480994_zpid/,33.5048,-112.238,6560,2017-12-17
1422266,23883525,"8164 W Sierra Vista Dr, Glendale, AZ 85303 ",85303,0.7538554072380066,0.9120694994926453,0.6875685239693929,239900,https://www.zillow.com/homedetails/8164-W-Sierra-Vista-Dr-Glendale-AZ-85303/7462584_zpid/,33.5315,-112.236,6579,2018-01-05
419470,23882476,"5428 W Puget Ave, Glendale, AZ 85302 ",85302,0.765020877122879,0.8966380953788757,0.6859468621885352,180000,https://www.zillow.com/homedetails/5428-W-Puget-Ave-Glendale-AZ-85302/7733603_zpid/,33.567,-112.177,6559,2017-12-16
409785,23870370,"4531 W Wethersfield Rd, Glendale, AZ 85304 ",85304,0.7622703313827515,0.8984659612178802,0.6848739459936759,235000,https://www.zillow.com/homedetails/4531-W-Wethersfield-Rd-Glendale-AZ-85304/7955091_zpid/,33.5969,-112.15700000000001,6577,2018-01-03
259461,23881240,"19660 N 48TH Ln, Glendale, AZ 85308 ",85308,0.7526827454566956,0.9092327952384949,0.6843638365793758,215000,https://www.zillow.com/homedetails/19660-N-48TH-Ln-Glendale-AZ-85308/7937777_zpid/,33.6639,-112.165,6584,2018-01-10
235380,23862487,"2831 W Grovers Ave, Phoenix, AZ 85053 ",85053,0.7671345770359039,0.8918000161647797,0.6841306282011805,200000,https://www.zillow.com/homedetails/2831-W-Grovers-Ave-Phoenix-AZ-85053/7942333_zpid/,33.6472,-112.12200000000001,6578,2018-01-04
242869,23862343,"18216 N 24TH Dr, Phoenix, AZ 85023 ",85023,0.7671345770359039,0.8886673748493195,0.6817274707306398,197899,https://www.zillow.com/homedetails/18216-N-24th-Dr-Phoenix-AZ-85023/7957934_zpid/,33.6523,-112.111,6576,2018-01-02
8991893,23837557,"9352 W Jefferson St, Tolleson, AZ 85353 ",85353,0.7461150288581848,0.9133518040180206,0.6814655076125806,229900,https://www.zillow.com/homedetails/9352-W-Jefferson-St-Tolleson-AZ-85353/7460100_zpid/,33.4464,-112.26100000000001,6533,2017-11-20
423007,23883750,"8427 N 47th Dr, Glendale, AZ 85302 ",85302,0.7683294415473938,0.8869156539440155,0.681443409094447,246999,https://www.zillow.com/homedetails/8427-N-47th-Dr-Glendale-AZ-85302/7731867_zpid/,33.5593,-112.161,6578,2018-01-04
411064,23882421,"5118 W Columbine Dr, Glendale, AZ 85304 ",85304,0.7531089186668396,0.9040934443473816,0.6808808362462351,239000,https://www.zillow.com/homedetails/5118-W-Columbine-Dr-Glendale-AZ-85304/7911366_zpid/,33.5987,-112.17,6579,2018-01-05
8952180,23860567,"3408 N 67TH Ln, Phoenix, AZ 85033 ",85033,0.7551374137401581,0.9009527266025543,0.6803431118687966,195000,https://www.zillow.com/homedetails/3408-N-67th-Ln-Phoenix-AZ-85033/7485759_zpid/,33.4878,-112.205,6570,2017-12-27
352916,23863486,"213 E Campo Bello Dr, Phoenix, AZ 85022 ",85022,0.7571998238563538,0.898216724395752,0.6801295454972944,225000,https://www.zillow.com/homedetails/213-E-Campo-Bello-Dr-Phoenix-AZ-85022/7959267_zpid/,33.6435,-112.071,6579,2018-01-05
424918,23883758,"9803 N 50th Ave, Glendale, AZ 85302 ",85302,0.7572476267814636,0.8971114754676819,0.6793355357563193,224500,https://www.zillow.com/homedetails/9803-N-50th-Ave-Glendale-AZ-85302/7728972_zpid/,33.575,-112.167,6571,2017-12-28
412003,23883799,"5331 W Voltaire Dr, Glendale, AZ 85304 ",85304,0.7556193470954895,0.898944079875946,0.6792595387112179,206000,https://www.zillow.com/homedetails/5331-W-Voltaire-Dr-Glendale-AZ-85304/7911791_zpid/,33.6084,-112.17399999999999,6572,2017-12-29
410719,23854939,"4923 W Larkspur Dr, Glendale, AZ 85304 ",85304,0.7612313032150269,0.8921537399291992,0.6791353541144645,236000,https://www.zillow.com/homedetails/4923-W-Larkspur-Dr-Glendale-AZ-85304/7954371_zpid/,33.5993,-112.165,6557,2017-12-14
225855,23847348,"1461 E Renee Dr, Phoenix, AZ 85024 ",85024,0.7509509027004242,0.9039962887763977,0.6788568290944692,249000,https://www.zillow.com/homedetails/1461-E-Renee-Dr-Phoenix-AZ-85024/7996071_zpid/,33.6554,-112.05,6545,2017-12-02
17711,23887053,"5008 W Wikieup Ln, Glendale, AZ 85308 ",85308,0.7425548434257507,0.9131715595722198,0.6780799644389983,229000,https://www.zillow.com/homedetails/5008-W-Wikieup-Ln-Glendale-AZ-85308/7938109_zpid/,33.6638,-112.16799999999999,6585,2018-01-11
243942,23854107,"18463 N 5TH Ave, Phoenix, AZ 85023 ",85023,0.7547022998332977,0.8975266218185425,0.6773654056480645,249000,https://www.zillow.com/homedetails/18463-N-5th-Ave-Phoenix-AZ-85023/7956457_zpid/,33.6543,-112.08,6552,2017-12-09
9026784,23893561,"9710 W Royal Oak Rd, Sun City, AZ 85351 ",85351,0.7802171409130096,0.8652410805225372,0.6750759220457772,149500,https://www.zillow.com/homedetails/9710-W-Royal-Oak-Rd-Sun-City-AZ-85351/8095855_zpid/,33.5993,-112.265,6558,2017-12-15
222394,23848564,"1010 W Campo Bello Dr, Phoenix, AZ 85023 ",85023,0.7597061395645142,0.8875738382339478,0.674295294223171,199900,https://www.zillow.com/homedetails/1010-W-Campo-Bello-Dr-Phoenix-AZ-85023/7963596_zpid/,33.644,-112.087,6549,2017-12-06
7449241,23819586,"11935 N 68th Ave, Peoria, AZ 85345 ",85345,0.7793669700622559,0.8641338348388672,0.6734773685866458,245000,https://www.zillow.com/homedetails/11935-N-68th-Ave-Peoria-AZ-85345/7700139_zpid/,33.594,-112.204,6516,2017-11-03
9025615,23856149,"17636 N 35th St, Phoenix, AZ 85032 ",85032,0.793583869934082,0.8484011292457581,0.673277451403294,235000,https://www.zillow.com/homedetails/17636-N-35th-St-Phoenix-AZ-85032/7998341_zpid/,33.6469,-112.005,6557,2017-12-14
234034,23855362,"18447 N 31ST Ave, Phoenix, AZ 85053 ",85053,0.7711954414844513,0.8724320828914642,0.6728156453306822,209000,https://www.zillow.com/homedetails/18447-N-31st-Ave-Phoenix-AZ-85053/7940519_zpid/,33.6544,-112.126,6551,2017-12-08
434601,23841755,"1838 N 83rd Ln, Phoenix, AZ 85037 ",85037,0.735319972038269,0.9142691195011139,0.6722803433870119,195000,https://www.zillow.com/homedetails/1838-N-83rd-Ln-Phoenix-AZ-85037/7487940_zpid/,33.4683,-112.24,6536,2017-11-23
8996051,23841761,"3410 N 67TH Dr, Phoenix, AZ 85033 ",85033,0.7511365711688995,0.8941320776939392,0.6716153030111496,220000,https://www.zillow.com/homedetails/3410-N-67th-Dr-Phoenix-AZ-85033/7485764_zpid/,33.4878,-112.204,6537,2017-11-24
230832,23863481,"19209 N 6th St, Phoenix, AZ 85024 ",85024,0.7454452514648438,0.9005853533744812,0.6713370752117953,235000,https://www.zillow.com/homedetails/19209-N-6th-St-Phoenix-AZ-85024/7972480_zpid/,33.6606,-112.066,6581,2018-01-07
332059,23858248,"115 E Hartford Ave, Phoenix, AZ 85022 ",85022,0.765944093465805,0.8762076199054718,0.6711260511163273,215000,https://www.zillow.com/homedetails/115-E-Hartford-Ave-Phoenix-AZ-85022/79527909_zpid/,33.6426,-112.073,6562,2017-12-19
1092802,23820224,"731 W Palomino Dr, Chandler, AZ 85225 ",85225,0.750342845916748,0.8932895362377167,0.6702734128482604,245900,https://www.zillow.com/homedetails/731-W-Palomino-Dr-Chandler-AZ-85225/8177603_zpid/,33.3404,-111.855,6516,2017-11-03
9017511,23846619,"7346 W Coolidge St, Phoenix, AZ 85033 ",85033,0.7431562542915344,0.9015938341617584,0.6700250966879953,199900,https://www.zillow.com/homedetails/7346-W-Coolidge-St-Phoenix-AZ-85033/7710836_zpid/,33.5042,-112.21799999999999,6544,2017-12-01
1405541,23883136,"6702 N 82nd Dr, Glendale, AZ 85303 ",85303,0.7290705442428589,0.9189932346343994,0.6700108977304069,229900,https://www.zillow.com/homedetails/6702-N-82nd-Dr-Glendale-AZ-85303/7462533_zpid/,33.5329,-112.23700000000001,6585,2018-01-11
255987,23850390,"506 W Beverly Ln, Phoenix, AZ 85023 ",85023,0.7557232975959778,0.8863900303840637,0.6698655967180436,229900,https://www.zillow.com/homedetails/506-W-Beverly-Ln-Phoenix-AZ-85023/7965481_zpid/,33.6337,-112.081,6552,2017-12-09
9025718,23861001,"2944 W Villa Theresa Dr, Phoenix, AZ 85053 ",85053,0.7625633478164673,0.8775505125522614,0.6691878567299092,210000,https://www.zillow.com/homedetails/2944-W-Villa-Theresa-Dr-Phoenix-AZ-85053/7940561_zpid/,33.6541,-112.12299999999999,6573,2017-12-30
379528,23846192,"11438 N 30TH Ave, Phoenix, AZ 85029 ",85029,0.7778337001800537,0.8591656982898712,0.6682880341685902,235000,https://www.zillow.com/homedetails/11438-N-30th-Ave-Phoenix-AZ-85029/7739912_zpid/,33.5907,-112.124,6544,2017-12-01
225614,23844378,"1303 W Michelle Dr, Phoenix, AZ 85023 ",85023,0.7565934062004089,0.8830239474773407,0.6680900961784122,249900,https://www.zillow.com/homedetails/1303-W-Michelle-Dr-Phoenix-AZ-85023/7956957_zpid/,33.6494,-112.09,6543,2017-11-30
237433,23843870,"2957 W Michelle Dr, Phoenix, AZ 85053 ",85053,0.7660617828369141,0.8708729147911072,0.6671424577292555,225000,https://www.zillow.com/homedetails/2957-W-Michelle-Dr-Phoenix-AZ-85053/7940747_zpid/,33.6492,-112.124,6542,2017-11-29
481915,23852927,"2518 N 67TH Dr, Phoenix, AZ 85035 ",85035,0.7369202077388763,0.9048442840576172,0.6667980377790741,145000,https://www.zillow.com/homedetails/2518-N-67th-Dr-Phoenix-AZ-85035/7475839_zpid/,33.4762,-112.204,6551,2017-12-08
9021086,23815044,"8137 W Aster Dr, Peoria, AZ 85381 ",85381,0.7778536975383759,0.8571769297122955,0.6667582442213016,239000,https://www.zillow.com/homedetails/8137-W-Aster-Dr-Peoria-AZ-85381/8100990_zpid/,33.6013,-112.235,6512,2017-10-30
1356244,23823740,"6825 N 60th Ave, Glendale, AZ 85301 ",85301,0.7870779931545258,0.8471071422100067,0.6667393894775175,182000,https://www.zillow.com/homedetails/6825-N-60th-Ave-Glendale-AZ-85301/7707716_zpid/,33.5378,-112.189,6521,2017-11-08
390477,23864565,"3018 W Lupine Ave, Phoenix, AZ 85029 ",85029,0.7454812526702881,0.894003301858902,0.6664627013611479,230000,https://www.zillow.com/homedetails/3018-W-Lupine-Ave-Phoenix-AZ-85029/7739937_zpid/,33.5913,-112.124,6584,2018-01-10
43818,23864355,"8128 W Papago St, Phoenix, AZ 85043 ",85043,0.7135340571403503,0.9337765574455261,0.6662813754966557,195000,https://www.zillow.com/homedetails/8128-W-Papago-St-Phoenix-AZ-85043/60047290_zpid/,33.4345,-112.235,6582,2018-01-08
1864574,23822334,"9873 W Escuda Dr, Peoria, AZ 85382 ",85382,0.7998904883861542,0.8324020206928253,0.6658304588656057,245000,https://www.zillow.com/homedetails/9873-W-Escuda-Dr-Peoria-AZ-85382/7896125_zpid/,33.6652,-112.271,6519,2017-11-06
460325,23853200,"5810 W Avalon Dr, Phoenix, AZ 85031 ",85031,0.740488737821579,0.8988476693630219,0.665586576180492,150000,https://www.zillow.com/homedetails/5810-W-Avalon-Dr-Phoenix-AZ-85031/7490070_zpid/,33.484,-112.185,6551,2017-12-08
9021586,23838024,"8142 W Sweetwater Ave, Peoria, AZ 85381 ",85381,0.7778536975383759,0.8556056916713715,0.6655360509014558,240000,https://www.zillow.com/homedetails/8142-W-Sweetwater-Ave-Peoria-AZ-85381/7913307_zpid/,33.6028,-112.235,6529,2017-11-16
225687,23849553,"1306 W Charleston Ave, Phoenix, AZ 85023 ",85023,0.7565934062004089,0.8793709874153137,0.6653262906823691,245000,https://www.zillow.com/homedetails/1306-W-Charleston-Ave-Phoenix-AZ-85023/7956977_zpid/,33.6491,-112.09,6550,2017-12-07
9012841,23819608,"8121 W Hatcher Rd, Peoria, AZ 85345 ",85345,0.7645403742790222,0.8701740503311157,0.6652831941280439,239000,https://www.zillow.com/homedetails/8121-W-Hatcher-Rd-Peoria-AZ-85345/7682649_zpid/,33.57,-112.234,6515,2017-11-02
7977745,23866230,"19033 N 45TH Dr, Glendale, AZ 85308 ",85308,0.7467300593852997,0.8903993964195251,0.664887994164987,159000,https://www.zillow.com/homedetails/19033-N-45th-Dr-Glendale-AZ-85308/7939041_zpid/,33.6593,-112.15799999999999,6583,2018-01-09
1372616,23883622,"8549 W Tuckey Ln, Glendale, AZ 85305 ",85305,0.7471754252910614,0.8890779912471771,0.6642972262270321,206000,https://www.zillow.com/homedetails/8549-W-Tuckey-Ln-Glendale-AZ-85305/7461499_zpid/,33.533,-112.245,6532,2017-11-19
232170,23847359,"17834 N 33RD Dr, Phoenix, AZ 85053 ",85053,0.7480523884296417,0.8872562348842621,0.6637141456542635,249999,https://www.zillow.com/homedetails/17834-N-33RD-Dr-Phoenix-AZ-85053/7941287_zpid/,33.6484,-112.131,6543,2017-11-30
499623,23853309,"7113 W Holly St, Phoenix, AZ 85035 ",85035,0.743658035993576,0.8916925191879272,0.6631143075294581,135000,https://www.zillow.com/homedetails/7113-W-Holly-St-Phoenix-AZ-85035/7475387_zpid/,33.4699,-112.213,6548,2017-12-05
1421999,23820040,"8134 W Mclellan Rd, Glendale, AZ 85303 ",85303,0.7551940977573395,0.8779089748859406,0.6629916762020587,222500,https://www.zillow.com/homedetails/8134-W-Mclellan-Rd-Glendale-AZ-85303/7462575_zpid/,33.5326,-112.235,6516,2017-11-03
9022735,23864019,"13216 N 31ST Way, Phoenix, AZ 85032 ",85032,0.7397284209728241,0.8960380852222443,0.6628248379129635,241000,https://www.zillow.com/homedetails/13216-N-31st-Way-Phoenix-AZ-85032/50188555_zpid/,33.6068,-112.014,6581,2018-01-07
9021585,23824122,"12612 N 79TH Ave, Peoria, AZ 85381 ",85381,0.7717460691928864,0.8577814102172852,0.6619894315619206,225000,https://www.zillow.com/homedetails/12612-N-79th-Ave-Peoria-AZ-85381/8101178_zpid/,33.5997,-112.229,6522,2017-11-09
347157,23863475,"17828 N 1ST St, Phoenix, AZ 85022 ",85022,0.7546990513801575,0.876467376947403,0.6614690979478599,104990,https://www.zillow.com/homedetails/17828-N-1st-St-Phoenix-AZ-85022/7956061_zpid/,33.6483,-112.074,6567,2017-12-24
9025997,23861142,"15848 N 99th Dr, Sun City, AZ 85351 ",85351,0.7441805303096771,0.8885306119918823,0.661227182028501,239500,https://www.zillow.com/homedetails/15848-N-99th-Dr-Sun-City-AZ-85351/8091359_zpid/,33.6291,-112.272,6558,2017-12-15
9021439,23856224,"17630 N 33RD Ln, Phoenix, AZ 85053 ",85053,0.7515500485897064,0.8797240257263184,0.6611566342801467,215000,https://www.zillow.com/homedetails/17630-N-33rd-Ln-Phoenix-AZ-85053/7942069_zpid/,33.6462,-112.131,6558,2017-12-15
403812,23864058,"16025 N 47TH Dr, Glendale, AZ 85306 ",85306,0.7345806062221527,0.9000432193279266,0.6611542936800463,240000,https://www.zillow.com/homedetails/16025-N-47TH-Dr-Glendale-AZ-85306/7951382_zpid/,33.6308,-112.161,6581,2018-01-07
9023033,23823351,"437 E Wescott Dr, Phoenix, AZ 85024 ",85024,0.7756167948246002,0.8506673276424408,0.659791866128038,225000,https://www.zillow.com/homedetails/437-E-Wescott-Dr-Phoenix-AZ-85024/2092120604_zpid/,33.6585,-112.068,6521,2017-11-08
8989113,22740158,"19153 N 75TH Dr, Glendale, AZ 85308 ",85308,0.7959186434745789,0.8289474248886108,0.6597747099290885,235000,https://www.zillow.com/homedetails/19153-N-75th-Dr-Glendale-AZ-85308/7892099_zpid/,33.6583,-112.221,6487,2017-10-05
452056,23863849,"8831 W Mariposa St, Phoenix, AZ 85037 ",85037,0.7237739264965057,0.909428596496582,0.6582207061545375,209900,https://www.zillow.com/homedetails/8831-W-Mariposa-St-Phoenix-AZ-85037/7483281_zpid/,33.5074,-112.25,6581,2018-01-07
343494,23875666,"2518 S 66th Dr, Phoenix, AZ 85043 ",85043,0.7085033059120178,0.9288187026977539,0.6580711214542703,194900,https://www.zillow.com/homedetails/2518-S-66th-Dr-Phoenix-AZ-85043/67773235_zpid/,33.425,-112.20200000000001,6581,2018-01-07
9025717,23858269,"3333 W Grovers Ave, Phoenix, AZ 85053 ",85053,0.7452549636363983,0.8820850551128387,0.657378265672329,162000,https://www.zillow.com/homedetails/3333-W-Grovers-Ave-Phoenix-AZ-85053/2091717911_zpid/,33.6474,-112.131,6564,2017-12-21
411351,23831053,"5194 W Paradise Dr, Glendale, AZ 85304 ",85304,0.7565649151802063,0.8684353828430176,0.6570277417601176,214900,https://www.zillow.com/homedetails/5194-W-Paradise-Dr-Glendale-AZ-85304/60978690_zpid/,33.5953,-112.171,6526,2017-11-13
9026278,23865568,"8630 W El Caminito Dr, Peoria, AZ 85345 ",85345,0.7145323157310486,0.9193986654281616,0.6569400574884199,199999,https://www.zillow.com/homedetails/8630-W-El-Caminito-Dr-Peoria-AZ-85345/50187525_zpid/,33.5576,-112.24600000000001,6585,2018-01-11
8947845,23865596,"8909 W Echo Ln, Peoria, AZ 85345 ",85345,0.729584664106369,0.899799644947052,0.656480021721725,220000,https://www.zillow.com/homedetails/8909-W-Echo-Ln-Peoria-AZ-85345/7683180_zpid/,33.5583,-112.251,6585,2018-01-11
484854,23817893,"2833 N 73RD Dr, Phoenix, AZ 85035 ",85035,0.7460359930992126,0.8797533810138702,0.6563276872870727,190000,https://www.zillow.com/homedetails/2833-N-73rd-Dr-Phoenix-AZ-85035/92692586_zpid/,33.4796,-112.21600000000001,6514,2017-11-01
501068,23853288,"7426 W Monte Vista Rd, Phoenix, AZ 85035 ",85035,0.7407195270061493,0.8860034346580505,0.6562800450457349,155000,https://www.zillow.com/homedetails/7426-W-Monte-Vista-Rd-Phoenix-AZ-85035/7474922_zpid/,33.471,-112.22,6528,2017-11-15
9026628,23892890,"9702 W Campana Dr, Sun City, AZ 85351 ",85351,0.7251070141792297,0.9045361876487732,0.6558855342430654,185950,https://www.zillow.com/homedetails/9702-W-Campana-Dr-Sun-City-AZ-85351/7904989_zpid/,33.6372,-112.26899999999999,6578,2018-01-04
9019728,23843826,"17413 N 8TH Ave, Phoenix, AZ 85023 ",85023,0.7554089426994324,0.868139922618866,0.6558006610606846,184500,https://www.zillow.com/homedetails/17413-N-8th-Ave-Phoenix-AZ-85023/7963487_zpid/,33.6445,-112.085,6542,2017-11-29
9024615,23850383,"4345 W Morrow Dr, Glendale, AZ 85308 ",85308,0.7499792575836182,0.8739782273769379,0.6554655421124025,245000,https://www.zillow.com/homedetails/4345-W-Morrow-Dr-Glendale-AZ-85308/7938791_zpid/,33.6569,-112.154,6552,2017-12-09
392547,17866420,"3301 W Paradise Dr, Phoenix, AZ 85029 ",85029,0.6588000655174255,0.9940050840377808,0.654850614488744,217500,https://www.zillow.com/homedetails/3301-W-Paradise-Dr-Phoenix-AZ-85029/7748604_zpid/,33.5947,-112.13,6275,2017-03-07
258179,23864232,"417 W Renee Dr, Phoenix, AZ 85027 ",85027,0.7159601747989655,0.9136674702167511,0.6541495216845137,205000,https://www.zillow.com/homedetails/417-W-Renee-Dr-Phoenix-AZ-85027/7972590_zpid/,33.6551,-112.08,6583,2018-01-09
522482,23866699,"9013 W Virginia Ave, Phoenix, AZ 85037 ",85037,0.7103641629219055,0.9205469787120819,0.6539235839630972,174900,https://www.zillow.com/homedetails/9013-W-Virginia-Ave-Phoenix-AZ-85037/7473884_zpid/,33.4743,-112.25399999999999,6583,2018-01-09
250623,23869041,"510 E Topeka Dr, Phoenix, AZ 85024 ",85024,0.7254252433776855,0.9010224640369415,0.6536244402627602,209900,https://www.zillow.com/homedetails/510-E-Topeka-Dr-Phoenix-AZ-85024/7972420_zpid/,33.6601,-112.06700000000001,6585,2018-01-11
350131,22705127,"6405 W Preston Ln, Phoenix, AZ 85043 ",85043,0.7510823607444763,0.8694136440753937,0.6530012522556046,187000,https://www.zillow.com/homedetails/6405-W-Preston-Ln-Phoenix-AZ-85043/55257428_zpid/,33.4235,-112.198,6474,2017-09-22
484005,23821708,"2696 N 73RD Gln, Phoenix, AZ 85035 ",85035,0.7421523630619049,0.8795180022716522,0.6527363637413925,210000,https://www.zillow.com/homedetails/2696-N-73rd-Gln-Phoenix-AZ-85035/95155175_zpid/,33.4779,-112.21799999999999,6513,2017-10-31
9011928,23753384,"7411 W Wolf St, Phoenix, AZ 85033 ",85033,0.7511749267578125,0.8683326244354248,0.6522696955616993,229900,https://www.zillow.com/homedetails/7411-W-Wolf-St-Phoenix-AZ-85033/95184996_zpid/,33.5059,-112.219,6494,2017-10-12
402883,23865219,"12215 N 47TH Ln, Glendale, AZ 85304 ",85304,0.7319070100784302,0.8911313414573669,0.6522252757132421,249900,https://www.zillow.com/homedetails/12215-N-47th-Ln-Glendale-AZ-85304/7954296_zpid/,33.597,-112.161,6582,2018-01-08
415297,23835189,"10114 N 66TH Ln, Glendale, AZ 85302 ",85302,0.7508665919303894,0.8681347072124481,0.6518533489410974,197500,https://www.zillow.com/homedetails/10114-N-66th-Ln-Glendale-AZ-85302/67083300_zpid/,33.5779,-112.20299999999999,6528,2017-11-15
9020725,23815067,"9537 W Sunnyslope Ln, Peoria, AZ 85345 ",85345,0.7628205418586731,0.8536109924316406,0.6511519997832238,224000,https://www.zillow.com/homedetails/9537-W-Sunnyslope-Ln-Peoria-AZ-85345/7697879_zpid/,33.5693,-112.265,6512,2017-10-30
7445518,23781525,"18009 N 89th Dr, Peoria, AZ 85382 ",85382,0.7737171351909637,0.8413516581058502,0.6509681945978256,240000,https://www.zillow.com/homedetails/18009-N-89th-Dr-Peoria-AZ-85382/8105128_zpid/,33.6473,-112.251,6280,2017-03-12
8977566,23865226,"2018 W Bloomfield Rd, Phoenix, AZ 85029 ",85029,0.7209197580814362,0.9029636383056641,0.6509643276836528,206000,https://www.zillow.com/homedetails/2018-W-Bloomfield-Rd-Phoenix-AZ-85029/7739154_zpid/,33.5987,-112.102,6585,2018-01-11
231237,23886980,"18621 N 5th Dr, Phoenix, AZ 85027 ",85027,0.7079162001609802,0.9192826449871063,0.6507750769132077,225000,https://www.zillow.com/homedetails/18621-N-5th-Dr-Phoenix-AZ-85027/50183691_zpid/,33.6555,-112.081,6585,2018-01-11
434653,23866644,"7715 W Elm St, Phoenix, AZ 85033 ",85033,0.7133419811725616,0.9109193980693817,0.6497970481073301,175000,https://www.zillow.com/homedetails/7715-W-Elm-St-Phoenix-AZ-85033/7468202_zpid/,33.506,-112.226,6582,2018-01-08
355855,23833551,"702 E Rose Marie Ln, Phoenix, AZ 85022 ",85022,0.747793436050415,0.86891970038414,0.6497724484021532,247000,https://www.zillow.com/homedetails/702-E-Rose-Marie-Ln-Phoenix-AZ-85022/49942677_zpid/,33.6527,-112.065,6527,2017-11-14
450270,23853373,"8713 W Wilshire Dr, Phoenix, AZ 85037 ",85037,0.7390162944793701,0.8781466782093048,0.6489647041396083,200000,https://www.zillow.com/homedetails/8713-W-Wilshire-Dr-Phoenix-AZ-85037/7473941_zpid/,33.4756,-112.24700000000001,6526,2017-11-13
402127,23814880,"14638 N 62nd Ave, Glendale, AZ 85306 ",85306,0.7754989862442017,0.8363874852657318,0.6486176469309122,230000,https://www.zillow.com/homedetails/14638-N-62nd-Ave-Glendale-AZ-85306/8098778_zpid/,33.6177,-112.191,6512,2017-10-30
9015572,23864377,"9416 W Madison St, Tolleson, AZ 85353 ",85353,0.7035359740257263,0.9212704598903656,0.6481469103400972,149000,https://www.zillow.com/homedetails/9416-W-Madison-St-Tolleson-AZ-85353/7460136_zpid/,33.4454,-112.264,6582,2018-01-08
9026158,23863640,"3832 W Villa Theresa Dr, Glendale, AZ 85308 ",85308,0.716660350561142,0.9042965769767761,0.6480735018674171,218000,https://www.zillow.com/homedetails/3832-W-Villa-Theresa-Dr-Glendale-AZ-85308/7948394_zpid/,33.6543,-112.14200000000001,6580,2018-01-06
8964694,23800320,"9084 N 80th Ln, Peoria, AZ 85345 ",85345,0.7645403742790222,0.8476031422615051,0.6480268236246864,170000,https://www.zillow.com/homedetails/9084-N-80th-Ln-Peoria-AZ-85345/50187199_zpid/,33.5677,-112.23299999999999,6422,2017-08-01
524930,22304530,"9134 W Vernon Ave, Phoenix, AZ 85037 ",85037,0.7552632689476013,0.857896476984024,0.6479376976255846,249000,https://www.zillow.com/homedetails/9134-W-Vernon-Ave-Phoenix-AZ-85037/67764424_zpid/,33.473,-112.257,6401,2017-07-11
415471,23882330,"10237 N 66th Ave, Glendale, AZ 85302 ",85302,0.7258085310459137,0.8922153413295746,0.647577506267047,150000,https://www.zillow.com/homedetails/10237-N-66th-Ave-Glendale-AZ-85302/7706350_zpid/,33.5795,-112.2,6583,2018-01-09
402356,23882339,"11811 N 51st Dr, Glendale, AZ 85304 ",85304,0.7149737477302551,0.9050467014312744,0.6470846319932235,189500,https://www.zillow.com/homedetails/11811-N-51st-Dr-Glendale-AZ-85304/60978616_zpid/,33.5933,-112.169,6583,2018-01-09
332879,23849200,"5333 N 22nd Dr, Phoenix, AZ 85015 ",85015,0.7569990754127502,0.8542150557041168,0.6466400073716674,240000,https://www.zillow.com/homedetails/5333-N-22nd-Dr-Phoenix-AZ-85015/7764971_zpid/,33.5163,-112.10700000000001,6549,2017-12-06
232395,23858251,"19615 N 6th Pl, Phoenix, AZ 85024 ",85024,0.7670299112796783,0.8428120315074921,0.6464620377526371,179990,https://www.zillow.com/homedetails/19615-N-6th-Pl-Phoenix-AZ-85024/7967758_zpid/,33.6645,-112.066,6553,2017-12-10
410898,23823665,"5031 W Windrose Dr, Glendale, AZ 85304 ",85304,0.7565649151802063,0.8543825745582581,0.6463958800521148,229000,https://www.zillow.com/homedetails/5031-W-Windrose-Dr-Glendale-AZ-85304/7954728_zpid/,33.6006,-112.167,6521,2017-11-08
7450963,23779216,"13854 N 91st Dr, Peoria, AZ 85381 ",85381,0.806772381067276,0.801097959280014,0.6463037080764726,225000,https://www.zillow.com/homedetails/13854-N-91st-Dr-Peoria-AZ-85381/7908457_zpid/,33.6103,-112.256,6284,2017-03-16
354621,23808089,"2310 E Winchcomb Dr, Phoenix, AZ 85022 ",85022,0.7646539211273193,0.8426394760608673,0.6443275794666121,224900,https://www.zillow.com/homedetails/2310-E-Winchcomb-Dr-Phoenix-AZ-85022/8010116_zpid/,33.6168,-112.03399999999999,6507,2017-10-25
261479,23789366,"4757 W Topeka Dr, Glendale, AZ 85308 ",85308,0.7764354348182678,0.8283251523971558,0.6431409998723936,225000,https://www.zillow.com/homedetails/4757-W-Topeka-Dr-Glendale-AZ-85308/7939742_zpid/,33.6603,-112.164,6302,2017-04-03
9206,23840092,"1220 W Ironwood Dr, Phoenix, AZ 85021 ",85021,0.7674794793128967,0.8378743231296539,0.6430513492451926,169000,https://www.zillow.com/homedetails/1220-W-Ironwood-Dr-Phoenix-AZ-85021/7781692_zpid/,33.576,-112.089,6534,2017-11-21
9023475,23827261,"12202 N Balboa Dr, Sun City, AZ 85351 ",85351,0.7785507440567017,0.825124591588974,0.6424013647210778,159500,https://www.zillow.com/homedetails/12202-N-Balboa-Dr-Sun-City-AZ-85351/7916635_zpid/,33.5958,-112.274,6526,2017-11-13
350177,22541766,"6408 W Cordes Rd, Phoenix, AZ 85043 ",85043,0.7430584728717804,0.8639650642871857,0.6419765612838058,169900,https://www.zillow.com/homedetails/6408-W-Cordes-Rd-Phoenix-AZ-85043/49641248_zpid/,33.4216,-112.197,6442,2017-08-21
233458,23864530,"18230 N 33RD Ave, Phoenix, AZ 85053 ",85053,0.7079771161079407,0.9058704674243927,0.6413355610944738,179900,https://www.zillow.com/homedetails/18230-N-33rd-Ave-Phoenix-AZ-85053/7941211_zpid/,33.652,-112.13,6584,2018-01-10
408219,23882796,"6118 W Tierra Buena Ln, Glendale, AZ 85306 ",85306,0.7639214098453522,0.8393709659576416,0.6412134516976167,199000,https://www.zillow.com/homedetails/6118-W-Tierra-Buena-Ln-Glendale-AZ-85306/8096943_zpid/,33.6295,-112.18700000000001,6529,2017-11-16
432541,22734473,"7113 W Sheila Ln, Phoenix, AZ 85033 ",85033,0.7449012398719788,0.85979363322258,0.6404613434215332,189000,https://www.zillow.com/homedetails/7113-W-Sheila-Ln-Phoenix-AZ-85033/55257199_zpid/,33.4878,-112.213,6485,2017-10-03
9026282,23865594,"9621 N 82nd Ln, Peoria, AZ 85345 ",85345,0.7131529152393341,0.8979878425598145,0.6404026477710119,205000,https://www.zillow.com/homedetails/9621-N-82nd-Ln-Peoria-AZ-85345/67710601_zpid/,33.5723,-112.236,6585,2018-01-11
450692,23753402,"8742 W Edgemont Ave, Phoenix, AZ 85037 ",85037,0.7510823607444763,0.8505928814411163,0.6388653094252401,190000,https://www.zillow.com/homedetails/8742-W-Edgemont-Ave-Phoenix-AZ-85037/7473770_zpid/,33.4794,-112.249,6494,2017-10-12
233636,23869963,"19201 N 21ST Ave, Phoenix, AZ 85027 ",85027,0.7126493155956268,0.8959973752498627,0.6385319162472927,220000,https://www.zillow.com/homedetails/19201-N-21st-Ave-Phoenix-AZ-85027/7970134_zpid/,33.6596,-112.105,6585,2018-01-11
8976262,22541368,"2918 E Nisbet Ct, Phoenix, AZ 85032 ",85032,0.7734864056110382,0.8254234492778778,0.6384538168890108,219500,https://www.zillow.com/homedetails/2918-E-Nisbet-Ct-Phoenix-AZ-85032/8011642_zpid/,33.6234,-112.01899999999999,6440,2017-08-19
9012224,23885680,"9301 W Glen Oaks Cir N, Sun City, AZ 85351 ",85351,0.7085505127906799,0.900610089302063,0.6381277405994368,244900,https://www.zillow.com/homedetails/9301-W-Glen-Oaks-Cir-N-Sun-City-AZ-85351/7923234_zpid/,33.6338,-112.26,6583,2018-01-09
381684,22380395,"3111 W Laurie Ln, Phoenix, AZ 85051 ",85051,0.7776631414890289,0.8175689578056335,0.6357932441110403,229900,https://www.zillow.com/homedetails/3111-W-Laurie-Ln-Phoenix-AZ-85051/7754882_zpid/,33.5587,-112.126,6403,2017-07-13
1113596,23885766,"1567 W Kesler Ln, Chandler, AZ 85224 ",85224,0.6775500178337097,0.9368686378002167,0.6347753622493801,245000,https://www.zillow.com/homedetails/1567-W-Kesler-Ln-Chandler-AZ-85224/8226104_zpid/,33.2918,-111.869,6596,2018-01-22
9025999,23861141,"9232 W Meadow Hills Dr, Sun City, AZ 85351 ",85351,0.7251263558864594,0.8749957084655762,0.634482449495934,241800,https://www.zillow.com/homedetails/9232-W-Meadow-Hills-Dr-Sun-City-AZ-85351/2091823839_zpid/,33.6111,-112.259,6553,2017-12-10
9006564,23814082,"16612 N 28th Way, Phoenix, AZ 85032 ",85032,0.7594780027866364,0.8352067172527313,0.6343211295330873,194900,https://www.zillow.com/homedetails/16612-N-28th-Way-Phoenix-AZ-85032/8005824_zpid/,33.6376,-112.021,6511,2017-10-29
9025461,23852787,"2114 W Monroe St, Phoenix, AZ 85009 ",85009,0.740436851978302,0.8542155027389526,0.6324926377590927,229900,https://www.zillow.com/homedetails/2114-W-Monroe-St-Phoenix-AZ-85009/7514471_zpid/,33.4505,-112.105,6550,2017-12-07
22933,22734467,"8739 W Fairmount Ave, Phoenix, AZ 85037 ",85037,0.7470931112766266,0.8455579876899719,0.6317105477881046,170000,https://www.zillow.com/homedetails/8739-W-Fairmount-Ave-Phoenix-AZ-85037/7471067_zpid/,33.492,-112.24799999999999,6485,2017-10-03
8989019,22747254,"2049 N 77th Gln, Phoenix, AZ 85035 ",85035,0.735319972038269,0.8578881621360779,0.6308222993938628,168250,https://www.zillow.com/homedetails/2049-N-77th-Gln-Phoenix-AZ-85035/95149994_zpid/,33.4706,-112.226,6487,2017-10-05
483971,22688771,"2734 N 73rd Gln, Phoenix, AZ 85035 ",85035,0.7421523630619049,0.848558783531189,0.6297599063946073,209900,https://www.zillow.com/homedetails/2734-N-73rd-Gln-Phoenix-AZ-85035/95167972_zpid/,33.4783,-112.21799999999999,6470,2017-09-18
650458,23872026,"2419 W Naranja Ave, Mesa, AZ 85202 ",85202,0.6726949214935303,0.9360004365444183,0.6296427401791576,218000,https://www.zillow.com/homedetails/2419-W-Naranja-Ave-Mesa-AZ-85202/8251330_zpid/,33.3643,-111.88600000000001,6603,2018-01-29
395130,23830853,"3719 W Joan De Arc Ave, Phoenix, AZ 85029 ",85029,0.7502538561820984,0.8390308022499084,0.6294860948435534,205900,https://www.zillow.com/homedetails/3719-W-Joan-De-Arc-Ave-Phoenix-AZ-85029/7741718_zpid/,33.607,-112.139,6526,2017-11-13
422357,23883112,"6612 W Brown St, Glendale, AZ 85302 ",85302,0.7519397139549255,0.8342280387878418,0.6272891928593083,199000,https://www.zillow.com/homedetails/6612-W-Brown-St-Glendale-AZ-85302/7706362_zpid/,33.5783,-112.20100000000001,6496,2017-10-14
8850973,23814108,"2525 E Michigan Ave, Phoenix, AZ 85032 ",85032,0.7583028078079224,0.8268775045871735,0.6270235334416618,225000,https://www.zillow.com/homedetails/2525-E-Michigan-Ave-Phoenix-AZ-85032/7999906_zpid/,33.6507,-112.027,6511,2017-10-29
832662,23884685,"4236 W Palo Verde Dr, Phoenix, AZ 85019 ",85019,0.692791610956192,0.9030463993549347,0.6256229697772939,219900,https://www.zillow.com/homedetails/4236-W-Palo-Verde-Dr-Phoenix-AZ-85019/7718989_zpid/,33.5232,-112.15100000000001,6576,2018-01-02
417420,23882392,"4809 W Laurie Ln, Glendale, AZ 85302 ",85302,0.703009843826294,0.8895075917243958,0.6253325931404703,243000,https://www.zillow.com/homedetails/4809-W-Laurie-Ln-Glendale-AZ-85302/7731926_zpid/,33.5587,-112.163,6556,2017-12-13
635106,23871182,"1835 S Yucca, Mesa, AZ 85202 ",85202,0.6775500178337097,0.9214893281459808,0.6243551107188825,225000,https://www.zillow.com/homedetails/1835-S-Yucca-Mesa-AZ-85202/8250862_zpid/,33.3818,-111.874,6599,2018-01-25
7520977,22428537,"7562 W Turquoise Ave, Peoria, AZ 85345 ",85345,0.7652884721755981,0.8156331479549408,0.6241946456542102,189900,https://www.zillow.com/homedetails/7562-W-Turquoise-Ave-Peoria-AZ-85345/7682178_zpid/,33.5747,-112.223,6327,2017-04-28
350009,23781671,"18518 N 20th Pl, Phoenix, AZ 85022 ",85022,0.7674789726734161,0.8122817873954773,0.6234091917116071,225000,https://www.zillow.com/homedetails/18518-N-20th-Pl-Phoenix-AZ-85022/61629214_zpid/,33.6544,-112.038,6286,2017-03-18
416064,23818791,"4416 W Turquoise Ave, Glendale, AZ 85302 ",85302,0.7588907182216644,0.8213380873203278,0.6233058509893317,249900,https://www.zillow.com/homedetails/4416-W-Turquoise-Ave-Glendale-AZ-85302/7729268_zpid/,33.5757,-112.154,6515,2017-11-02
1879274,23888645,"14647 N 87th Ave, Peoria, AZ 85381 ",85381,0.6813952326774597,0.9146665632724762,0.6232494357033413,249000,https://www.zillow.com/homedetails/14647-N-87th-Ave-Peoria-AZ-85381/8103174_zpid/,33.6178,-112.245,6596,2018-01-22
417610,23855747,"4832 W Beryl Ave, Glendale, AZ 85302 ",85302,0.7136264741420746,0.871822327375412,0.6221554935632527,217500,https://www.zillow.com/homedetails/4832-W-Beryl-Ave-Glendale-AZ-85302/7728604_zpid/,33.5797,-112.163,6557,2017-12-14
258476,23717515,"614 W Rosemonte Dr, Phoenix, AZ 85027 ",85027,0.7477699220180511,0.8306823968887329,0.6211593111432556,234900,https://www.zillow.com/homedetails/614-W-Rosemonte-Dr-Phoenix-AZ-85027/7968459_zpid/,33.657,-112.08200000000001,6494,2017-10-12
7389079,23836128,"12207 N Sun Valley Dr, Sun City, AZ 85351 ",85351,0.7837745845317841,0.791848748922348,0.6206309241986263,209900,https://www.zillow.com/homedetails/12207-N-Sun-Valley-Dr-Sun-City-AZ-85351/7686174_zpid/,33.5952,-112.271,6530,2017-11-17
561112,23847992,"1043 W Frito Ave, Mesa, AZ 85210 ",85210,0.6924116015434265,0.8956353962421417,0.6201483391110028,195000,https://www.zillow.com/homedetails/1043-W-Frito-Ave-Mesa-AZ-85210/7598695_zpid/,33.3951,-111.854,6543,2017-11-30
422985,23883576,"8419 N 58th Dr, Glendale, AZ 85302 ",85302,0.6879736185073853,0.9011268317699432,0.6199514871868637,225000,https://www.zillow.com/homedetails/8419-N-58th-Dr-Glendale-AZ-85302/7733078_zpid/,33.559,-112.185,6583,2018-01-09
1406612,23791492,"6765 N 74th Dr, Glendale, AZ 85303 ",85303,0.7734687030315399,0.8008380830287933,0.6194231934185455,210000,https://www.zillow.com/homedetails/6765-N-74th-Dr-Glendale-AZ-85303/14094753_zpid/,33.5349,-112.22,6283,2017-03-15
1466691,23869657,"17797 N 89TH Dr, Peoria, AZ 85382 ",85382,0.6684486269950867,0.926360696554184,0.6192245357138564,241500,https://www.zillow.com/homedetails/17797-N-89th-Dr-Peoria-AZ-85382/71616751_zpid/,33.6449,-112.251,6594,2018-01-20
8950822,21960213,"7406 W Eva St, Peoria, AZ 85345 ",85345,0.7652884721755981,0.8090023994445801,0.6191202102573357,185000,https://www.zillow.com/homedetails/7406-W-Eva-St-Peoria-AZ-85345/7702481_zpid/,33.5683,-112.21799999999999,6346,2017-05-17
441326,23862512,"3042 N 87TH Ave, Phoenix, AZ 85037 ",85037,0.6826840341091156,0.9068825542926788,0.619114240627705,199999,https://www.zillow.com/homedetails/3042-N-87th-Ave-Phoenix-AZ-85037/7479842_zpid/,33.483000000000004,-112.24700000000001,6578,2018-01-04
9026770,23893524,"1518 W Marlboro Dr, Chandler, AZ 85224 ",85224,0.6621995866298676,0.9346488416194916,0.6189240765645119,237500,https://www.zillow.com/homedetails/1518-W-Marlboro-Dr-Chandler-AZ-85224/8176555_zpid/,33.3476,-111.87,6591,2018-01-17
225959,23779726,"1502 E Taro Ln, Phoenix, AZ 85024 ",85024,0.7741396427154541,0.7994257807731628,0.6188671883052592,208500,https://www.zillow.com/homedetails/1502-E-Taro-Ln-Phoenix-AZ-85024/7995794_zpid/,33.6595,-112.05,6283,2017-03-15
2193730,23774667,"8021 W Roma Ave, Phoenix, AZ 85033 ",85033,0.7501687109470367,0.8244958817958832,0.6185110128279581,151000,http://www.zillow.com/homedetails/8021-W-Roma-Ave-Phoenix-AZ-85033/7481703_zpid/,33.5004,-112.23200000000001,6278,2017-03-10
9025829,23859165,"4109 E Winchcomb Dr, Phoenix, AZ 85032 ",85032,0.7649460434913635,0.8083062171936035,0.6183106427717178,185000,https://www.zillow.com/homedetails/4109-E-Winchcomb-Dr-Phoenix-AZ-85032/8030117_zpid/,33.617,-111.993,6558,2017-12-15
9020198,23867892,"17950 N 88th Ave, Peoria, AZ 85382 ",85382,0.6716334223747253,0.9203066229820251,0.6181086868275436,249000,https://www.zillow.com/homedetails/17950-N-88th-Ave-Peoria-AZ-85382/7898435_zpid/,33.6467,-112.24799999999999,6590,2018-01-16
493050,23849853,"5901 W Cypress St, Phoenix, AZ 85035 ",85035,0.6829595267772675,0.904479056596756,0.6177225884732698,184500,https://www.zillow.com/homedetails/5901-W-Cypress-St-Phoenix-AZ-85035/7491471_zpid/,33.4723,-112.18700000000001,6550,2017-12-07
9026621,23892869,"9601 W Oakstone Dr, Sun City, AZ 85351 ",85351,0.6935286521911621,0.8903182148933411,0.6174611915962203,184900,https://www.zillow.com/homedetails/9601-W-Oakstone-Dr-Sun-City-AZ-85351/7922239_zpid/,33.6156,-112.265,6577,2018-01-03
495328,23862682,"6239 W Encanto Blvd, Phoenix, AZ 85035 ",85035,0.683986246585846,0.9015694856643677,0.6166611285359025,153900,https://www.zillow.com/homedetails/6239-W-Encanto-Blvd-Phoenix-AZ-85035/7491160_zpid/,33.473,-112.195,6576,2018-01-02
249670,23881367,"418 E Taro Ln, Phoenix, AZ 85024 ",85024,0.6743921935558319,0.9138619601726532,0.6163013719280679,245000,https://www.zillow.com/homedetails/418-E-Taro-Ln-Phoenix-AZ-85024/7972390_zpid/,33.6595,-112.069,6592,2018-01-18
234640,23785215,"2751 W Acoma Dr, Phoenix, AZ 85053 ",85053,0.7795727252960205,0.7905347645282745,0.6162793408245548,210000,https://www.zillow.com/homedetails/2751-W-Acoma-Dr-Phoenix-AZ-85053/7942788_zpid/,33.6166,-112.12,6283,2017-03-15
1350982,23882685,"5854 W Morten Ave, Glendale, AZ 85301 ",85301,0.7021152973175049,0.8774269819259644,0.6160549062893494,179000,https://www.zillow.com/homedetails/5854-W-Morten-Ave-Glendale-AZ-85301/7726731_zpid/,33.5479,-112.186,6544,2017-12-01
243287,22690475,"3218 W Angela Dr, Phoenix, AZ 85053 ",85053,0.7469371259212494,0.8235590159893036,0.6151468044295827,209000,https://www.zillow.com/homedetails/3218-W-Angela-Dr-Phoenix-AZ-85053/7942085_zpid/,33.6461,-112.12899999999999,6470,2017-09-18
1078091,23885832,"2052 N Holguin Way, Chandler, AZ 85225 ",85225,0.6609059274196625,0.9297991693019867,0.6145097823015613,219000,https://www.zillow.com/homedetails/2052-N-Holguin-Way-Chandler-AZ-85225/60985138_zpid/,33.3362,-111.84899999999999,6593,2018-01-19
242590,22686911,"3202 W Angela Dr, Phoenix, AZ 85053 ",85053,0.7379342913627625,0.8327241837978363,0.6144957304714911,234900,https://www.zillow.com/homedetails/3202-W-Angela-Dr-Phoenix-AZ-85053/7942083_zpid/,33.6461,-112.12799999999999,6464,2017-09-12
389970,22302502,"2910 W Altadena Ave, Phoenix, AZ 85029 ",85029,0.7732732892036438,0.7941442430019379,0.6140905308882463,220000,https://www.zillow.com/homedetails/2910-W-Altadena-Ave-Phoenix-AZ-85029/7739875_zpid/,33.5927,-112.12200000000001,6401,2017-07-11
388897,23868744,"2421 W Willow Ave, Phoenix, AZ 85029 ",85029,0.6836484372615814,0.896974503993988,0.613215217918972,225000,https://www.zillow.com/homedetails/2421-W-Willow-Ave-Phoenix-AZ-85029/7738217_zpid/,33.6074,-112.111,6593,2018-01-19
7564801,23760240,"9711 W Alabama Ave, Sun City, AZ 85351 ",85351,0.7861276865005493,0.7799506187438965,0.6131407754978113,199900,https://www.zillow.com/homedetails/9711-W-Alabama-Ave-Sun-City-AZ-85351/7685981_zpid/,33.5933,-112.266,6502,2017-10-20
381077,23870349,"12217 N 30TH Ave, Phoenix, AZ 85029 ",85029,0.6825928092002869,0.8980693519115448,0.6130156817779824,239000,https://www.zillow.com/homedetails/12217-N-30th-Ave-Phoenix-AZ-85029/7747117_zpid/,33.5971,-112.12299999999999,6577,2018-01-03
495290,23854344,"6237 W Monte Vista Rd, Phoenix, AZ 85035 ",85035,0.6829595267772675,0.8975344598293304,0.6129797099513299,178900,https://www.zillow.com/homedetails/6237-W-Monte-Vista-Rd-Phoenix-AZ-85035/7491037_zpid/,33.4705,-112.194,6554,2017-12-11
261939,23881383,"5015 W Oraibi Dr, Glendale, AZ 85308 ",85308,0.6707965433597565,0.9134753942489624,0.6127561369063947,227500,https://www.zillow.com/homedetails/5015-W-Oraibi-Dr-Glendale-AZ-85308/7938097_zpid/,33.6641,-112.16799999999999,6593,2018-01-19
392024,23860589,"4134 W Linger Ln, Phoenix, AZ 85051 ",85051,0.6821566522121429,0.8969018161296844,0.6118275402540165,224900,https://www.zillow.com/homedetails/4134-W-Linger-Ln-Phoenix-AZ-85051/7755387_zpid/,33.5528,-112.148,6572,2017-12-29
9018879,23808777,"4021 W Roosevelt St, Phoenix, AZ 85009 ",85009,0.7277737259864807,0.840591698884964,0.6117605527308161,179990,https://www.zillow.com/homedetails/4021-W-Roosevelt-St-Phoenix-AZ-85009/2092569655_zpid/,33.4585,-112.147,6508,2017-10-26
7450958,21944041,"12172 N 86th Ln, Peoria, AZ 85345 ",85345,0.7733957767486572,0.7909429967403412,0.6117119733279068,215000,https://www.zillow.com/homedetails/12172-N-86th-Ln-Peoria-AZ-85345/7685390_zpid/,33.5947,-112.24600000000001,6289,2017-03-21
644742,23869677,"2222 W Peralta Ave, Mesa, AZ 85202 ",85202,0.6656728088855743,0.9185059368610382,0.6114244269683633,191000,https://www.zillow.com/homedetails/2222-W-Peralta-Ave-Mesa-AZ-85202/8171027_zpid/,33.3578,-111.882,6594,2018-01-20
233478,23794869,"19046 N 15TH Ave, Phoenix, AZ 85027 ",85027,0.7708455324172974,0.7931440770626068,0.6113915683669511,229900,https://www.zillow.com/homedetails/19046-N-15th-Ave-Phoenix-AZ-85027/7969522_zpid/,33.6598,-112.09200000000001,6504,2017-10-22
253834,23869443,"3833 W Waltann Ln, Phoenix, AZ 85053 ",85053,0.6753725111484528,0.9052062928676605,0.6113514471214136,229900,https://www.zillow.com/homedetails/3833-W-Waltann-Ln-Phoenix-AZ-85053/7945786_zpid/,33.6268,-112.14200000000001,6594,2018-01-20
476829,23864061,"1614 N 53rd Dr, Phoenix, AZ 85035 ",85035,0.6843684315681458,0.8922837972640991,0.6106508628473009,159000,https://www.zillow.com/homedetails/1614-N-53rd-Dr-Phoenix-AZ-85035/7493815_zpid/,33.4668,-112.175,6582,2018-01-08
1342993,23882377,"4510 W State Ave, Glendale, AZ 85301 ",85301,0.6727748513221741,0.9055882394313812,0.6092569931425569,189900,https://www.zillow.com/homedetails/4510-W-State-Ave-Glendale-AZ-85301/7725659_zpid/,33.5444,-112.156,6585,2018-01-11
9021060,23869431,"3522 W Michelle Dr, Glendale, AZ 85308 ",85308,0.6753725111484528,0.9017846584320068,0.6090405692803742,232500,https://www.zillow.com/homedetails/3522-W-Michelle-Dr-Glendale-AZ-85308/7947823_zpid/,33.6498,-112.135,6595,2018-01-21
1093584,23859955,"781 W Del Rio St, Chandler, AZ 85225 ",85225,0.6651318371295929,0.914910614490509,0.608536177825437,248900,https://www.zillow.com/homedetails/781-W-Del-Rio-St-Chandler-AZ-85225/8186554_zpid/,33.3158,-111.854,6565,2017-12-22
8107,23887040,"4213 W Renee Dr, Glendale, AZ 85308 ",85308,0.6682144403457642,0.910391092300415,0.6083364742372908,224900,https://www.zillow.com/homedetails/4213-W-Renee-Dr-Glendale-AZ-85308/2100694760_zpid/,33.655,-112.149,6599,2018-01-25
450552,22126108,"8733 W Indianola Ave, Phoenix, AZ 85037 ",85037,0.7470931112766266,0.8138663470745087,0.6080339413992375,169900,https://www.zillow.com/homedetails/8733-W-Indianola-Ave-Phoenix-AZ-85037/7470962_zpid/,33.4911,-112.24799999999999,6325,2017-04-26
416997,23870500,"4640 W Alice Ave, Glendale, AZ 85302 ",85302,0.6682144403457642,0.909906268119812,0.608012507718783,249000,https://www.zillow.com/homedetails/4640-W-Alice-Ave-Glendale-AZ-85302/7731430_zpid/,33.5658,-112.16,6598,2018-01-24
389915,23884704,"3942 W Northview Ave, Phoenix, AZ 85051 ",85051,0.6785325706005096,0.895712673664093,0.6077702229807525,209500,https://www.zillow.com/homedetails/3942-W-Northview-Ave-Phoenix-AZ-85051/7757824_zpid/,33.5444,-112.145,6573,2017-12-30
8946570,21960648,"7614 W Turquoise Ave, Peoria, AZ 85345 ",85345,0.7732291221618652,0.785215437412262,0.6071514433782284,219000,https://www.zillow.com/homedetails/7614-W-Turquoise-Ave-Peoria-AZ-85345/7682180_zpid/,33.5747,-112.223,6339,2017-05-10
627067,23856639,"1610 W 7th Ave, Mesa, AZ 85202 ",85202,0.6813404262065887,0.890956699848175,0.6070448176061713,218900,https://www.zillow.com/homedetails/1610-W-7th-Ave-Mesa-AZ-85202/7604416_zpid/,33.4024,-111.866,6560,2017-12-17
391768,23866394,"3152 W Shangri La Rd, Phoenix, AZ 85029 ",85029,0.6837320923805237,0.8873275816440582,0.6066943440244419,229999,https://www.zillow.com/homedetails/3152-W-Shangri-La-Rd-Phoenix-AZ-85029/7740605_zpid/,33.5881,-112.12799999999999,6577,2018-01-03
1672854,23885683,"9702 W Cottonwood Dr, Sun City, AZ 85373 ",85373,0.6679964959621429,0.9077918529510498,0.6064017768342822,179000,https://www.zillow.com/homedetails/9702-W-Cottonwood-Dr-Sun-City-AZ-85373/8095213_zpid/,33.6447,-112.27,6591,2018-01-17
1094985,23886129,"825 W Temple St, Chandler, AZ 85225 ",85225,0.6580445468425751,0.9205977916717529,0.605794356644914,230000,https://www.zillow.com/homedetails/825-W-Temple-St-Chandler-AZ-85225/8183622_zpid/,33.3326,-111.85700000000001,6591,2018-01-17
404226,23881205,"16412 N 49TH Dr, Glendale, AZ 85306 ",85306,0.6716334223747253,0.9019062519073486,0.6057503826296937,229900,https://www.zillow.com/homedetails/16412-N-49TH-Dr-Glendale-AZ-85306/7950964_zpid/,33.634,-112.165,6591,2018-01-17
387374,23860581,"3735 W Cochise Dr, Phoenix, AZ 85051 ",85051,0.6753586232662201,0.8963022828102112,0.6053254757490745,244900,https://www.zillow.com/homedetails/3735-W-Cochise-Dr-Phoenix-AZ-85051/7745459_zpid/,33.5803,-112.14,6572,2017-12-29
236208,23869860,"2919 W Libby St, Phoenix, AZ 85053 ",85053,0.6711916625499725,0.9018460214138031,0.6053115304768086,209000,https://www.zillow.com/homedetails/2919-W-Libby-St-Phoenix-AZ-85053/7940817_zpid/,33.6477,-112.12200000000001,6596,2018-01-22
256906,23870517,"609 W Beverly Ln, Phoenix, AZ 85023 ",85023,0.6631253063678741,0.9123547077178955,0.6050054950716017,219900,https://www.zillow.com/homedetails/609-W-Beverly-Ln-Phoenix-AZ-85023/7965493_zpid/,33.6333,-112.08200000000001,6598,2018-01-24
450526,23793670,"8731 W Earll Dr, Phoenix, AZ 85037 ",85037,0.742093563079834,0.8151392638683319,0.6049096007303234,149000,https://www.zillow.com/homedetails/8731-W-Earll-Dr-Phoenix-AZ-85037/7479986_zpid/,33.4833,-112.24799999999999,6284,2017-03-16
405641,23865434,"4810 W Paradise Ln, Glendale, AZ 85306 ",85306,0.6716334223747253,0.8996007144451141,0.60420190661352,230000,https://www.zillow.com/homedetails/4810-W-Paradise-Ln-Glendale-AZ-85306/7951146_zpid/,33.6326,-112.162,6586,2018-01-12
1090754,23886112,"649 W Ivanhoe St, Chandler, AZ 85225 ",85225,0.6883692741394043,0.8768211901187897,0.6035767661921199,190000,https://www.zillow.com/homedetails/649-W-Ivanhoe-St-Chandler-AZ-85225/8189345_zpid/,33.3174,-111.851,6536,2017-11-23
1357376,23883408,"7648 N 46th Ave, Glendale, AZ 85301 ",85301,0.684039443731308,0.8821666836738586,0.603436807578559,240000,https://www.zillow.com/homedetails/7648-N-46th-Ave-Glendale-AZ-85301/7725091_zpid/,33.5494,-112.15799999999999,6571,2017-12-28
413085,21986995,"5754 W Shangri La Rd, Glendale, AZ 85304 ",85304,0.7741202414035797,0.7789599299430847,0.6030086490112563,227500,https://www.zillow.com/homedetails/5754-W-Shangri-La-Rd-Glendale-AZ-85304/7736186_zpid/,33.586999999999996,-112.18299999999999,6311,2017-04-12
391845,23866465,"4128 W Frier Dr, Phoenix, AZ 85051 ",85051,0.6764087677001953,0.8911989629268646,0.6028147922890525,229900,https://www.zillow.com/homedetails/4128-W-Frier-Dr-Phoenix-AZ-85051/7755554_zpid/,33.5496,-112.148,6579,2018-01-05
408348,23882790,"6139 W Nancy Rd, Glendale, AZ 85306 ",85306,0.6672670543193817,0.903386116027832,0.6027997925549187,220000,https://www.zillow.com/homedetails/6139-W-Nancy-Rd-Glendale-AZ-85306/8096881_zpid/,33.6286,-112.19200000000001,6600,2018-01-26
7436448,23881415,"757 E Rosemonte Dr, Phoenix, AZ 85024 ",85024,0.6616758108139038,0.910805344581604,0.6026578648696699,245900,https://www.zillow.com/homedetails/757-E-Rosemonte-Dr-Phoenix-AZ-85024/7997447_zpid/,33.6568,-112.06299999999999,6596,2018-01-22
9023070,23870107,"2024 E Villa Theresa Dr, Phoenix, AZ 85022 ",85022,0.659256249666214,0.9140048921108246,0.6025634373495548,235000,https://www.zillow.com/homedetails/2024-E-Villa-Theresa-Dr-Phoenix-AZ-85022/8000570_zpid/,33.6544,-112.039,6597,2018-01-23
411581,22708161,"5226 W Eugie Ave, Glendale, AZ 85304 ",85304,0.747853547334671,0.8043911457061768,0.6015667717609645,220000,https://www.zillow.com/homedetails/5226-W-Eugie-Ave-Glendale-AZ-85304/7911821_zpid/,33.608000000000004,-112.17200000000001,6473,2017-09-21
9022109,23869628,"13037 N 56TH Ave, Glendale, AZ 85304 ",85304,0.6627755463123322,0.907406210899353,0.601406647156022,242000,https://www.zillow.com/homedetails/13037-N-56th-Ave-Glendale-AZ-85304/7896749_zpid/,33.6024,-112.177,6595,2018-01-21
1349271,23882555,"5556 W Gardenia Ave, Glendale, AZ 85301 ",85301,0.6597066521644592,0.9114867746829987,0.6013138886183018,173900,https://www.zillow.com/homedetails/5556-W-Gardenia-Ave-Glendale-AZ-85301/2136646466_zpid/,33.5451,-112.18,6601,2018-01-27
7652,23868185,"18611 N 22ND St LOT 44, Phoenix, AZ 85024 ",85024,0.6608292162418365,0.9086114764213562,0.6004370098318628,219000,https://www.zillow.com/homedetails/18611-N-22nd-St-LOT-44-Phoenix-AZ-85024/11884597_zpid/,33.6568,-112.03299999999999,6589,2018-01-15
1370662,23883178,"6798 N 87th Ln, Glendale, AZ 85305 ",85305,0.6505999565124512,0.9228559732437134,0.6004100560596157,247900,https://www.zillow.com/homedetails/6798-N-87th-Ln-Glendale-AZ-85305/95111567_zpid/,33.5346,-112.24799999999999,6598,2018-01-24
419794,23856376,"5539 W Hatcher Rd, Glendale, AZ 85302 ",85302,0.6649501919746399,0.902784526348114,0.6003067441069128,204999,https://www.zillow.com/homedetails/5539-W-Hatcher-Rd-Glendale-AZ-85302/7734771_zpid/,33.5705,-112.179,6559,2017-12-16
9005657,23871977,"10439 W Papago St, Tolleson, AZ 85353 ",85353,0.6393081843852997,0.9387919902801514,0.6001774028214655,220000,https://www.zillow.com/homedetails/10439-W-Papago-St-Tolleson-AZ-85353/125986296_zpid/,33.4338,-112.24600000000001,6603,2018-01-29
388525,23864545,"2330 W Columbine Dr, Phoenix, AZ 85029 ",85029,0.6668412089347839,0.8999696969985962,0.6001368807512151,199900,https://www.zillow.com/homedetails/2330-W-Columbine-Dr-Phoenix-AZ-85029/7738746_zpid/,33.5996,-112.109,6584,2018-01-10
224193,23881963,"14214 N 27th Dr, Phoenix, AZ 85053 ",85053,0.6803520023822784,0.882077544927597,0.6001232239479348,247000,https://www.zillow.com/homedetails/14214-N-27th-Dr-Phoenix-AZ-85053/7942965_zpid/,33.6147,-112.118,6591,2018-01-17
8995212,23864024,"13428 N Hawthorn Dr, Sun City, AZ 85351 ",85351,0.6611209809780121,0.9072055816650391,0.5997726440991187,139800,https://www.zillow.com/homedetails/13428-N-Hawthorn-Dr-Sun-City-AZ-85351/7914831_zpid/,33.6063,-112.274,6580,2018-01-06
410753,23870506,"4934 W Becker Ln, Glendale, AZ 85304 ",85304,0.6696912348270416,0.8954935073852539,0.5997041527404292,233730,https://www.zillow.com/homedetails/4934-W-Becker-Ln-Glendale-AZ-85304/67083499_zpid/,33.5826,-112.166,6598,2018-01-24
257719,23869968,"919 W Anderson Dr, Phoenix, AZ 85023 ",85023,0.6631253063678741,0.9043006896972656,0.5996646719041792,155000,https://www.zillow.com/homedetails/919-W-Anderson-Dr-Phoenix-AZ-85023/7963528_zpid/,33.6429,-112.086,6591,2018-01-17
1990166,23862524,"3227 W Corrine Dr, Phoenix, AZ 85029 ",85029,0.6714279353618622,0.8921426832675934,0.599009519874552,180000,https://www.zillow.com/homedetails/3227-W-Corrine-Dr-Phoenix-AZ-85029/7747533_zpid/,33.6005,-112.12799999999999,6578,2018-01-04
243119,22391945,"18226 N 10th Dr, Phoenix, AZ 85023 ",85023,0.7528257369995117,0.7955636382102966,0.5989207822656795,225000,https://www.zillow.com/homedetails/18226-N-10th-Dr-Phoenix-AZ-85023/7956715_zpid/,33.652,-112.086,6401,2017-07-11
9026899,23893911,"1318 W Boxelder Ct, Chandler, AZ 85224 ",85224,0.6398846805095673,0.935640424489975,0.5987019740966035,239900,https://www.zillow.com/homedetails/1318-W-Boxelder-Ct-Chandler-AZ-85224/8172413_zpid/,33.3542,-111.865,6604,2018-01-30
1108948,23885722,"1169 W Nopal Pl, Chandler, AZ 85224 ",85224,0.6410292088985443,0.9338987767696381,0.5986563940639593,244900,https://www.zillow.com/homedetails/1169-W-Nopal-Pl-Chandler-AZ-85224/8175911_zpid/,33.341,-111.86200000000001,6602,2018-01-28
9026101,23869917,"9032 W Marco Polo Rd, Peoria, AZ 85382 ",85382,0.6645265817642212,0.9004297852516174,0.5983595273119491,235000,https://www.zillow.com/homedetails/9032-W-Marco-Polo-Rd-Peoria-AZ-85382/8101657_zpid/,33.6651,-112.25299999999999,6596,2018-01-22
337751,23867585,"14407 N 23RD St, Phoenix, AZ 85022 ",85022,0.6596302688121796,0.9068118929862976,0.5981605727326329,219000,https://www.zillow.com/homedetails/14407-N-23rd-St-Phoenix-AZ-85022/8010507_zpid/,33.618,-112.03399999999999,6590,2018-01-16
9025882,23869744,"7140 W Desert Cove Ave, Peoria, AZ 85345 ",85345,0.6538868844509125,0.9147591292858124,0.5981489970717293,234900,https://www.zillow.com/homedetails/7140-W-Desert-Cove-Ave-Peoria-AZ-85345/7701093_zpid/,33.585,-112.213,6595,2018-01-21
254794,23872042,"306 W Kings Ave, Phoenix, AZ 85023 ",85023,0.655056893825531,0.9128492772579193,0.5979682120914536,219900,https://www.zillow.com/homedetails/306-W-Kings-Ave-Phoenix-AZ-85023/7965343_zpid/,33.6358,-112.079,6603,2018-01-29
232166,23881215,"17833 N 35th Ave, Phoenix, AZ 85053 ",85053,0.6649804413318634,0.8989610970020294,0.5977915470245856,234900,https://www.zillow.com/homedetails/17833-N-35th-Ave-Phoenix-AZ-85053/7941359_zpid/,33.6484,-112.134,6593,2018-01-19
396390,23870156,"3924 W Sunnyside Ave, Phoenix, AZ 85029 ",85029,0.6592775583267212,0.9064527153968811,0.5976039329454821,215000,https://www.zillow.com/homedetails/3924-W-Sunnyside-Ave-Phoenix-AZ-85029/7744517_zpid/,33.5926,-112.14399999999999,6597,2018-01-23
405534,23869882,"4734 W Beverly Ln, Glendale, AZ 85306 ",85306,0.6684486269950867,0.8938528001308441,0.5974946769831764,245000,https://www.zillow.com/homedetails/4734-W-Beverly-Ln-Glendale-AZ-85306/7951184_zpid/,33.6331,-112.161,6596,2018-01-22
222670,23871974,"1018 W Anderson Dr, Phoenix, AZ 85023 ",85023,0.655056893825531,0.9119881987571716,0.5974041566834138,198000,https://www.zillow.com/homedetails/1018-W-Anderson-Dr-Phoenix-AZ-85023/7963545_zpid/,33.6432,-112.087,6603,2018-01-29
9016481,23867228,"7401 W Jenan Dr, Peoria, AZ 85345 ",85345,0.6538868844509125,0.9136073291301727,0.597395850056448,240000,https://www.zillow.com/homedetails/7401-W-Jenan-Dr-Peoria-AZ-85345/7700306_zpid/,33.5916,-112.21799999999999,6589,2018-01-15
420581,23882618,"5810 W Alice Ave, Glendale, AZ 85302 ",85302,0.6518197059631348,0.9164955914020538,0.597389886904196,234500,https://www.zillow.com/homedetails/5810-W-Alice-Ave-Glendale-AZ-85302/7733216_zpid/,33.5645,-112.185,6590,2018-01-16
312249,23814876,"1433 S 14th Ave, Phoenix, AZ 85007 ",85007,0.7218621969223022,0.8270995914936066,0.5970519281891136,174900,https://www.zillow.com/homedetails/1433-S-14th-Ave-Phoenix-AZ-85007/7500688_zpid/,33.4338,-112.09,6511,2017-10-29
227559,23843808,"15221 N 28TH Dr, Phoenix, AZ 85053 ",85053,0.690496563911438,0.8643748164176941,0.5968478406679978,209900,https://www.zillow.com/homedetails/15221-N-28th-Dr-Phoenix-AZ-85053/7942595_zpid/,33.6243,-112.119,6542,2017-11-29
385542,23862282,"1634 W Andorra Dr, Phoenix, AZ 85029 ",85029,0.665019690990448,0.897107869386673,0.5965943980846244,235000,https://www.zillow.com/homedetails/1634-W-Andorra-Dr-Phoenix-AZ-85029/7784245_zpid/,33.6066,-112.095,6577,2018-01-03
399114,23882306,"9635 N 35th Ln, Phoenix, AZ 85051 ",85051,0.6627755463123322,0.8997268080711365,0.5963169267511983,219900,https://www.zillow.com/homedetails/9635-N-35th-Ln-Phoenix-AZ-85051/7745690_zpid/,33.5745,-112.135,6600,2018-01-26
9029088,23901723,"6838 W Ocotilla Ln, Peoria, AZ 85345 ",85345,0.6538868844509125,0.9114875793457031,0.5960097734740657,234700,https://www.zillow.com/homedetails/6838-W-Ocotilla-Ln-Peoria-AZ-85345/7702531_zpid/,33.5739,-112.20700000000001,6600,2018-01-26
9023482,23827286,"15606 N 99th Dr, Sun City, AZ 85351 ",85351,0.708661288022995,0.8400916159152985,0.5953404065918546,192500,https://www.zillow.com/homedetails/15606-N-99th-Dr-Sun-City-AZ-85351/2092083796_zpid/,33.6257,-112.271,6526,2017-11-13
9028387,23899014,"18801 N 43RD Dr, Glendale, AZ 85308 ",85308,0.652821809053421,0.9117970764636993,0.5952410169466527,219900,https://www.zillow.com/homedetails/18801-N-43RD-Dr-Glendale-AZ-85308/7938742_zpid/,33.6573,-112.15299999999999,6603,2018-01-29
390730,23871064,"4032 W North Ln, Phoenix, AZ 85051 ",85051,0.6627755463123322,0.8981013596057892,0.5952396192565752,183900,https://www.zillow.com/homedetails/4032-W-North-Ln-Phoenix-AZ-85051/7746045_zpid/,33.5817,-112.146,6599,2018-01-25
423604,23883734,"8812 N 57th Dr, Glendale, AZ 85302 ",85302,0.6473287045955658,0.9194583594799042,0.5951917887716904,239000,https://www.zillow.com/homedetails/8812-N-57th-Dr-Glendale-AZ-85302/7733242_zpid/,33.5658,-112.18299999999999,6603,2018-01-29
343269,23875648,"2230 S 63rd Dr, Phoenix, AZ 85043 ",85043,0.6393081843852997,0.9308933615684509,0.5951277448406547,195000,https://www.zillow.com/homedetails/2230-S-63rd-Dr-Phoenix-AZ-85043/55257493_zpid/,33.4273,-112.196,6592,2018-01-18
359526,23874541,"2429 S 83rd Dr, Tolleson, AZ 85353 ",85353,0.6339748203754425,0.937903106212616,0.5946069532907128,209999,https://www.zillow.com/homedetails/2429-S-83rd-Dr-Tolleson-AZ-85353/59271229_zpid/,33.4258,-112.23899999999999,6600,2018-01-26
397462,23865059,"4040 W Desert Cove Ave, Phoenix, AZ 85029 ",85029,0.6621755659580231,0.8978325724601746,0.5945227918043638,224900,https://www.zillow.com/homedetails/4040-W-Desert-Cove-Ave-Phoenix-AZ-85029/7744743_zpid/,33.5857,-112.146,6585,2018-01-11
424465,23883752,"9239 N 63RD Dr, Glendale, AZ 85302 ",85302,0.6572205722332001,0.9041627049446106,0.594234330335615,199000,https://www.zillow.com/homedetails/9239-N-63RD-Dr-Glendale-AZ-85302/7703659_zpid/,33.5709,-112.195,6599,2018-01-25
559333,23871337,"1223 W 6TH Ave, Mesa, AZ 85202 ",85202,0.6533757448196411,0.9090580642223358,0.5939564897955698,199900,https://www.zillow.com/homedetails/1223-W-6th-Ave-Mesa-AZ-85202/7604271_zpid/,33.4035,-111.85799999999999,6576,2018-01-02
1346544,23849829,"4852 W Frier Dr, Glendale, AZ 85301 ",85301,0.6683292388916016,0.8884626924991608,0.5937855950615472,229900,https://www.zillow.com/homedetails/4852-W-Frier-Dr-Glendale-AZ-85301/7724567_zpid/,33.5494,-112.164,6550,2017-12-07
152639,23860420,"1133 N Granite Reef Rd, Scottsdale, AZ 85257 ",85257,0.6823990643024445,0.869714230298996,0.5934921769665555,139500,https://www.zillow.com/homedetails/1133-N-Granite-Reef-Rd-Scottsdale-AZ-85257/7577718_zpid/,33.4606,-111.9,6546,2017-12-03
420094,23882574,"5653 W Cochise Dr, Glendale, AZ 85302 ",85302,0.6515650749206543,0.9107452929019928,0.5934098250033202,229900,https://www.zillow.com/homedetails/5653-W-Cochise-Dr-Glendale-AZ-85302/7735285_zpid/,33.5798,-112.182,6600,2018-01-26
423069,23883604,"8502 N 54th Dr, Glendale, AZ 85302 ",85302,0.65290567278862,0.9086707234382629,0.5932762700297811,199900,https://www.zillow.com/homedetails/8502-N-54th-Dr-Glendale-AZ-85302/7733696_zpid/,33.5606,-112.177,6601,2018-01-27
400713,23840251,"10843 N 45TH Ln, Glendale, AZ 85304 ",85304,0.694038987159729,0.8535184562206268,0.5923750848774993,220000,https://www.zillow.com/homedetails/10843-N-45th-Ln-Glendale-AZ-85304/7727914_zpid/,33.5861,-112.156,6534,2017-11-21
1859,23868513,"9128 W Alvarado St, Phoenix, AZ 85037 ",85037,0.641377329826355,0.9232005178928375,0.5921198830604162,210000,https://www.zillow.com/homedetails/9128-W-Alvarado-St-Phoenix-AZ-85037/60047210_zpid/,33.4712,-112.257,6592,2018-01-18
225987,23864034,"1415 W Renee Dr, Phoenix, AZ 85027 ",85027,0.664403647184372,0.8908823728561401,0.591905497737887,239999,https://www.zillow.com/homedetails/1415-W-Renee-Dr-Phoenix-AZ-85027/7969101_zpid/,33.6549,-112.09,6582,2018-01-08
408459,23882897,"6211 W Carol Ann Way, Glendale, AZ 85306 ",85306,0.6561957001686096,0.9019462764263153,0.5918532683740363,185000,https://www.zillow.com/homedetails/6211-W-Carol-Ann-Way-Glendale-AZ-85306/8096840_zpid/,33.6279,-112.193,6592,2018-01-18
355785,23869967,"620 E Anderson Ave, Phoenix, AZ 85022 ",85022,0.6538371443748474,0.9036818742752075,0.5908607760994116,215000,https://www.zillow.com/homedetails/620-E-Anderson-Ave-Phoenix-AZ-85022/7959431_zpid/,33.6434,-112.066,6593,2018-01-19
1406510,23868833,"6760 N 77th Ave, Glendale, AZ 85303 ",85303,0.6398281753063202,0.923448771238327,0.5908485422902823,195000,https://www.zillow.com/homedetails/6760-N-77th-Ave-Glendale-AZ-85303/7463200_zpid/,33.5359,-112.225,6593,2018-01-19
1413295,23883326,"7305 W Lamar Rd, Glendale, AZ 85303 ",85303,0.6446985006332397,0.9161653518676758,0.5906504286812151,239900,https://www.zillow.com/homedetails/7305-W-Lamar-Rd-Glendale-AZ-85303/7706962_zpid/,33.535,-112.21600000000001,6603,2018-01-29
9027830,23896993,"4149 E Hartford Ave, Phoenix, AZ 85032 ",85032,0.6599916219711304,0.8949079811573029,0.5906317699989181,174550,https://www.zillow.com/homedetails/4149-E-Hartford-Ave-Phoenix-AZ-85032/8018351_zpid/,33.6449,-111.991,6601,2018-01-27
9024480,23868335,"17622 N 18th Dr, Phoenix, AZ 85023 ",85023,0.6542413532733917,0.9015509784221649,0.5898319321678676,217000,https://www.zillow.com/homedetails/17622-N-18th-Dr-Phoenix-AZ-85023/7958450_zpid/,33.6465,-112.098,6592,2018-01-18
351094,23879416,"1925 E Wagoner Rd, Phoenix, AZ 85022 ",85022,0.6578971743583679,0.8964381217956543,0.5897641073164834,220000,https://www.zillow.com/homedetails/1925-E-Wagoner-Rd-Phoenix-AZ-85022/8001511_zpid/,33.6533,-112.041,6592,2018-01-18
1414405,23883372,"7358 W Peppertree Ln, Glendale, AZ 85303 ",85303,0.6446985006332397,0.9141595661640167,0.5893573016454745,242000,https://www.zillow.com/homedetails/7358-W-Peppertree-Ln-Glendale-AZ-85303/50188040_zpid/,33.5376,-112.21700000000001,6600,2018-01-26
415221,23870604,"10031 N 65TH Ln, Glendale, AZ 85302 ",85302,0.6456063091754913,0.9123901724815369,0.589044851783795,205000,https://www.zillow.com/homedetails/10031-N-65th-Ln-Glendale-AZ-85302/7706565_zpid/,33.5772,-112.2,6591,2018-01-17
381604,23884452,"3036 W Northview Ave, Phoenix, AZ 85051 ",85051,0.6508817374706268,0.9049853980541229,0.5890384682710144,245000,https://www.zillow.com/homedetails/3036-W-Northview-Ave-Phoenix-AZ-85051/7756072_zpid/,33.5432,-112.125,6579,2018-01-05
8991642,23869584,"9253 W Gold Dust Ave, Peoria, AZ 85345 ",85345,0.6526755392551422,0.9015631675720215,0.5884282265676433,215000,https://www.zillow.com/homedetails/9253-W-Gold-Dust-Ave-Peoria-AZ-85345/7697589_zpid/,33.5765,-112.26,6589,2018-01-15
398310,23882186,"4145 W Columbine Dr, Phoenix, AZ 85029 ",85029,0.6397520005702972,0.9197253584861755,0.5883961380667646,219500,https://www.zillow.com/homedetails/4145-W-Columbine-Dr-Phoenix-AZ-85029/7742567_zpid/,33.5994,-112.148,6602,2018-01-28
247778,23865817,"2831 W GROVERS Ave Phoenix, AZ 85053",85053,0.6515650749206543,0.9025231301784515,0.5880525509323462,219900,https://www.redfin.com/AZ/Phoenix/2831-W-Grovers-Ave-85053/home/26864793,33.6178,-112.133,6587,2018-01-13
401933,23870941,"14609 N 60TH Ave, Glendale, AZ 85306 ",85306,0.6484540402889252,0.9068074524402618,0.5880229562989951,249000,https://www.zillow.com/homedetails/14609-N-60th-Ave-Glendale-AZ-85306/8098901_zpid/,33.6174,-112.18700000000001,6600,2018-01-26
407695,23882690,"5912 W Evans Dr, Glendale, AZ 85306 ",85306,0.6484540402889252,0.9061968326568604,0.5876269974333681,217000,https://www.zillow.com/homedetails/5912-W-Evans-Dr-Glendale-AZ-85306/8098897_zpid/,33.6173,-112.18700000000001,6586,2018-01-12
1357833,23883542,"7783 N 58TH Ave, Glendale, AZ 85301 ",85301,0.6460398435592651,0.9090451598167419,0.5872793928363151,219900,https://www.zillow.com/homedetails/7783-N-58TH-Ave-Glendale-AZ-85301/62728699_zpid/,33.5502,-112.18299999999999,6605,2018-01-31
8992552,23882752,"6029 W Mary Jane Ln, Glendale, AZ 85306 ",85306,0.7722111344337463,0.7604115307331085,0.5871982507839153,239000,https://www.zillow.com/homedetails/6029-W-Mary-Jane-Ln-Glendale-AZ-85306/8097193_zpid/,33.6273,-112.189,6493,2017-10-11
9001872,23877725,"3034 N 71st Dr, Phoenix, AZ 85033 ",85033,0.6454254686832428,0.9093504548072815,0.5869179434913097,219900,https://www.zillow.com/homedetails/3034-N-71st-Dr-Phoenix-AZ-85033/7468971_zpid/,33.4834,-112.213,6599,2018-01-25
1409526,23883258,"7001 N 77th Ave, Glendale, AZ 85303 ",85303,0.6470361649990082,0.9068307280540466,0.5867522765833488,164900,https://www.zillow.com/homedetails/7001-N-77th-Ave-Glendale-AZ-85303/7684833_zpid/,33.5382,-112.22399999999999,6577,2018-01-03
9020278,23871099,"642 E Piping Rock Rd, Phoenix, AZ 85022 ",85022,0.6489651799201965,0.9038812220096588,0.5865874398679853,248000,https://www.zillow.com/homedetails/642-E-Piping-Rock-Rd-Phoenix-AZ-85022/7963227_zpid/,33.6144,-112.066,6600,2018-01-26
359312,23869360,"2024 S 85TH Ln, Tolleson, AZ 85353 ",85353,0.6227524280548096,0.9413284659385681,0.5862145877603524,185000,https://www.zillow.com/homedetails/2024-S-85th-Ln-Tolleson-AZ-85353/59271383_zpid/,33.4284,-112.244,6595,2018-01-21
527415,23868869,"9437 W Terri Lee Dr, Phoenix, AZ 85037 ",85037,0.641377329826355,0.913427472114563,0.5858516730548757,199500,https://www.zillow.com/homedetails/9437-W-Terri-Lee-Dr-Phoenix-AZ-85037/67764458_zpid/,33.4667,-112.264,6593,2018-01-19
42085,23875714,"6538 W Hughes Dr, Phoenix, AZ 85043 ",85043,0.6282183229923248,0.9323793947696686,0.5857378197748,184990,https://www.zillow.com/homedetails/6538-W-Hughes-Dr-Phoenix-AZ-85043/62727379_zpid/,33.4258,-112.20200000000001,6591,2018-01-17
252890,23882066,"2420 W Redfield Rd, Phoenix, AZ 85023 ",85023,0.6501482427120209,0.9008840024471283,0.5857081510783724,235000,https://www.zillow.com/homedetails/2420-W-Redfield-Rd-Phoenix-AZ-85023/7961848_zpid/,33.6141,-112.111,6605,2018-01-31
9022216,23869757,"8333 W Watkins St, Tolleson, AZ 85353 ",85353,0.6227524280548096,0.9405042231082916,0.585701288536491,190000,https://www.zillow.com/homedetails/8333-W-Watkins-St-Tolleson-AZ-85353/54886336_zpid/,33.4265,-112.24,6594,2018-01-20
414824,23883071,"6604 W Mercer Ln, Glendale, AZ 85304 ",85304,0.6426129341125488,0.9107792675495148,0.5852785374488718,204500,https://www.zillow.com/homedetails/6604-W-Mercer-Ln-Glendale-AZ-85304/7698731_zpid/,33.5846,-112.2,6595,2018-01-21
419756,23870015,"5532 W Loma Ln, Glendale, AZ 85302 ",85302,0.655590683221817,0.8925575911998749,0.5851524410295452,185000,https://www.zillow.com/homedetails/5532-W-Loma-Ln-Glendale-AZ-85302/7737959_zpid/,33.5541,-112.179,6583,2018-01-09
1851930,23885755,"1315 W Manor St, Chandler, AZ 85224 ",85224,0.6260826885700226,0.9339966177940369,0.5847591135837984,247500,https://www.zillow.com/homedetails/1315-W-Manor-St-Chandler-AZ-85224/8194266_zpid/,33.328,-111.86399999999999,6605,2018-01-31
435965,23872021,"2237 N 94th Ave, Phoenix, AZ 85037 ",85037,0.6493937969207764,0.9001253247261047,0.5845358023284319,224000,https://www.zillow.com/homedetails/2237-N-94th-Ave-Phoenix-AZ-85037/67773064_zpid/,33.4752,-112.26100000000001,6602,2018-01-28
244592,23872363,"1941 W Faria Ln, Phoenix, AZ 85023 ",85023,0.6380559504032135,0.9156728088855743,0.5842504843318652,194000,https://www.zillow.com/homedetails/1941-W-Faria-Ln-Phoenix-AZ-85023/81954546_zpid/,33.6312,-112.101,6605,2018-01-31
447841,23877841,"8329 W Mulberry Dr, Phoenix, AZ 85037 ",85037,0.6337131857872009,0.9219291806221008,0.5842386781222153,175000,https://www.zillow.com/homedetails/8329-W-Mulberry-Dr-Phoenix-AZ-85037/7470394_zpid/,33.486,-112.23899999999999,6597,2018-01-23
1357797,23883517,"7780 N 58th Dr, Glendale, AZ 85301 ",85301,0.6406210958957672,0.9103323817253113,0.5831781280102728,205000,https://www.zillow.com/homedetails/7780-N-58th-Dr-Glendale-AZ-85301/62728686_zpid/,33.5501,-112.184,6605,2018-01-31
329110,23884405,"2334 W Rose Ln, Phoenix, AZ 85015 ",85015,0.68079873919487,0.8564606010913849,0.5830772973930953,199900,https://www.zillow.com/homedetails/2334-W-Rose-Ln-Phoenix-AZ-85015/7772689_zpid/,33.5279,-112.11,6547,2017-12-04
1413599,23870195,"7315 W Midway Ave, Glendale, AZ 85303 ",85303,0.633754163980484,0.9198802411556244,0.5829779331957488,203000,https://www.zillow.com/homedetails/7315-W-Midway-Ave-Glendale-AZ-85303/95160837_zpid/,33.541,-112.21600000000001,6597,2018-01-23
523165,23877895,"9022 W Whitton Ave, Phoenix, AZ 85037 ",85037,0.6443409621715546,0.9046300649642944,0.5828902064684094,229900,https://www.zillow.com/homedetails/9022-W-Whitton-Ave-Phoenix-AZ-85037/7470779_zpid/,33.4879,-112.25399999999999,6600,2018-01-26
337572,23850351,"2307 W Alice Ave, Phoenix, AZ 85021 ",85021,0.6841782033443451,0.8518551588058472,0.5828207320613963,211900,https://www.zillow.com/homedetails/2307-W-Alice-Ave-Phoenix-AZ-85021/7782260_zpid/,33.5637,-112.109,6551,2017-12-08
1370392,23883185,"6654 N 84TH Ln, Glendale, AZ 85305 ",85305,0.6373178660869598,0.9143299162387848,0.582718791116771,220000,https://www.zillow.com/homedetails/6654-N-84TH-Ln-Glendale-AZ-85305/7461308_zpid/,33.5331,-112.24,6604,2018-01-30
1416563,23872427,"7608 W Peck Dr, Glendale, AZ 85303 ",85303,0.6320956945419312,0.9213185906410217,0.5823615144456298,249900,https://www.zillow.com/homedetails/7608-W-Peck-Dr-Glendale-AZ-85303/95094058_zpid/,33.5268,-112.22399999999999,6605,2018-01-31
435996,23877686,"2241 N 95th Ave, Phoenix, AZ 85037 ",85037,0.6493937969207764,0.8962646722793579,0.5820287185774475,199999,https://www.zillow.com/homedetails/2241-N-95th-Ave-Phoenix-AZ-85037/62727163_zpid/,33.476,-112.264,6600,2018-01-26
958181,23885961,"3473 W Barcelona Dr, Chandler, AZ 85226 ",85226,0.6233556568622589,0.9328890740871429,0.5815216815572155,209000,https://www.zillow.com/homedetails/3473-W-Barcelona-Dr-Chandler-AZ-85226/8263797_zpid/,33.3222,-111.902,6604,2018-01-30
337615,23862924,"2310 W Echo Ln, Phoenix, AZ 85021 ",85021,0.6669615507125854,0.8717568516731262,0.5814283016362296,190000,https://www.zillow.com/homedetails/2310-W-Echo-Ln-Phoenix-AZ-85021/7782737_zpid/,33.5598,-112.109,6558,2017-12-15
384323,23864506,"1344 W Joan De Arc Ave, Phoenix, AZ 85029 ",85029,0.6472961604595184,0.8981277942657471,0.5813546728301944,210000,https://www.zillow.com/homedetails/1344-W-Joan-De-Arc-Ave-Phoenix-AZ-85029/7784468_zpid/,33.6078,-112.089,6584,2018-01-10
9026261,23865254,"2153 W Joan De Arc Ave, Phoenix, AZ 85029 ",85029,0.6473218500614166,0.8977023959159851,0.5811023757289018,195000,https://www.zillow.com/homedetails/2153-W-Joan-De-Arc-Ave-Phoenix-AZ-85029/7749859_zpid/,33.6072,-112.10600000000001,6585,2018-01-11
227332,23881178,"1516 W Kristal Way, Phoenix, AZ 85027 ",85027,0.65474072098732,0.8875198662281036,0.5810953971047583,175000,https://www.zillow.com/homedetails/1516-W-Kristal-Way-Phoenix-AZ-85027/7969631_zpid/,33.6613,-112.09200000000001,6589,2018-01-15
8945105,23869528,"6931 W North Ln, Peoria, AZ 85345 ",85345,0.6426129341125488,0.9041635394096375,0.5810271849776143,199500,https://www.zillow.com/homedetails/6931-W-North-Ln-Peoria-AZ-85345/7701981_zpid/,33.5808,-112.209,6590,2018-01-16
252997,23872566,"3801 W Tierra Buena Ln, Phoenix, AZ 85053 ",85053,0.6363099217414856,0.9125725030899048,0.5806789380245689,249900,https://www.zillow.com/homedetails/3801-W-Tierra-Buena-Ln-Phoenix-AZ-85053/7945818_zpid/,33.6286,-112.14,6604,2018-01-30
450213,23877909,"8705 W Palm Ln, Phoenix, AZ 85037 ",85037,0.6303419470787048,0.9211016893386841,0.5806090323152304,199900,https://www.zillow.com/homedetails/8705-W-Palm-Ln-Phoenix-AZ-85037/7487495_zpid/,33.4682,-112.24799999999999,6593,2018-01-19
450573,23877887,"8734 W Granada Rd, Phoenix, AZ 85037 ",85037,0.6303419470787048,0.9210298657417297,0.58056375888928,195000,https://www.zillow.com/homedetails/8734-W-Granada-Rd-Phoenix-AZ-85037/7487516_zpid/,33.4682,-112.249,6597,2018-01-23
410256,23810938,"4730 W Shaw Butte Dr, Glendale, AZ 85304 ",85304,0.7009096741676331,0.8281846940517426,0.5804826640584277,240000,https://www.zillow.com/homedetails/4730-W-Shaw-Butte-Dr-Glendale-AZ-85304/7727507_zpid/,33.5952,-112.161,6509,2017-10-27
9024048,23836145,"9411 W Glen Oaks Cir, Sun City, AZ 85351 ",85351,0.6975069940090179,0.8320214450359344,0.580340777078054,140000,https://www.zillow.com/homedetails/9411-W-Glen-Oaks-Cir-Sun-City-AZ-85351/7922837_zpid/,33.6297,-112.26299999999999,6530,2017-11-17
1354032,23882938,"6345 W Lawrence Rd, Glendale, AZ 85301 ",85301,0.63858562707901,0.9086636900901794,0.5802595723401645,139500,https://www.zillow.com/homedetails/6345-W-Lawrence-Rd-Glendale-AZ-85301/7707552_zpid/,33.5357,-112.197,6603,2018-01-29
402522,23881899,"11837 N 45th Ave, Glendale, AZ 85304 ",85304,0.6383524835109711,0.9088898301124573,0.5801920802901517,239250,https://www.zillow.com/homedetails/11837-N-45th-Ave-Glendale-AZ-85304/7727268_zpid/,33.594,-112.155,6604,2018-01-30
8979893,23865842,"7619 W Brown St, Peoria, AZ 85345 ",85345,0.641377329826355,0.9044636785984039,0.5801024991043668,230000,https://www.zillow.com/homedetails/7619-W-Brown-St-Peoria-AZ-85345/7682142_zpid/,33.5769,-112.223,6586,2018-01-12
9021200,23846457,"3819 N 63RD Ave, Phoenix, AZ 85033 ",85033,0.6528057754039764,0.8885647058486938,0.5800601717981628,164900,https://www.zillow.com/homedetails/3819-N-63rd-Ave-Phoenix-AZ-85033/7496525_zpid/,33.4925,-112.195,6543,2017-11-30
354030,23866666,"8023 W Brill St, Phoenix, AZ 85043 ",85043,0.6357937455177307,0.9092216789722443,0.5780774567796829,210000,https://www.zillow.com/homedetails/8023-W-Brill-St-Phoenix-AZ-85043/81990661_zpid/,33.4639,-112.23200000000001,6587,2018-01-13
389263,23864217,"3907 W Davidson Ln, Phoenix, AZ 85051 ",85051,0.6491398215293884,0.8903167545795441,0.5779400591723896,238995,https://www.zillow.com/homedetails/3907-W-Davidson-Ln-Phoenix-AZ-85051/7746545_zpid/,33.5698,-112.14299999999999,6582,2018-01-08
9019399,23864514,"15032 N 26th St, Phoenix, AZ 85032 ",85032,0.6508342325687408,0.8879161775112152,0.5778862439758816,238000,https://www.zillow.com/homedetails/15032-N-26th-St-Phoenix-AZ-85032/8013907_zpid/,33.6237,-112.027,6584,2018-01-10
520419,23877901,"8922 W Fairmount Ave, Phoenix, AZ 85037 ",85037,0.633754163980484,0.9113929867744446,0.5775991003909144,190000,https://www.zillow.com/homedetails/8922-W-Fairmount-Ave-Phoenix-AZ-85037/7470814_zpid/,33.4919,-112.25200000000001,6603,2018-01-29
9022602,23877813,"6826 W Windsor Ave, Phoenix, AZ 85035 ",85035,0.6345016062259674,0.9100595414638519,0.5774342408200814,180000,https://www.zillow.com/homedetails/6826-W-Windsor-Ave-Phoenix-AZ-85035/7476059_zpid/,33.4783,-112.20700000000001,6599,2018-01-25
387030,23862016,"2114 W Sunnyside Dr, Phoenix, AZ 85029 ",85029,0.6490355730056763,0.8891260623931885,0.5770744433796438,174400,https://www.zillow.com/homedetails/2114-W-Sunnyside-Dr-Phoenix-AZ-85029/7748813_zpid/,33.5934,-112.104,6575,2018-01-01
337488,23779389,"1424 E Le Marche Ave, Phoenix, AZ 85022 ",85022,0.7662158608436584,0.7529168426990509,0.5768968267723427,223000,https://www.zillow.com/homedetails/1424-E-Le-Marche-Ave-Phoenix-AZ-85022/8003944_zpid/,33.6325,-112.051,6285,2017-03-17
9021799,23872154,"13014 N Lakeforest Dr, Sun City, AZ 85351 ",85351,0.6409375965595245,0.8999587893486023,0.5768174234477126,210492,https://www.zillow.com/homedetails/13014-N-Lakeforest-Dr-Sun-City-AZ-85351/8095961_zpid/,33.6035,-112.26899999999999,6604,2018-01-30
463250,23884456,"2736 W Rose Ln, Phoenix, AZ 85017 ",85017,0.6448629200458527,0.8944263756275177,0.5767824043531897,184900,https://www.zillow.com/homedetails/2736-W-Rose-Ln-Phoenix-AZ-85017/7759733_zpid/,33.5278,-112.118,6581,2018-01-07
359511,23875667,"2422 S 84th Ln, Tolleson, AZ 85353 ",85353,0.61191526055336,0.9422253370285034,0.5765620626077741,197500,https://www.zillow.com/homedetails/2422-S-84th-Ln-Tolleson-AZ-85353/59271244_zpid/,33.4258,-112.242,6605,2018-01-31
404268,23780495,"16417 N 47th Dr, Glendale, AZ 85306 ",85306,0.7674833834171295,0.7509228587150574,0.5763208162918954,245000,https://www.zillow.com/homedetails/16417-N-47th-Dr-Glendale-AZ-85306/7951226_zpid/,33.6345,-112.161,6277,2017-03-09
421990,23791113,"6451 W Sunnyslope Ln, Glendale, AZ 85302 ",85302,0.7706241011619568,0.7477535307407379,0.5762368925177608,219900,https://www.zillow.com/homedetails/6451-W-Sunnyslope-Ln-Glendale-AZ-85302/7703523_zpid/,33.5702,-112.199,6305,2017-04-06
426687,23866512,"4834 N 81st Dr, Phoenix, AZ 85033 ",85033,0.633754163980484,0.9089524447917938,0.5760523967470403,174900,https://www.zillow.com/homedetails/4834-N-81st-Dr-Phoenix-AZ-85033/7482505_zpid/,33.5079,-112.235,6586,2018-01-12
424042,23883745,"9015 N 57th Ave, Glendale, AZ 85302 ",85302,0.6834112703800201,0.8428962826728821,0.5760448193400709,205000,https://www.zillow.com/homedetails/9015-N-57th-Ave-Glendale-AZ-85302/7734719_zpid/,33.5681,-112.182,6529,2017-11-16
409622,23825573,"4447 W Mercer Ln, Glendale, AZ 85304 ",85304,0.6957262754440308,0.8277147114276886,0.5758628733118165,227000,https://www.zillow.com/homedetails/4447-W-Mercer-Ln-Glendale-AZ-85304/7727953_zpid/,33.5852,-112.156,6526,2017-11-13
834633,23845436,"3526 W Ocotillo Rd, Phoenix, AZ 85019 ",85019,0.6613203883171082,0.8698624670505524,0.575257784492349,220000,https://www.zillow.com/homedetails/3526-W-Ocotillo-Rd-Phoenix-AZ-85019/7761449_zpid/,33.535,-112.13600000000001,6537,2017-11-24
405134,21884112,"4532 W Bobbie Ter, Glendale, AZ 85306 ",85306,0.7674833834171295,0.7494781017303467,0.5752119893130541,234975,https://www.zillow.com/homedetails/4532-W-Bobbie-Ter-Glendale-AZ-85306/7950550_zpid/,33.635999999999996,-112.154,6281,2017-03-13
9025872,23872342,"15168 N 90TH Ln, Peoria, AZ 85381 ",85381,0.6272352039813995,0.9167243242263794,0.5750017685008437,213700,https://www.zillow.com/homedetails/15168-N-90th-Ln-Peoria-AZ-85381/7908827_zpid/,33.6229,-112.25399999999999,6605,2018-01-31
386285,23856269,"3631 W Caron St, Phoenix, AZ 85051 ",85051,0.6604753732681274,0.8694019615650177,0.5742185850846973,239900,https://www.zillow.com/homedetails/3631-W-Caron-St-Phoenix-AZ-85051/7746596_zpid/,33.5684,-112.13799999999999,6558,2017-12-15
1414408,23870613,"7359 N 70th Ave, Glendale, AZ 85303 ",85303,0.6303419470787048,0.9107685089111328,0.5740955952450122,174900,https://www.zillow.com/homedetails/7359-N-70th-Ave-Glendale-AZ-85303/7704942_zpid/,33.5441,-112.21,6598,2018-01-24
503053,23856891,"2823 W Marshall Ave, Phoenix, AZ 85017 ",85017,0.6806797385215759,0.8432040512561798,0.57395191312939,175000,https://www.zillow.com/homedetails/2823-W-Marshall-Ave-Phoenix-AZ-85017/7763994_zpid/,33.5174,-112.12,6561,2017-12-18
384614,23864029,"13636 N 18TH Dr, Phoenix, AZ 85029 ",85029,0.6402035057544708,0.8964618742465973,0.5739180346678951,189500,https://www.zillow.com/homedetails/13636-N-18th-Dr-Phoenix-AZ-85029/7784603_zpid/,33.6108,-112.09899999999999,6583,2018-01-09
1667296,23885659,"18407 N Laurel Dr, Sun City, AZ 85373 ",85373,0.6379525065422058,0.8995808064937592,0.5738898303399527,140000,https://www.zillow.com/homedetails/18407-N-Laurel-Dr-Sun-City-AZ-85373/7897779_zpid/,33.6512,-112.26100000000001,6604,2018-01-30
229029,23888305,"18611 N 22ND St LOT 23, Phoenix, AZ 85024 ",85024,0.6291721165180206,0.9121255874633789,0.573883986394577,229900,https://www.zillow.com/homedetails/18611-N-22ND-St-LOT-23-Phoenix-AZ-85024/7995053_zpid/,33.6568,-112.03299999999999,6604,2018-01-30
831473,23884701,"4018 W Solano Dr N, Phoenix, AZ 85019 ",85019,0.6280400156974792,0.9135845303535461,0.5737676427842153,199900,https://www.zillow.com/homedetails/4018-W-Solano-Dr-N-Phoenix-AZ-85019/7718599_zpid/,33.5218,-112.145,6583,2018-01-09
415104,23776939,"10015 N 45th Ave, Glendale, AZ 85302 ",85302,0.7549098134040833,0.7599786221981049,0.5737153198746636,192900,https://www.zillow.com/homedetails/10015-N-45th-Ave-Glendale-AZ-85302/7729213_zpid/,33.577,-112.156,6290,2017-03-22
377735,23862131,"10720 N 36TH Ave, Phoenix, AZ 85029 ",85029,0.6504538059234619,0.8819670379161835,0.5736788165116238,225000,https://www.zillow.com/homedetails/10720-N-36th-Ave-Phoenix-AZ-85029/7743347_zpid/,33.5838,-112.137,6576,2018-01-02
483351,23877718,"2627 N 59th Ln, Phoenix, AZ 85035 ",85035,0.6345016062259674,0.903950035572052,0.5735577495184874,154000,https://www.zillow.com/homedetails/2627-N-59th-Ln-Phoenix-AZ-85035/7491738_zpid/,33.4778,-112.18799999999999,6591,2018-01-17
441252,23868765,"3001 N 86th Ln, Phoenix, AZ 85037 ",85037,0.6319130957126617,0.9075798392295837,0.5735115858139661,223000,https://www.zillow.com/homedetails/3001-N-86th-Ln-Phoenix-AZ-85037/7480278_zpid/,33.4814,-112.245,6593,2018-01-19
9026498,23870725,"3243 N 77th Dr, Phoenix, AZ 85033 ",85033,0.6283519864082336,0.9123524725437164,0.5732784884273077,172500,https://www.zillow.com/homedetails/3243-N-77th-Dr-Phoenix-AZ-85033/7469201_zpid/,33.4857,-112.225,6599,2018-01-25
8996162,23865480,"8420 W Butler Dr, Peoria, AZ 85345 ",85345,0.6312765777111053,0.9074361026287079,0.5728431573589541,219900,https://www.zillow.com/homedetails/8420-W-Butler-Dr-Peoria-AZ-85345/7683722_zpid/,33.5593,-112.241,6586,2018-01-12
445830,23877779,"4710 N 84th Ln, Phoenix, AZ 85037 ",85037,0.633754163980484,0.9038727879524231,0.5728331430734972,175000,https://www.zillow.com/homedetails/4710-N-84th-Ln-Phoenix-AZ-85037/7481167_zpid/,33.5057,-112.242,6594,2018-01-20
503528,23870981,"1942 N 69TH Ave, Phoenix, AZ 85035 ",85035,0.6333866119384766,0.9042127728462219,0.5727162646645638,172500,https://www.zillow.com/homedetails/1942-N-69th-Ave-Phoenix-AZ-85035/7481369_zpid/,33.4705,-112.208,6599,2018-01-25
7513271,23870553,"9830 W Emberwood Dr, Sun City, AZ 85351 ",85351,0.642076849937439,0.891338437795639,0.5723077763679818,169900,https://www.zillow.com/homedetails/9830-W-Emberwood-Dr-Sun-City-AZ-85351/8096028_zpid/,33.6026,-112.26700000000001,6598,2018-01-24
493303,23877816,"5924 W Roanoke Ave, Phoenix, AZ 85035 ",85035,0.6292341351509094,0.9094719886779785,0.5722708202397655,184900,https://www.zillow.com/homedetails/5924-W-Roanoke-Ave-Phoenix-AZ-85035/7491817_zpid/,33.4788,-112.18700000000001,6604,2018-01-30
834399,23856892,"3514 W Mariposa St, Phoenix, AZ 85019 ",85019,0.6505516767501831,0.8796677887439728,0.5722693549505173,195000,https://www.zillow.com/homedetails/3514-W-Mariposa-St-Phoenix-AZ-85019/7506769_zpid/,33.5079,-112.135,6560,2017-12-17
390056,23864177,"2917 W Aster Dr, Phoenix, AZ 85029 ",85029,0.6578294336795807,0.8697694540023804,0.572159947358184,199700,https://www.zillow.com/homedetails/2917-W-Aster-Dr-Phoenix-AZ-85029/7741102_zpid/,33.6021,-112.12200000000001,6582,2018-01-08
9019112,23856813,"4426 W Vogel Ave, Glendale, AZ 85302 ",85302,0.6424695551395416,0.8900896310806274,0.5718554893146894,219900,https://www.zillow.com/homedetails/4426-W-Vogel-Ave-Glendale-AZ-85302/7729451_zpid/,33.5722,-112.155,6561,2017-12-18
397286,23862957,"8437 N 36th Ave, Phoenix, AZ 85051 ",85051,0.6437833607196808,0.8881620466709137,0.5717839472694708,187000,https://www.zillow.com/homedetails/8437-N-36th-Ave-Phoenix-AZ-85051/7754435_zpid/,33.5599,-112.137,6550,2017-12-07
379293,23843863,"2626 W Northview Ave, Phoenix, AZ 85051 ",85051,0.6662237048149109,0.8580017983913422,0.5716211368621362,134900,https://www.zillow.com/homedetails/2626-W-Northview-Ave-Phoenix-AZ-85051/7779482_zpid/,33.5439,-112.116,6542,2017-11-29
5187848,21947200,"16030 N Lakeforest Dr, Sun City, AZ 85351 ",85351,0.7102091014385223,0.804336428642273,0.5712470522402988,239900,https://www.zillow.com/homedetails/16030-N-Lakeforest-Dr-Sun-City-AZ-85351/7923097_zpid/,33.6324,-112.272,6375,2017-06-15
8968950,23871892,"6906 W Monterey Way, Phoenix, AZ 85033 ",85033,0.6398281753063202,0.8926111161708832,0.571117741717754,169000,https://www.zillow.com/homedetails/6906-W-Monterey-Way-Phoenix-AZ-85033/7485364_zpid/,33.4845,-112.208,6597,2018-01-23
836722,23830966,"5221 N 41st Dr, Phoenix, AZ 85019 ",85019,0.6673382222652435,0.855561375617981,0.5709488074437097,179000,https://www.zillow.com/homedetails/5221-N-41st-Dr-Phoenix-AZ-85019/67083438_zpid/,33.5124,-112.148,6526,2017-11-13
392047,23856667,"3214 W Voltaire Ave, Phoenix, AZ 85029 ",85029,0.6493806838989258,0.877457320690155,0.5698038350018919,229000,https://www.zillow.com/homedetails/3214-W-Voltaire-Ave-Phoenix-AZ-85029/7747954_zpid/,33.6091,-112.12799999999999,6560,2017-12-17
252855,23869970,"2419 W Tierra Buena Ln, Phoenix, AZ 85023 ",85023,0.6367205083370209,0.8948086500167847,0.5697430185030505,230000,https://www.zillow.com/homedetails/2419-W-Tierra-Buena-Ln-Phoenix-AZ-85023/7961035_zpid/,33.6286,-112.11200000000001,6593,2018-01-19
213246,23881925,"1214 E Carol Ave, Phoenix, AZ 85020 ",85020,0.6392659842967987,0.8912432491779327,0.5697414929336082,229000,https://www.zillow.com/homedetails/1214-E-Carol-Ave-Phoenix-AZ-85020/7786735_zpid/,33.5725,-112.056,6602,2018-01-28
394310,23786762,"3560 W Wood Dr, Phoenix, AZ 85029 ",85029,0.7454705536365509,0.7641103863716125,0.5696217927678848,230000,https://www.zillow.com/homedetails/3560-W-Wood-Dr-Phoenix-AZ-85029/7741612_zpid/,33.6044,-112.137,6308,2017-04-09
467212,23884496,"3119 W Citrus Way, Phoenix, AZ 85017 ",85017,0.6296775937080383,0.904040515422821,0.5692540563660167,220000,https://www.zillow.com/homedetails/3119-W-Citrus-Way-Phoenix-AZ-85017/7760912_zpid/,33.5296,-112.12700000000001,6583,2018-01-09
9026576,23892731,"9754 W Edward Dr, Sun City, AZ 85351 ",85351,0.6405089497566223,0.8883277475833893,0.5689818726443026,172000,https://www.zillow.com/homedetails/9754-W-Edward-Dr-Sun-City-AZ-85351/7686035_zpid/,33.5921,-112.26799999999999,6605,2018-01-31
415173,23882334,"10024 N 65th Ln, Glendale, AZ 85302 ",85302,0.6300633549690247,0.9028166234493256,0.5688316706922887,175000,https://www.zillow.com/homedetails/10024-N-65th-Ln-Glendale-AZ-85302/92346658_zpid/,33.577,-112.2,6603,2018-01-29
9026864,23893893,"9509 W Cedar Hill Cir, Sun City, AZ 85351 ",85351,0.6291700005531311,0.9028794765472412,0.5680646807586385,219900,https://www.zillow.com/homedetails/9509-W-Cedar-Hill-Cir-Sun-City-AZ-85351/7922729_zpid/,33.6311,-112.265,6600,2018-01-26
9026855,23893778,"9509 W Cedar Hill Cir N, Sun City, AZ 85351 ",85351,0.6291700005531311,0.9028794765472412,0.5680646807586385,219900,https://www.zillow.com/homedetails/9509-W-Cedar-Hill-Cir-N-Sun-City-AZ-85351/7904856_zpid/,33.6311,-112.265,6600,2018-01-26
386006,23854095,"1749 W Surrey Ave, Phoenix, AZ 85029 ",85029,0.641220211982727,0.885858565568924,0.5680304172008199,220000,https://www.zillow.com/homedetails/1749-W-Surrey-Ave-Phoenix-AZ-85029/7784365_zpid/,33.6053,-112.098,6555,2017-12-12
407925,23791005,"6023 W Redfield Rd, Glendale, AZ 85306 ",85306,0.709971010684967,0.7997111678123474,0.5677717460677876,179900,https://www.zillow.com/homedetails/6023-W-Redfield-Rd-Glendale-AZ-85306/7910719_zpid/,33.6135,-112.18799999999999,6309,2017-04-10
1349332,23855797,"5601 N 61st Ln, Glendale, AZ 85301 ",85301,0.6361342072486877,0.8920153081417084,0.5674414508984196,164000,https://www.zillow.com/homedetails/5601-N-61st-Ln-Glendale-AZ-85301/7714491_zpid/,33.5189,-112.193,6551,2017-12-08
449872,23877880,"8625 W Mariposa Dr, Phoenix, AZ 85037 ",85037,0.6345016062259674,0.8933925926685333,0.5668590350385658,158000,https://www.zillow.com/homedetails/8625-W-Mariposa-Dr-Phoenix-AZ-85037/7483575_zpid/,33.5073,-112.245,6599,2018-01-25
448657,23877888,"8427 W Berkeley Rd, Phoenix, AZ 85037 ",85037,0.6247013807296753,0.9071289300918579,0.5666846951282167,159990,https://www.zillow.com/homedetails/8427-W-Berkeley-Rd-Phoenix-AZ-85037/7488038_zpid/,33.4676,-112.242,6592,2018-01-18
400374,23882336,"10637 N 65th Ave, Glendale, AZ 85304 ",85304,0.6205048859119415,0.9132221639156342,0.5666588146327269,175000,https://www.zillow.com/homedetails/10637-N-65th-Ave-Glendale-AZ-85304/7698648_zpid/,33.5832,-112.199,6604,2018-01-30
9021369,23868873,"9609 W Shasta Dr, Sun City, AZ 85351 ",85351,0.625922828912735,0.9051797986030579,0.5665727002162857,169900,https://www.zillow.com/homedetails/9609-W-Shasta-Dr-Sun-City-AZ-85351/7904384_zpid/,33.6247,-112.266,6593,2018-01-19
9025493,23853409,"5955 W Mitchell Dr, Phoenix, AZ 85033 ",85033,0.630588561296463,0.897662341594696,0.5660556045162135,165000,https://www.zillow.com/homedetails/5955-W-Mitchell-Dr-Phoenix-AZ-85033/7489271_zpid/,33.4883,-112.189,6550,2017-12-07
408313,23882827,"6132 W Nancy Rd, Glendale, AZ 85306 ",85306,0.6393579244613647,0.8851221203804016,0.5659098417812558,179900,https://www.zillow.com/homedetails/6132-W-Nancy-Rd-Glendale-AZ-85306/8096900_zpid/,33.6288,-112.19200000000001,6603,2018-01-29
9024049,23871156,"9545 W Briarwood Cir N, Sun City, AZ 85351 ",85351,0.6291700005531311,0.8992446064949036,0.5657777295657986,199900,https://www.zillow.com/homedetails/9545-W-Briarwood-Cir-N-Sun-City-AZ-85351/7904970_zpid/,33.6371,-112.266,6599,2018-01-25
431375,23855856,"6744 W Pierson St, Phoenix, AZ 85033 ",85033,0.626300722360611,0.9033176302909851,0.5657484843723193,141900,https://www.zillow.com/homedetails/6744-W-Pierson-St-Phoenix-AZ-85033/7716621_zpid/,33.508,-112.205,6555,2017-12-12
9023486,23827318,"9908 W Crosby Cir N, Sun City, AZ 85351 ",85351,0.6689356565475464,0.8454159200191498,0.5655288535137579,140000,https://www.zillow.com/homedetails/9908-W-Crosby-Cir-N-Sun-City-AZ-85351/7694583_zpid/,33.5838,-112.273,6526,2017-11-13
42567,23875698,"6926 W Pierce St, Phoenix, AZ 85043 ",85043,0.6181974112987518,0.9145855903625488,0.5653944443732684,197900,https://www.zillow.com/homedetails/6926-W-Pierce-St-Phoenix-AZ-85043/7476307_zpid/,33.4554,-112.209,6605,2018-01-31
501018,22711998,"7420 W Alvarado Rd, Phoenix, AZ 85035 ",85035,0.6781814396381378,0.8335494697093964,0.5652977793771248,119900,https://www.zillow.com/homedetails/7420-W-Alvarado-Rd-Phoenix-AZ-85035/7474905_zpid/,33.4717,-112.22,6475,2017-09-23
333266,23854946,"5719 N 23rd Ave, Phoenix, AZ 85015 ",85015,0.6751300394535065,0.8353697955608368,0.5639832430352554,175000,https://www.zillow.com/homedetails/5719-N-23rd-Ave-Phoenix-AZ-85015/7763242_zpid/,33.5217,-112.10799999999999,6557,2017-12-14
460480,23866544,"5823 W Pierson St, Phoenix, AZ 85031 ",85031,0.6381124556064606,0.8833456337451935,0.5636738514983906,204900,https://www.zillow.com/homedetails/5823-W-Pierson-St-Phoenix-AZ-85031/7713410_zpid/,33.5086,-112.185,6585,2018-01-11
440456,23867239,"8111 W College Dr, Phoenix, AZ 85033 ",85033,0.633754163980484,0.8893172740936279,0.5636085255566101,145000,https://www.zillow.com/homedetails/8111-W-College-Dr-Phoenix-AZ-85033/7482592_zpid/,33.5078,-112.234,6586,2018-01-12
1356715,23883331,"7327 N 47th Ave, Glendale, AZ 85301 ",85301,0.6619680523872375,0.8511660397052765,0.56344472556186,189500,https://www.zillow.com/homedetails/7327-N-47th-Ave-Glendale-AZ-85301/7725576_zpid/,33.545,-112.16,6523,2017-11-10
433435,23843217,"7318 W Glenrosa Ave, Phoenix, AZ 85033 ",85033,0.6276390254497528,0.8957663774490356,0.5622179361727682,154999,https://www.zillow.com/homedetails/7318-W-Glenrosa-Ave-Phoenix-AZ-85033/7711188_zpid/,33.4994,-112.21700000000001,6541,2017-11-28
400185,22494552,"10610 N 46th Ave, Glendale, AZ 85304 ",85304,0.7123664617538452,0.7888454794883728,0.5619470630936476,234900,https://www.zillow.com/homedetails/10610-N-46th-Ave-Glendale-AZ-85304/7727627_zpid/,33.5824,-112.15700000000001,6428,2017-08-07
8977430,22376634,"1505 W Hadley St, Phoenix, AZ 85007 ",85007,0.7253145277500153,0.774519145488739,0.5617699882435101,180000,https://www.zillow.com/homedetails/1505-W-Hadley-St-Phoenix-AZ-85007/2112748542_zpid/,33.4392,-112.09200000000001,6414,2017-07-24
139797,23885684,"9630 W Willowbrook Dr, Sun City, AZ 85373 ",85373,0.6251635253429413,0.898218959569931,0.5615337312946069,185900,https://www.zillow.com/homedetails/9630-W-Willowbrook-Dr-Sun-City-AZ-85373/7897569_zpid/,33.6507,-112.26899999999999,6605,2018-01-31
41734,23870779,"637 N 69th Ave, Phoenix, AZ 85043 ",85043,0.6247013807296753,0.8978110253810883,0.5608637871898914,152000,https://www.zillow.com/homedetails/637-N-69th-Ave-Phoenix-AZ-85043/7476326_zpid/,33.4562,-112.208,6599,2018-01-25
9024486,23843769,"6743 W Roma Ave, Phoenix, AZ 85033 ",85033,0.6265974640846252,0.8950618207454681,0.5608434670780778,135000,https://www.zillow.com/homedetails/6743-W-Roma-Ave-Phoenix-AZ-85033/7717104_zpid/,33.5015,-112.205,6542,2017-11-29
433137,23872612,"7225 W Catalina Dr, Phoenix, AZ 85033 ",85033,0.6227016448974609,0.9005535840988159,0.5607761981366366,180000,https://www.zillow.com/homedetails/7225-W-Catalina-Dr-Phoenix-AZ-85033/7468501_zpid/,33.4819,-112.215,6603,2018-01-29
9022111,23817234,"7629 N 44th Dr, Glendale, AZ 85301 ",85301,0.68167445063591,0.822417140007019,0.560620752107841,195000,https://www.zillow.com/homedetails/7629-N-44th-Dr-Glendale-AZ-85301/7725279_zpid/,33.5492,-112.155,6514,2017-11-01
830701,23830958,"3833 W Ocotillo Rd, Phoenix, AZ 85019 ",85019,0.6539568901062012,0.8570596873760223,0.5604800877918166,199900,https://www.zillow.com/homedetails/3833-W-Ocotillo-Rd-Phoenix-AZ-85019/7758511_zpid/,33.5346,-112.14200000000001,6525,2017-11-12
828507,23855608,"3542 W Rovey Ave, Phoenix, AZ 85019 ",85019,0.6392496526241302,0.8747099936008453,0.5591580595561956,235000,https://www.zillow.com/homedetails/3542-W-Rovey-Ave-Phoenix-AZ-85019/7759119_zpid/,33.5255,-112.13600000000001,6547,2017-12-04
483706,23872203,"2639 N 63RD Ave, Phoenix, AZ 85035 ",85035,0.618310272693634,0.9039165377616882,0.558900880955715,179900,https://www.zillow.com/homedetails/2639-N-63rd-Ave-Phoenix-AZ-85035/7491672_zpid/,33.4781,-112.195,6604,2018-01-30
