property_id,transaction_id,address,zipcode,any_sell,good_sell,bayesian,list,url,lat,long,date_listed,transaction_date
9030467,23907928,"1105 S 6th Ave, Phoenix, AZ 85003 ",85003,0.25121259689331055,0.9942022562026978,0.24975613061786817,50000,https://www.zillow.com/homedetails/1105-S-6th-Ave-Phoenix-AZ-85003/2091048360_zpid/,33.437,-112.08200000000001,6619,2018-02-14
9026899,23893911,"1318 W Boxelder Ct, Chandler, AZ 85224 ",85224,0.2535233572125435,0.9414774179458618,0.23868651573743183,239900,https://www.zillow.com/homedetails/1318-W-Boxelder-Ct-Chandler-AZ-85224/8172413_zpid/,33.3542,-111.865,6604,2018-01-30
9026868,23897793,"1302 W Cortez Ct, Chandler, AZ 85224 ",85224,0.2522263154387474,0.9453374147415161,0.23843897296664363,249500,https://www.zillow.com/homedetails/1302-W-Cortez-Ct-Chandler-AZ-85224/8172446_zpid/,33.3554,-111.86399999999999,6624,2018-02-19
9026756,23893480,"1033 W Orchid Ln, Chandler, AZ 85224 ",85224,0.2535233572125435,0.9353089332580566,0.2371226607904653,249900,https://www.zillow.com/homedetails/1033-W-Orchid-Ln-Chandler-AZ-85224/8203649_zpid/,33.3236,-111.86,6619,2018-02-14
959786,23890197,"3817 W Folley St, Chandler, AZ 85226 ",85226,0.2524988204240799,0.938975989818573,0.23709032983572254,235000,https://www.zillow.com/homedetails/3817-W-Folley-St-Chandler-AZ-85226/8156123_zpid/,33.2977,-111.90799999999999,6625,2018-02-20
973060,23891307,"600 N Aspen Dr, Chandler, AZ 85226 ",85226,0.2535233572125435,0.9351631700992584,0.23708570642508886,223900,https://www.zillow.com/homedetails/600-N-Aspen-Dr-Chandler-AZ-85226/8262023_zpid/,33.3128,-111.945,6624,2018-02-19
1112872,23885785,"1482 W Orchid Ln, Chandler, AZ 85224 ",85224,0.2522263154387474,0.9399167597293854,0.2370717411256693,249900,https://www.zillow.com/homedetails/1482-W-Orchid-Ln-Chandler-AZ-85224/8203452_zpid/,33.3237,-111.867,6614,2018-02-09
1128437,23920629,"3298 N Ash Dr, Chandler, AZ 85224 ",85224,0.2535233572125435,0.9345186948776245,0.23692231690325993,240000,https://www.zillow.com/homedetails/3298-N-Ash-Dr-Chandler-AZ-85224/8191971_zpid/,33.3549,-111.87100000000001,6636,2018-03-03
6833,23886010,"3873 W Commonwealth Ave, Chandler, AZ 85226 ",85226,0.2524988204240799,0.9368415772914886,0.23655139319033536,230000,https://www.zillow.com/homedetails/3873-W-Commonwealth-Ave-Chandler-AZ-85226/55273361_zpid/,33.3027,-111.90899999999999,6618,2018-02-13
625494,23866146,"1522 W Plana Ave, Mesa, AZ 85202 ",85202,0.2535233572125435,0.9321524798870087,0.23632242613495236,242500,https://www.zillow.com/homedetails/1522-W-Plana-Ave-Mesa-AZ-85202/8172015_zpid/,33.3588,-111.866,6585,2018-01-11
9018003,23920413,"1842 W Alamo Dr, Chandler, AZ 85224 ",85224,0.2535233572125435,0.9312814474105835,0.2361015990572879,244000,https://www.zillow.com/homedetails/1842-W-Alamo-Dr-Chandler-AZ-85224/8199834_zpid/,33.3482,-111.875,6639,2018-03-06
1094758,23892220,"818 W Nopal Pl, Chandler, AZ 85225 ",85225,0.2522263154387474,0.9356494545936584,0.23599541447443206,249990,https://www.zillow.com/homedetails/818-W-Nopal-Pl-Chandler-AZ-85225/8177792_zpid/,33.3423,-111.85799999999999,6627,2018-02-22
1111311,23885718,"1319 W Straford Dr, Chandler, AZ 85224 ",85224,0.2535233572125435,0.9298360645771027,0.23573516074888645,209000,https://www.zillow.com/homedetails/1319-W-Straford-Dr-Chandler-AZ-85224/8172355_zpid/,33.353,-111.865,6618,2018-02-13
1097216,23886156,"901 W Cheyenne Dr, Chandler, AZ 85225 ",85225,0.25121259689331055,0.9382616877555847,0.2357031551465809,240000,https://www.zillow.com/homedetails/901-W-Cheyenne-Dr-Chandler-AZ-85225/8176783_zpid/,33.3463,-111.85600000000001,6618,2018-02-13
9029090,23901746,"2331 W Comstock Dr, Chandler, AZ 85224 ",85224,0.25121259689331055,0.9359617829322815,0.23512539008331146,245000,https://www.zillow.com/homedetails/2331-W-Comstock-Dr-Chandler-AZ-85224/8201985_zpid/,33.3471,-111.882,6625,2018-02-20
1126522,23920569,"2802 N Pennington Dr, Chandler, AZ 85224 ",85224,0.2522263154387474,0.9280511140823364,0.23407891304381234,249000,https://www.zillow.com/homedetails/2802-N-Pennington-Dr-Chandler-AZ-85224/8176474_zpid/,33.3465,-111.87100000000001,6634,2018-03-01
1851930,23885755,"1315 W Manor St, Chandler, AZ 85224 ",85224,0.2522263154387474,0.9275045394897461,0.23394105254821085,247500,https://www.zillow.com/homedetails/1315-W-Manor-St-Chandler-AZ-85224/8194266_zpid/,33.328,-111.86399999999999,6605,2018-01-31
962858,23920761,"4276 W Park Ave, Chandler, AZ 85226 ",85226,0.2522263154387474,0.9273861348628998,0.2339111877854505,215000,https://www.zillow.com/homedetails/4276-W-Park-Ave-Chandler-AZ-85226/8153857_zpid/,33.3215,-111.91799999999999,6635,2018-03-02
1120141,23885857,"2213 W Los Arboles Pl, Chandler, AZ 85224 ",85224,0.2524988204240799,0.9254355132579803,0.233671375476193,239990,https://www.zillow.com/homedetails/2213-W-Los-Arboles-Pl-Chandler-AZ-85224/8192352_zpid/,33.3355,-111.88,6613,2018-02-08
1126602,23890192,"2807 N Central Dr, Chandler, AZ 85224 ",85224,0.2522263154387474,0.9257071912288666,0.23348771401880897,180000,https://www.zillow.com/homedetails/2807-N-Central-Dr-Chandler-AZ-85224/8199127_zpid/,33.3475,-111.866,6625,2018-02-20
1118177,23920469,"2027 N Villas Ln, Chandler, AZ 85224 ",85224,0.2535233572125435,0.9201370179653168,0.23327622589010555,220000,https://www.zillow.com/homedetails/2027-N-Villas-Ln-Chandler-AZ-85224/8199734_zpid/,33.3361,-111.87200000000001,6632,2018-02-27
637717,23877260,"1942 W Portobello Ave, Mesa, AZ 85202 ",85202,0.2535233572125435,0.9198693335056305,0.23320836162721226,232500,https://www.zillow.com/homedetails/1942-W-Portobello-Ave-Mesa-AZ-85202/8191364_zpid/,33.3598,-111.876,6617,2018-02-12
1116516,23920475,"1806 N Arrowhead Dr, Chandler, AZ 85224 ",85224,0.2522263154387474,0.9245231449604034,0.2331890663912055,225000,https://www.zillow.com/homedetails/1806-N-Arrowhead-Dr-Chandler-AZ-85224/8193583_zpid/,33.3327,-111.866,6639,2018-03-06
9026644,23892930,"1956 N Illinois St, Chandler, AZ 85225 ",85225,0.2524988204240799,0.9229329228401184,0.23303947434767824,237500,https://www.zillow.com/homedetails/1956-N-Illinois-St-Chandler-AZ-85225/8182717_zpid/,33.3332,-111.84899999999999,6619,2018-02-14
9028443,23899268,"3147 N Bentrup Cir, Chandler, AZ 85224 ",85224,0.2524988204240799,0.9209537208080292,0.23253972816919477,249900,https://www.zillow.com/homedetails/3147-N-Bentrup-Cir-Chandler-AZ-85224/8171571_zpid/,33.3509,-111.891,6633,2018-02-28
1108948,23885722,"1169 W Nopal Pl, Chandler, AZ 85224 ",85224,0.2522263154387474,0.9216616749763489,0.23246732836038886,244900,https://www.zillow.com/homedetails/1169-W-Nopal-Pl-Chandler-AZ-85224/8175911_zpid/,33.341,-111.86200000000001,6602,2018-01-28
1127341,23920612,"2909 W Curry St, Chandler, AZ 85224 ",85224,0.25121259689331055,0.9251680076122284,0.232413857754878,238700,https://www.zillow.com/homedetails/2909-W-Curry-St-Chandler-AZ-85224/8197532_zpid/,33.3541,-111.89299999999999,6628,2018-02-23
650458,23872026,"2419 W Naranja Ave, Mesa, AZ 85202 ",85202,0.25121259689331055,0.9247663915157318,0.23231296673232293,218000,https://www.zillow.com/homedetails/2419-W-Naranja-Ave-Mesa-AZ-85202/8251330_zpid/,33.3643,-111.88600000000001,6603,2018-01-29
1108960,23920279,"1170 W Butler Dr, Chandler, AZ 85224 ",85224,0.25121259689331055,0.9246175587177277,0.23227557805863341,249900,https://www.zillow.com/homedetails/1170-W-Butler-Dr-Chandler-AZ-85224/8207445_zpid/,33.3013,-111.86200000000001,6642,2018-03-09
1120336,23889251,"2231 W Ironwood Dr, Chandler, AZ 85224 ",85224,0.25121259689331055,0.9242429137229919,0.23218146251659277,219900,https://www.zillow.com/homedetails/2231-W-Ironwood-Dr-Chandler-AZ-85224/8192970_zpid/,33.3246,-111.881,6624,2018-02-19
1115749,23864072,"1721 W Nopal Dr, Chandler, AZ 85224 ",85224,0.2522263154387474,0.9201358556747437,0.23208247657991965,249900,https://www.zillow.com/homedetails/1721-W-Nopal-Dr-Chandler-AZ-85224/8198402_zpid/,33.3418,-111.874,6581,2018-01-07
1113596,23885766,"1567 W Kesler Ln, Chandler, AZ 85224 ",85224,0.2524988204240799,0.9179229736328125,0.23177446808244895,245000,https://www.zillow.com/homedetails/1567-W-Kesler-Ln-Chandler-AZ-85224/8226104_zpid/,33.2918,-111.869,6596,2018-01-22
625114,23886893,"2235 S Hosick, Mesa, AZ 85210 ",85210,0.2524988204240799,0.9176124632358551,0.2316960645734878,200000,https://www.zillow.com/homedetails/2235-S-Hosick-Mesa-AZ-85210/8170281_zpid/,33.3741,-111.848,6621,2018-02-16
961362,23890199,"3986 W Calle Segunda, Chandler, AZ 85226 ",85226,0.2524988204240799,0.9153044521808624,0.2311132945045764,215000,https://www.zillow.com/homedetails/3986-W-Calle-Segunda-Chandler-AZ-85226/8156357_zpid/,33.304,-111.911,6625,2018-02-20
958181,23885961,"3473 W Barcelona Dr, Chandler, AZ 85226 ",85226,0.25121259689331055,0.919916570186615,0.23109463052176693,209000,https://www.zillow.com/homedetails/3473-W-Barcelona-Dr-Chandler-AZ-85226/8263797_zpid/,33.3222,-111.902,6604,2018-01-30
972984,23921177,"5975 W Del Rio St, Chandler, AZ 85226 ",85226,0.2535233572125435,0.9098869562149048,0.23067759582350522,220000,https://www.zillow.com/homedetails/5975-W-Del-Rio-St-Chandler-AZ-85226/8262022_zpid/,33.3128,-111.945,6648,2018-03-15
702251,23892614,"3043 S Los Altos, Mesa, AZ 85202 ",85202,0.2524988204240799,0.9121362268924713,0.2303133213564199,249500,https://www.zillow.com/homedetails/3043-S-Los-Altos-Mesa-AZ-85202/8171114_zpid/,33.3592,-111.88,6635,2018-03-02
1123841,23911895,"2713 W Estrella Dr, Chandler, AZ 85224 ",85224,0.25121259689331055,0.916770726442337,0.2303043549453463,218700,https://www.zillow.com/homedetails/2713-W-Estrella-Dr-Chandler-AZ-85224/8193175_zpid/,33.3327,-111.889,6646,2018-03-13
1078091,23885832,"2052 N Holguin Way, Chandler, AZ 85225 ",85225,0.25121259689331055,0.916050374507904,0.23012339346522026,219000,https://www.zillow.com/homedetails/2052-N-Holguin-Way-Chandler-AZ-85225/60985138_zpid/,33.3362,-111.84899999999999,6593,2018-01-19
1086717,23921027,"401 N Cheri Lynn Dr, Chandler, AZ 85225 ",85225,0.2524988204240799,0.908541202545166,0.22940558194932947,229999,https://www.zillow.com/homedetails/401-N-Cheri-Lynn-Dr-Chandler-AZ-85225/8186935_zpid/,33.3099,-111.853,6636,2018-03-03
625056,23886884,"1508 W Capri Ave, Mesa, AZ 85202 ",85202,0.2535233572125435,0.9039229154586792,0.22916557218843447,239900,https://www.zillow.com/homedetails/1508-W-Capri-Ave-Mesa-AZ-85202/7604820_zpid/,33.4058,-111.86399999999999,6621,2018-02-16
249467,23927324,"413 E Rimrock Dr, Phoenix, AZ 85024 ",85024,0.24944288283586502,0.9173606038093567,0.22882907361425575,222000,https://www.zillow.com/homedetails/413-E-Rimrock-Dr-Phoenix-AZ-85024/7968011_zpid/,33.6625,-112.068,6637,2018-03-04
341987,23888290,"16633 N 19th Pl, Phoenix, AZ 85022 ",85022,0.2504561096429825,0.9128905832767487,0.2286390240172076,244900,https://www.zillow.com/homedetails/16633-N-19th-Pl-Phoenix-AZ-85022/55267888_zpid/,33.6381,-112.04,6621,2018-02-16
9026770,23893524,"1518 W Marlboro Dr, Chandler, AZ 85224 ",85224,0.2522263154387474,0.9063881635665894,0.22861494685369355,237500,https://www.zillow.com/homedetails/1518-W-Marlboro-Dr-Chandler-AZ-85224/8176555_zpid/,33.3476,-111.87,6591,2018-01-17
1094634,23886104,"814 W Palomino Dr, Chandler, AZ 85225 ",85225,0.25121259689331055,0.9055816829204559,0.22749352626546226,195000,https://www.zillow.com/homedetails/814-W-Palomino-Dr-Chandler-AZ-85225/8177734_zpid/,33.3408,-111.85700000000001,6616,2018-02-11
353909,23881508,"2219 E Aire Libre Ave, Phoenix, AZ 85022 ",85022,0.2504561096429825,0.9056395292282104,0.22682295322939972,239900,https://www.zillow.com/homedetails/2219-E-Aire-Libre-Ave-Phoenix-AZ-85022/8005158_zpid/,33.637,-112.03399999999999,6620,2018-02-15
561461,23912399,"1056 W Frito Ave, Mesa, AZ 85210 ",85210,0.25121259689331055,0.9027009010314941,0.22676983756605296,199900,https://www.zillow.com/homedetails/1056-W-Frito-Ave-Mesa-AZ-85210/7598718_zpid/,33.3955,-111.855,6638,2018-03-05
703769,23889330,"736 S Sycamore, Mesa, AZ 85202 ",85202,0.2524988204240799,0.8964321613311768,0.22634806332633062,239900,https://www.zillow.com/homedetails/736-S-Sycamore-Mesa-AZ-85202/7604484_zpid/,33.4012,-111.87,6624,2018-02-19
251570,23881419,"710 E Sack Dr, Phoenix, AZ 85024 ",85024,0.24817096441984177,0.9114313125610352,0.22619078784071434,240000,https://www.zillow.com/homedetails/710-E-Sack-Dr-Phoenix-AZ-85024/7997524_zpid/,33.6583,-112.065,6620,2018-02-15
243943,23929305,"18466 N 5TH Ave, Phoenix, AZ 85023 ",85023,0.24817096441984177,0.9108219146728516,0.2260395529790884,244000,https://www.zillow.com/homedetails/18466-N-5TH-Ave-Phoenix-AZ-85023/7956365_zpid/,33.6543,-112.08,6628,2018-02-23
1091759,23886133,"701 W Dublin St, Chandler, AZ 85225 ",85225,0.25121259689331055,0.8979010283946991,0.22556404909620653,225000,https://www.zillow.com/homedetails/701-W-Dublin-St-Chandler-AZ-85225/8189377_zpid/,33.3186,-111.853,6588,2018-01-14
1090009,23867209,"615 W Dublin St, Chandler, AZ 85225 ",85225,0.25121259689331055,0.8965705335140228,0.2252298120220786,247000,https://www.zillow.com/homedetails/615-W-Dublin-St-Chandler-AZ-85225/8189370_zpid/,33.3189,-111.851,6586,2018-01-12
976190,23921531,"739 N Valencia Pl, Chandler, AZ 85226 ",85226,0.25121259689331055,0.8965108692646027,0.22521482361104006,244900,https://www.zillow.com/homedetails/739-N-Valencia-Pl-Chandler-AZ-85226/8155195_zpid/,33.3161,-111.90899999999999,6651,2018-03-18
355451,23891815,"414 E Danbury Rd, Phoenix, AZ 85022 ",85022,0.2504561096429825,0.8991549909114838,0.2251988609897615,179900,https://www.zillow.com/homedetails/414-E-Danbury-Rd-Phoenix-AZ-85022/7959485_zpid/,33.6425,-112.068,6627,2018-02-22
629569,23853723,"1645 W Peralta Ave, Mesa, AZ 85202 ",85202,0.2535233572125435,0.8877407312393188,0.2250630105181104,222900,https://www.zillow.com/homedetails/1645-W-Peralta-Ave-Mesa-AZ-85202/8191627_zpid/,33.3572,-111.87,6553,2017-12-10
641977,23886870,"2135 W Plata Ave, Mesa, AZ 85202 ",85202,0.2524988204240799,0.8901997804641724,0.2247743945089784,209987,https://www.zillow.com/homedetails/2135-W-Plata-Ave-Mesa-AZ-85202/8171520_zpid/,33.3608,-111.88,6621,2018-02-16
1118968,23920456,"2113 W Boston St, Chandler, AZ 85224 ",85224,0.2524988204240799,0.8901291787624359,0.22475656766257002,205000,https://www.zillow.com/homedetails/2113-W-Boston-St-Chandler-AZ-85224/8208049_zpid/,33.3016,-111.87799999999999,6642,2018-03-09
9017627,23874046,"1221 W 1st Pl, Mesa, AZ 85201 ",85201,0.2535233572125435,0.8861339688301086,0.2246556587178845,215000,https://www.zillow.com/homedetails/1221-W-1st-Pl-Mesa-AZ-85201/7611051_zpid/,33.4178,-111.85700000000001,6613,2018-02-08
623384,23877222,"1441 S Revere, Mesa, AZ 85210 ",85210,0.25121259689331055,0.8932185173034668,0.22438774332499634,175000,https://www.zillow.com/homedetails/1441-S-Revere-Mesa-AZ-85210/7599342_zpid/,33.3886,-111.84700000000001,6618,2018-02-13
1094985,23886129,"825 W Temple St, Chandler, AZ 85225 ",85225,0.2524988204240799,0.8884850144386292,0.22434141811022545,230000,https://www.zillow.com/homedetails/825-W-Temple-St-Chandler-AZ-85225/8183622_zpid/,33.3326,-111.85700000000001,6591,2018-01-17
9032346,23921566,"538 W Monterey St, Chandler, AZ 85225 ",85225,0.25121259689331055,0.8924788236618042,0.2242019229643688,171400,https://www.zillow.com/homedetails/538-W-Monterey-St-Chandler-AZ-85225/8187065_zpid/,33.315,-111.84899999999999,6630,2018-02-25
1121899,23885878,"2404 W Chilton St, Chandler, AZ 85224 ",85224,0.25121259689331055,0.8919450640678406,0.22406783583065248,209000,https://www.zillow.com/homedetails/2404-W-Chilton-St-Chandler-AZ-85224/8196978_zpid/,33.3522,-111.884,6608,2018-02-03
9020875,23879906,"319 W Utopia Rd, Phoenix, AZ 85027 ",85027,0.24944288283586502,0.898080050945282,0.22401967692517166,229000,https://www.zillow.com/homedetails/319-W-Utopia-Rd-Phoenix-AZ-85027/7968688_zpid/,33.6617,-112.079,6619,2018-02-14
1122798,23892196,"256 S Dobson Rd, Chandler, AZ 85224 ",85224,0.25121259689331055,0.8915709555149078,0.22397385504955025,199000,https://www.zillow.com/homedetails/256-S-Dobson-Rd-Chandler-AZ-85224/8207976_zpid/,33.2994,-111.87700000000001,6627,2018-02-22
559473,23891456,"1248 W 6TH Ave, Mesa, AZ 85202 ",85202,0.2522263154387474,0.8879832327365875,0.22397273896453718,169900,https://www.zillow.com/homedetails/1248-W-6th-Ave-Mesa-AZ-85202/7604264_zpid/,33.4037,-111.85799999999999,6618,2018-02-13
976364,23921519,"77 S Tercera Pl, Chandler, AZ 85226 ",85226,0.2524988204240799,0.8858845829963684,0.22368481223846093,224900,https://www.zillow.com/homedetails/77-S-Tercera-Pl-Chandler-AZ-85226/55273352_zpid/,33.3021,-111.90700000000001,6650,2018-03-17
212762,23873366,"5130 E Windsor Ave, Phoenix, AZ 85008 ",85008,0.2535233572125435,0.8814918696880341,0.2234787781588723,240000,https://www.zillow.com/homedetails/5130-E-Windsor-Ave-Phoenix-AZ-85008/7561690_zpid/,33.4786,-111.97,6609,2018-02-04
224890,23881220,"1207 W Rose Marie Ln, Phoenix, AZ 85023 ",85023,0.2504561096429825,0.8921091556549072,0.22343418850221397,247500,https://www.zillow.com/homedetails/1207-W-Rose-Marie-Ln-Phoenix-AZ-85023/7957073_zpid/,33.6521,-112.089,6613,2018-02-08
9021795,23854390,"747 W Rosal Pl, Chandler, AZ 85225 ",85225,0.25121259689331055,0.8893101513385773,0.223405912561347,244800,https://www.zillow.com/homedetails/747-W-Rosal-Pl-Chandler-AZ-85225/8177685_zpid/,33.3412,-111.855,6551,2017-12-08
384329,23890041,"13442 N 16TH Ave, Phoenix, AZ 85029 ",85029,0.2504561096429825,0.890421062707901,0.22301139530999103,225000,https://www.zillow.com/homedetails/13442-N-16TH-Ave-Phoenix-AZ-85029/7784159_zpid/,33.6098,-112.094,6625,2018-02-20
976127,23846057,"734 N Tangerine Dr, Chandler, AZ 85226 ",85226,0.2522263154387474,0.8835031688213348,0.2228427489502629,204900,https://www.zillow.com/homedetails/734-N-Tangerine-Dr-Chandler-AZ-85226/8156625_zpid/,33.3162,-111.928,6544,2017-12-01
562277,23912570,"1407 W 7TH Dr, Mesa, AZ 85202 ",85202,0.2524988204240799,0.8821840584278107,0.22275043414994977,199000,https://www.zillow.com/homedetails/1407-W-7TH-Dr-Mesa-AZ-85202/7604609_zpid/,33.4013,-111.86200000000001,6645,2018-03-12
356334,23881413,"819 E Audrey Ln, Phoenix, AZ 85022 ",85022,0.24817096441984177,0.8972286880016327,0.2226661088065145,249900,https://www.zillow.com/homedetails/819-E-Audrey-Ln-Phoenix-AZ-85022/8002728_zpid/,33.6543,-112.06299999999999,6614,2018-02-09
559662,23912498,"1302 W 7TH Dr, Mesa, AZ 85202 ",85202,0.2524988204240799,0.8814287781715393,0.22255972677615166,177000,https://www.zillow.com/homedetails/1302-W-7TH-Dr-Mesa-AZ-85202/7604299_zpid/,33.4017,-111.859,6635,2018-03-02
9027960,23897448,"2739 E Schiliro Cir, Phoenix, AZ 85032 ",85032,0.2504561096429825,0.8878591060638428,0.22236973761584622,230000,https://www.zillow.com/homedetails/2739-E-Schiliro-Cir-Phoenix-AZ-85032/88787626_zpid/,33.641999999999996,-112.024,6612,2018-02-07
9027929,23897509,"3756 E Surrey Ave, Phoenix, AZ 85032 ",85032,0.24817096441984177,0.8953667283058167,0.22220402447309295,234500,https://www.zillow.com/homedetails/3756-E-Surrey-Ave-Phoenix-AZ-85032/7814169_zpid/,33.6058,-112.0,6630,2018-02-25
235315,23915223,"16027 N 19TH Dr, Phoenix, AZ 85023 ",85023,0.24794188141822815,0.89567631483078,0.22207567064088884,249900,https://www.zillow.com/homedetails/16027-N-19TH-Dr-Phoenix-AZ-85023/81980470_zpid/,33.6314,-112.1,6631,2018-02-26
251000,23881402,"522 E Utopia Rd, Phoenix, AZ 85024 ",85024,0.24944288283586502,0.890247255563736,0.22206584186453537,229000,https://www.zillow.com/homedetails/522-E-Utopia-Rd-Phoenix-AZ-85024/7968037_zpid/,33.6623,-112.06700000000001,6611,2018-02-06
251306,23891024,"533 E Taro Ln, Phoenix, AZ 85024 ",85024,0.24944288283586502,0.8890314996242523,0.22176258019816575,236000,https://www.zillow.com/homedetails/533-E-Taro-Ln-Phoenix-AZ-85024/7972372_zpid/,33.6591,-112.066,6617,2018-02-12
222384,23888203,"1010 W Anderson Dr, Phoenix, AZ 85023 ",85023,0.24917340278625488,0.8894903063774109,0.22163732638544786,200000,https://www.zillow.com/homedetails/1010-W-Anderson-Dr-Phoenix-AZ-85023/7963547_zpid/,33.6432,-112.087,6621,2018-02-16
561282,23877184,"1050 W Farmdale Ave, Mesa, AZ 85210 ",85210,0.25121259689331055,0.8812374770641327,0.22137795509298996,195000,https://www.zillow.com/homedetails/1050-W-Farmdale-Ave-Mesa-AZ-85210/7598750_zpid/,33.3962,-111.854,6619,2018-02-14
313265,23877970,"1613 W Hadley St, Phoenix, AZ 85007 ",85007,0.2524988204240799,0.8767049908638,0.22136697605301325,179900,https://www.zillow.com/homedetails/1613-W-Hadley-St-Phoenix-AZ-85007/7522592_zpid/,33.4392,-112.094,6608,2018-02-03
383956,23881937,"13249 N 14TH Dr, Phoenix, AZ 85029 ",85029,0.2504561096429825,0.8835561573505402,0.22129203782111917,235000,https://www.zillow.com/homedetails/13249-N-14TH-Dr-Phoenix-AZ-85029/7784486_zpid/,33.6077,-112.09,6619,2018-02-14
349587,23892378,"18405 N 16TH Way, Phoenix, AZ 85022 ",85022,0.24817096441984177,0.8916625380516052,0.22128475200531073,224900,https://www.zillow.com/homedetails/18405-N-16TH-Way-Phoenix-AZ-85022/8001243_zpid/,33.6533,-112.045,6630,2018-02-25
965657,23930144,"4724 W Del Rio St, Chandler, AZ 85226 ",85226,0.2522263154387474,0.8771813213825226,0.2212482126640054,237000,https://www.zillow.com/homedetails/4724-W-Del-Rio-St-Chandler-AZ-85226/8156655_zpid/,33.3162,-111.925,6656,2018-03-23
385444,23890035,"1615 W Surrey Ave, Phoenix, AZ 85029 ",85029,0.2504561096429825,0.8819476068019867,0.22088916650856438,233500,https://www.zillow.com/homedetails/1615-W-Surrey-Ave-Phoenix-AZ-85029/7784378_zpid/,33.6049,-112.095,6625,2018-02-20
1093584,23859955,"781 W Del Rio St, Chandler, AZ 85225 ",85225,0.2524988204240799,0.8742507696151733,0.2207472880826753,248900,https://www.zillow.com/homedetails/781-W-Del-Rio-St-Chandler-AZ-85225/8186554_zpid/,33.3158,-111.854,6565,2017-12-22
9030878,23910358,"1022 E Villa Theresa Dr, Phoenix, AZ 85022 ",85022,0.24817096441984177,0.8893769085407257,0.2207175251252893,249900,https://www.zillow.com/homedetails/1022-E-Villa-Theresa-Dr-Phoenix-AZ-85022/8002651_zpid/,33.6537,-112.059,6613,2018-02-08
258336,23929325,"520 W Oraibi Dr, Phoenix, AZ 85027 ",85027,0.24944288283586502,0.8841406106948853,0.2205425827639944,204500,https://www.zillow.com/homedetails/520-W-Oraibi-Dr-Phoenix-AZ-85027/7968150_zpid/,33.6637,-112.08200000000001,6646,2018-03-13
227870,23879803,"1420 W Michelle Dr, Phoenix, AZ 85023 ",85023,0.2504561096429825,0.8804456293582916,0.220512987081245,242000,https://www.zillow.com/homedetails/1420-W-Michelle-Dr-Phoenix-AZ-85023/7956946_zpid/,33.6498,-112.09100000000001,6618,2018-02-13
1087197,23889579,"414 W Detroit St, Chandler, AZ 85225 ",85225,0.2524988204240799,0.8732889294624329,0.2205044245786718,199900,https://www.zillow.com/homedetails/414-W-Detroit-St-Chandler-AZ-85225/8187455_zpid/,33.3082,-111.84700000000001,6624,2018-02-19
208221,23889335,"3123 E Roosevelt St, Phoenix, AZ 85008 ",85008,0.2524988204240799,0.8725856244564056,0.22032684089425159,182900,https://www.zillow.com/homedetails/3123-E-Roosevelt-St-Phoenix-AZ-85008/7544984_zpid/,33.4582,-112.014,6624,2018-02-19
9027954,23897411,"2622 E Corrine Dr, Phoenix, AZ 85032 ",85032,0.24944288283586502,0.8830780684947968,0.22027753917446957,249000,https://www.zillow.com/homedetails/2622-E-Corrine-Dr-Phoenix-AZ-85032/7820387_zpid/,33.6006,-112.025,6628,2018-02-23
225985,23915214,"1505 E Taro Ln, Phoenix, AZ 85024 ",85024,0.24817096441984177,0.887573629617691,0.22027000365584182,200000,https://www.zillow.com/homedetails/1505-E-Taro-Ln-Phoenix-AZ-85024/7995787_zpid/,33.6591,-112.04899999999999,6638,2018-03-05
224881,23891793,"1326 W Topeka Dr, Phoenix, AZ 85027 ",85027,0.24944288283586502,0.8826156556606293,0.22016219358405453,170000,https://www.zillow.com/homedetails/1326-W-Topeka-Dr-Phoenix-AZ-85027/7971741_zpid/,33.6599,-112.089,6627,2018-02-22
254794,23872042,"306 W Kings Ave, Phoenix, AZ 85023 ",85023,0.2504561096429825,0.8787725567817688,0.22009395583257874,219900,https://www.zillow.com/homedetails/306-W-Kings-Ave-Phoenix-AZ-85023/7965343_zpid/,33.6358,-112.079,6603,2018-01-29
9033271,23930083,"1929 N Iowa St, Chandler, AZ 85225 ",85225,0.2524988204240799,0.8715251088142395,0.22005906194556335,223000,https://www.zillow.com/homedetails/1929-N-Iowa-St-Chandler-AZ-85225/8182706_zpid/,33.3324,-111.85,6654,2018-03-21
248862,23915551,"306 E Piute Ave, Phoenix, AZ 85024 ",85024,0.24944288283586502,0.882175475358963,0.22005239374063934,199900,https://www.zillow.com/homedetails/306-E-Piute-Ave-Phoenix-AZ-85024/7967866_zpid/,33.6635,-112.07,6656,2018-03-23
9029712,23904484,"3407 E Le Marche Ave, Phoenix, AZ 85032 ",85032,0.24817096441984177,0.8866775631904602,0.2200476259864117,248000,https://www.zillow.com/homedetails/3407-E-Le-Marche-Ave-Phoenix-AZ-85032/8007155_zpid/,33.6324,-112.009,6614,2018-02-09
702539,23868455,"545 S Stewart, Mesa, AZ 85202 ",85202,0.2535233572125435,0.8678243458271027,0.22001374162486642,184000,https://www.zillow.com/homedetails/545-S-Stewart-Mesa-AZ-85202/7604679_zpid/,33.4045,-111.859,6592,2018-01-18
9020278,23871099,"642 E Piping Rock Rd, Phoenix, AZ 85022 ",85022,0.24917340278625488,0.8822603523731232,0.21983581414421138,248000,https://www.zillow.com/homedetails/642-E-Piping-Rock-Rd-Phoenix-AZ-85022/7963227_zpid/,33.6144,-112.066,6600,2018-01-26
349197,23892377,"18238 N 17TH Way, Phoenix, AZ 85022 ",85022,0.2504561096429825,0.8774139583110809,0.21975368654504335,219900,https://www.zillow.com/homedetails/18238-N-17TH-Way-Phoenix-AZ-85022/8001345_zpid/,33.6526,-112.045,6628,2018-02-23
242834,23891799,"18213 N 11TH Ave, Phoenix, AZ 85023 ",85023,0.24917340278625488,0.8818899095058441,0.21974350963443356,224900,https://www.zillow.com/homedetails/18213-N-11TH-Ave-Phoenix-AZ-85023/7956722_zpid/,33.6516,-112.087,6627,2018-02-22
212907,23880151,"5306 E Windsor Ave, Phoenix, AZ 85008 ",85008,0.2535233572125435,0.8664509057998657,0.21966554249823123,219900,https://www.zillow.com/homedetails/5306-E-Windsor-Ave-Phoenix-AZ-85008/7562724_zpid/,33.4785,-111.96700000000001,6620,2018-02-15
9029588,23903860,"2206 W Dahlia Dr, Phoenix, AZ 85029 ",85029,0.24565673619508743,0.8940360844135284,0.21962598653766308,239900,https://www.zillow.com/homedetails/2206-W-Dahlia-Dr-Phoenix-AZ-85029/7738947_zpid/,33.6035,-112.10600000000001,6622,2018-02-17
9029753,23907035,"2208 W Dahlia Dr, Phoenix, AZ 85029 ",85029,0.24565673619508743,0.8940360844135284,0.21962598653766308,239900,https://www.zillow.com/homedetails/2208-W-Dahlia-Dr-Phoenix-AZ-85029/2090952469_zpid/,33.6035,-112.10600000000001,6626,2018-02-21
332676,23888288,"12202 N 22ND Pl, Phoenix, AZ 85022 ",85022,0.2504561096429825,0.8762909770011902,0.21947242901496633,235000,https://www.zillow.com/homedetails/12202-N-22ND-Pl-Phoenix-AZ-85022/7819953_zpid/,33.597,-112.03399999999999,6620,2018-02-15
1091154,23858452,"668 W Shawnee Dr, Chandler, AZ 85225 ",85225,0.25121259689331055,0.8729811608791351,0.21930386446338446,239900,https://www.zillow.com/homedetails/668-W-Shawnee-Dr-Chandler-AZ-85225/8200509_zpid/,33.3448,-111.852,6535,2017-11-22
9027933,23897343,"13248 N 38th Pl, Phoenix, AZ 85032 ",85032,0.24944288283586502,0.8788316547870636,0.21921830149749888,249900,https://www.zillow.com/homedetails/13248-N-38th-Pl-Phoenix-AZ-85032/7814119_zpid/,33.6076,-111.999,6619,2018-02-14
28079,23881418,"525 E Wescott Dr, Phoenix, AZ 85024 ",85024,0.24944288283586502,0.8784796595573425,0.21913049879265278,230000,https://www.zillow.com/homedetails/525-E-Wescott-Dr-Phoenix-AZ-85024/7972272_zpid/,33.6586,-112.06700000000001,6606,2018-02-01
635106,23871182,"1835 S Yucca, Mesa, AZ 85202 ",85202,0.2524988204240799,0.8678138852119446,0.21912198236365388,225000,https://www.zillow.com/homedetails/1835-S-Yucca-Mesa-AZ-85202/8250862_zpid/,33.3818,-111.874,6599,2018-01-25
559333,23871337,"1223 W 6TH Ave, Mesa, AZ 85202 ",85202,0.2522263154387474,0.8683279752731323,0.21901516579552993,199900,https://www.zillow.com/homedetails/1223-W-6th-Ave-Mesa-AZ-85202/7604271_zpid/,33.4035,-111.85799999999999,6576,2018-01-02
8999939,23873450,"1334 W Utopia Rd, Phoenix, AZ 85027 ",85027,0.24944288283586502,0.8776490986347198,0.21892332128174297,242900,https://www.zillow.com/homedetails/1334-W-Utopia-Rd-Phoenix-AZ-85027/7971426_zpid/,33.6619,-112.089,6611,2018-02-06
336388,23891504,"2012 W Alice Ave, Phoenix, AZ 85021 ",85021,0.2469286546111107,0.8863722085952759,0.21887069695311023,244900,https://www.zillow.com/homedetails/2012-W-Alice-Ave-Phoenix-AZ-85021/7779747_zpid/,33.5641,-112.103,6614,2018-02-09
230933,23879852,"18608 N 17th Ave, Phoenix, AZ 85027 ",85027,0.24944288283586502,0.8765746653079987,0.2186553115353107,214900,https://www.zillow.com/homedetails/18608-N-17th-Ave-Phoenix-AZ-85027/7969674_zpid/,33.6552,-112.096,6618,2018-02-13
387117,23882038,"2122 W Shaw Butte Dr, Phoenix, AZ 85029 ",85029,0.24565673619508743,0.889365553855896,0.21847863924457567,235000,https://www.zillow.com/homedetails/2122-W-Shaw-Butte-Dr-Phoenix-AZ-85029/7748964_zpid/,33.5962,-112.105,6607,2018-02-02
233894,23915420,"19214 N 2ND Ave, Phoenix, AZ 85027 ",85027,0.24944288283586502,0.8750381767749786,0.21827204540618994,218000,https://www.zillow.com/homedetails/19214-N-2ND-Ave-Phoenix-AZ-85027/7968750_zpid/,33.6609,-112.07600000000001,6650,2018-03-17
9024730,23873254,"3432 E Taylor St, Phoenix, AZ 85008 ",85008,0.2524988204240799,0.8640106320381165,0.21816166542348814,239000,https://www.zillow.com/homedetails/3432-E-Taylor-St-Phoenix-AZ-85008/7544478_zpid/,33.454,-112.007,6609,2018-02-04
1092802,23820224,"731 W Palomino Dr, Chandler, AZ 85225 ",85225,0.25121259689331055,0.8682910799980164,0.21812565706559894,245900,https://www.zillow.com/homedetails/731-W-Palomino-Dr-Chandler-AZ-85225/8177603_zpid/,33.3404,-111.855,6516,2017-11-03
222670,23871974,"1018 W Anderson Dr, Phoenix, AZ 85023 ",85023,0.24917340278625488,0.8749939799308777,0.2180252273968648,198000,https://www.zillow.com/homedetails/1018-W-Anderson-Dr-Phoenix-AZ-85023/7963545_zpid/,33.6432,-112.087,6603,2018-01-29
384323,23864506,"1344 W Joan De Arc Ave, Phoenix, AZ 85029 ",85029,0.2504561096429825,0.8703328967094421,0.2179801914041546,210000,https://www.zillow.com/homedetails/1344-W-Joan-De-Arc-Ave-Phoenix-AZ-85029/7784468_zpid/,33.6078,-112.089,6584,2018-01-10
646853,23912683,"2260 W De Palma Cir, Mesa, AZ 85202 ",85202,0.25121259689331055,0.8676676154136658,0.21796903490829322,240000,https://www.zillow.com/homedetails/2260-W-De-Palma-Cir-Mesa-AZ-85202/7602060_zpid/,33.4029,-111.881,6636,2018-03-03
251314,23915810,"533 E Utopia Rd, Phoenix, AZ 85024 ",85024,0.24944288283586502,0.873599112033844,0.21791308094857387,240000,https://www.zillow.com/homedetails/533-E-Utopia-Rd-Phoenix-AZ-85024/7972470_zpid/,33.6619,-112.066,6653,2018-03-20
249458,23915675,"413 E Oraibi Dr, Phoenix, AZ 85024 ",85024,0.24944288283586502,0.8734232187271118,0.21786920561507106,222000,https://www.zillow.com/homedetails/413-E-Oraibi-Dr-Phoenix-AZ-85024/67085271_zpid/,33.6637,-112.068,6655,2018-03-22
229029,23888305,"18611 N 22ND St LOT 23, Phoenix, AZ 85024 ",85024,0.24944288283586502,0.8726331293582916,0.21767212344521458,229900,https://www.zillow.com/homedetails/18611-N-22ND-St-LOT-23-Phoenix-AZ-85024/7995053_zpid/,33.6568,-112.03299999999999,6604,2018-01-30
9029709,23904360,"3043 E Kings Ave, Phoenix, AZ 85032 ",85032,0.24817096441984177,0.8766090273857117,0.21754890774545155,219900,https://www.zillow.com/homedetails/3043-E-Kings-Ave-Phoenix-AZ-85032/62731408_zpid/,33.6363,-112.016,6600,2018-01-26
9008440,23873693,"2627 E Wallace Ave, Phoenix, AZ 85032 ",85032,0.2504561096429825,0.8682211339473724,0.2174512875182777,220000,https://www.zillow.com/homedetails/2627-E-Wallace-Ave-Phoenix-AZ-85032/95164807_zpid/,33.6398,-112.02600000000001,6606,2018-02-01
686171,23891692,"2720 N 27TH St, Phoenix, AZ 85008 ",85008,0.2524988204240799,0.8609599173069,0.21739136355240563,225000,https://www.zillow.com/homedetails/2720-N-27TH-St-Phoenix-AZ-85008/7543480_zpid/,33.4783,-112.024,6626,2018-02-21
9026550,23892674,"3801 E Acoma Dr, Phoenix, AZ 85032 ",85032,0.24944288283586502,0.8714112043380737,0.21736732294556216,243500,https://www.zillow.com/homedetails/3801-E-Acoma-Dr-Phoenix-AZ-85032/8012742_zpid/,33.6189,-111.999,6632,2018-02-27
9027998,23897725,"13833 N 41ST Pl, Phoenix, AZ 85032 ",85032,0.2504561096429825,0.8678551018238068,0.21735961253660507,198900,https://www.zillow.com/homedetails/13833-N-41ST-Pl-Phoenix-AZ-85032/8029998_zpid/,33.6131,-111.992,6628,2018-02-23
9030926,23910920,"1515 W Andorra Dr, Phoenix, AZ 85029 ",85029,0.2504561096429825,0.8666069209575653,0.21704699801271543,239900,https://www.zillow.com/homedetails/1515-W-Andorra-Dr-Phoenix-AZ-85029/7784260_zpid/,33.6062,-112.09200000000001,6607,2018-02-02
215095,23886638,"1349 E Shangri La Rd, Phoenix, AZ 85020 ",85020,0.2504561096429825,0.8663889169692993,0.21699239758192768,172900,https://www.zillow.com/homedetails/1349-E-Shangri-La-Rd-Phoenix-AZ-85020/71327020_zpid/,33.5876,-112.052,6618,2018-02-13
9023070,23870107,"2024 E Villa Theresa Dr, Phoenix, AZ 85022 ",85022,0.24944288283586502,0.8697045147418976,0.216941601372586,235000,https://www.zillow.com/homedetails/2024-E-Villa-Theresa-Dr-Phoenix-AZ-85022/8000570_zpid/,33.6544,-112.039,6597,2018-01-23
231745,23915295,"19413 N 8TH St, Phoenix, AZ 85024 ",85024,0.24944288283586502,0.8692860901355743,0.21683722833253527,214900,https://www.zillow.com/homedetails/19413-N-8TH-St-Phoenix-AZ-85024/7996318_zpid/,33.6627,-112.06299999999999,6633,2018-02-28
242466,23881351,"2121 W Wickieup Ln, Phoenix, AZ 85027 ",85027,0.24565673619508743,0.882321834564209,0.21674830215270546,239000,https://www.zillow.com/homedetails/2121-W-Wickieup-Ln-Phoenix-AZ-85027/7970392_zpid/,33.6633,-112.105,6620,2018-02-15
348846,23888294,"1821 E Sandra Ter, Phoenix, AZ 85022 ",85022,0.2504561096429825,0.8651265203952789,0.2166762226471719,164750,https://www.zillow.com/homedetails/1821-E-Sandra-Ter-Phoenix-AZ-85022/8004659_zpid/,33.6343,-112.04299999999999,6620,2018-02-15
353000,23889980,"2139 E Larkspur Dr, Phoenix, AZ 85022 ",85022,0.2504561096429825,0.864971250295639,0.21663733430207222,175000,https://www.zillow.com/homedetails/2139-E-Larkspur-Dr-Phoenix-AZ-85022/7815760_zpid/,33.6002,-112.035,6625,2018-02-20
256906,23870517,"609 W Beverly Ln, Phoenix, AZ 85023 ",85023,0.24917340278625488,0.8671175241470337,0.21606262410730892,219900,https://www.zillow.com/homedetails/609-W-Beverly-Ln-Phoenix-AZ-85023/7965493_zpid/,33.6333,-112.08200000000001,6598,2018-01-24
9027974,23897567,"3227 E Campo Bello Dr, Phoenix, AZ 85032 ",85032,0.24944288283586502,0.8657995164394379,0.2159675273385513,219999,https://www.zillow.com/homedetails/3227-E-Campo-Bello-Dr-Phoenix-AZ-85032/7998563_zpid/,33.6441,-112.012,6620,2018-02-15
9031745,23915938,"754 E Rosemonte Dr, Phoenix, AZ 85024 ",85024,0.24817096441984177,0.8697631657123566,0.21584996365169018,249999,https://www.zillow.com/homedetails/754-E-Rosemonte-Dr-Phoenix-AZ-85024/7997468_zpid/,33.6572,-112.064,6656,2018-03-23
247401,23887027,"2126 W Le Marche Ave, Phoenix, AZ 85023 ",85023,0.2469286546111107,0.8740733563899994,0.21583375792480042,237000,https://www.zillow.com/homedetails/2126-W-Le-Marche-Ave-Phoenix-AZ-85023/89220582_zpid/,33.632,-112.105,6607,2018-02-02
2066173,23881213,"17427 N 16th Ln, Phoenix, AZ 85023 ",85023,0.2504561096429825,0.8614182472229004,0.21574746297492453,210000,https://www.zillow.com/homedetails/17427-N-16th-Ln-Phoenix-AZ-85023/7958487_zpid/,33.6447,-112.095,6618,2018-02-13
327629,23884338,"2044 W Ocotillo Rd, Phoenix, AZ 85015 ",85015,0.24698761105537415,0.873384952545166,0.21571526296084187,176900,https://www.zillow.com/homedetails/2044-W-Ocotillo-Rd-Phoenix-AZ-85015/7773527_zpid/,33.5357,-112.104,6615,2018-02-10
644742,23869677,"2222 W Peralta Ave, Mesa, AZ 85202 ",85202,0.25121259689331055,0.8586950302124023,0.21571500847903735,191000,https://www.zillow.com/homedetails/2222-W-Peralta-Ave-Mesa-AZ-85202/8171027_zpid/,33.3578,-111.882,6594,2018-01-20
382333,23881929,"12615 N 20th Dr, Phoenix, AZ 85029 ",85029,0.2469286546111107,0.8733821213245392,0.2156630721800663,199900,https://www.zillow.com/homedetails/12615-N-20th-Dr-Phoenix-AZ-85029/7738832_zpid/,33.6009,-112.103,6613,2018-02-08
7436448,23881415,"757 E Rosemonte Dr, Phoenix, AZ 85024 ",85024,0.24817096441984177,0.8688520193099976,0.21562384357028908,245900,https://www.zillow.com/homedetails/757-E-Rosemonte-Dr-Phoenix-AZ-85024/7997447_zpid/,33.6568,-112.06299999999999,6596,2018-01-22
234736,23915231,"15919 N 21ST Ln, Phoenix, AZ 85023 ",85023,0.2469286546111107,0.8727248311042786,0.2155007683902883,199000,https://www.zillow.com/homedetails/15919-N-21ST-Ln-Phoenix-AZ-85023/82823718_zpid/,33.6305,-112.105,6646,2018-03-13
9030869,23910166,"2134 W Utopia Rd, Phoenix, AZ 85027 ",85027,0.24565673619508743,0.8767618536949158,0.21538245539904777,249900,https://www.zillow.com/homedetails/2134-W-Utopia-Rd-Phoenix-AZ-85027/92350635_zpid/,33.6622,-112.10600000000001,6618,2018-02-13
554185,23911998,"2105 W Jefferson St, Phoenix, AZ 85009 ",85009,0.24996966123580933,0.8616011738777161,0.21537415355458833,214900,https://www.zillow.com/homedetails/2105-W-Jefferson-St-Phoenix-AZ-85009/81959914_zpid/,33.4467,-112.105,6639,2018-03-06
1115843,23930034,"1725 W Loughlin Dr, Chandler, AZ 85224 ",85224,0.2522263154387474,0.8526005744934082,0.21504830144543163,225000,https://www.zillow.com/homedetails/1725-W-Loughlin-Dr-Chandler-AZ-85224/8176421_zpid/,33.3451,-111.874,6655,2018-03-22
337751,23867585,"14407 N 23RD St, Phoenix, AZ 85022 ",85022,0.24917340278625488,0.8625620901584625,0.21492753111920848,219000,https://www.zillow.com/homedetails/14407-N-23rd-St-Phoenix-AZ-85022/8010507_zpid/,33.618,-112.03399999999999,6590,2018-01-16
4925,23915333,"19407 N 9TH St, Phoenix, AZ 85024 ",85024,0.24944288283586502,0.8615534603595734,0.21490837886930714,204000,https://www.zillow.com/homedetails/19407-N-9TH-St-Phoenix-AZ-85024/7996476_zpid/,33.6625,-112.061,6647,2018-03-14
2044790,23879407,"15613 N 33RD Pl, Phoenix, AZ 85032 ",85032,0.24944288283586502,0.8613578975200653,0.21485959711084468,225000,https://www.zillow.com/homedetails/15613-N-33RD-Pl-Phoenix-AZ-85032/55267922_zpid/,33.6291,-112.01,6607,2018-02-02
383147,23881939,"13014 N 18th Dr, Phoenix, AZ 85029 ",85029,0.24794188141822815,0.8665336966514587,0.21484999506005487,225000,https://www.zillow.com/homedetails/13014-N-18th-Dr-Phoenix-AZ-85029/7784318_zpid/,33.6055,-112.09899999999999,6614,2018-02-09
244592,23872363,"1941 W Faria Ln, Phoenix, AZ 85023 ",85023,0.2469286546111107,0.870048850774765,0.21483999216775573,194000,https://www.zillow.com/homedetails/1941-W-Faria-Ln-Phoenix-AZ-85023/81954546_zpid/,33.6312,-112.101,6605,2018-01-31
249685,23929319,"421 E Kerry Ln, Phoenix, AZ 85024 ",85024,0.24944288283586502,0.8605599701404572,0.21466055980498155,200000,https://www.zillow.com/homedetails/421-E-Kerry-Ln-Phoenix-AZ-85024/7972492_zpid/,33.6603,-112.069,6649,2018-03-16
245127,23915303,"1963 W Greenbriar Dr, Phoenix, AZ 85023 ",85023,0.24565673619508743,0.8738059401512146,0.21465631532542728,222900,https://www.zillow.com/homedetails/1963-W-Greenbriar-Dr-Phoenix-AZ-85023/7958387_zpid/,33.6466,-112.102,6641,2018-03-08
9026512,23869184,"1339 W 1ST St, Mesa, AZ 85201 ",85201,0.2535233572125435,0.8465692102909088,0.21462506830572292,186000,https://www.zillow.com/homedetails/1339-W-1st-St-Mesa-AZ-85201/7611036_zpid/,33.4172,-111.86,6592,2018-01-18
258179,23864232,"417 W Renee Dr, Phoenix, AZ 85027 ",85027,0.24944288283586502,0.8599838614463806,0.2145168535915043,205000,https://www.zillow.com/homedetails/417-W-Renee-Dr-Phoenix-AZ-85027/7972590_zpid/,33.6551,-112.08,6583,2018-01-09
226627,23877124,"1443 W Morrow Dr, Phoenix, AZ 85027 ",85027,0.24944288283586502,0.8599052727222443,0.21449725019359733,247000,https://www.zillow.com/homedetails/1443-W-Morrow-Dr-Phoenix-AZ-85027/7969034_zpid/,33.6569,-112.09100000000001,6606,2018-02-01
209945,23892052,"1101 E Brown St, Phoenix, AZ 85020 ",85020,0.24917340278625488,0.8605994880199432,0.21443850286603805,185000,https://www.zillow.com/homedetails/1101-E-Brown-St-Phoenix-AZ-85020/7787476_zpid/,33.5772,-112.059,6627,2018-02-22
12342,23881423,"814 E Morningside Dr, Phoenix, AZ 85022 ",85022,0.24917340278625488,0.8605195581912994,0.21441858647865075,149990,https://www.zillow.com/homedetails/814-E-Morningside-Dr-Phoenix-AZ-85022/8002317_zpid/,33.6497,-112.06299999999999,6609,2018-02-04
325822,23890673,"1724 W Citrus Way, Phoenix, AZ 85015 ",85015,0.2518125995993614,0.8509588241577148,0.21428215366317005,232900,https://www.zillow.com/homedetails/1724-W-Citrus-Way-Phoenix-AZ-85015/7774020_zpid/,33.5308,-112.096,6626,2018-02-21
311391,23887102,"1237 S 13th Ave, Phoenix, AZ 85007 ",85007,0.25121259689331055,0.8527317345142365,0.2142169534806584,179990,https://www.zillow.com/homedetails/1237-S-13th-Ave-Phoenix-AZ-85007/7500706_zpid/,33.4354,-112.089,6621,2018-02-16
9026458,23868219,"3016 E Dahlia Dr, Phoenix, AZ 85032 ",85032,0.24944288283586502,0.8586609363555908,0.2141868593430818,239900,https://www.zillow.com/homedetails/3016-E-Dahlia-Dr-Phoenix-AZ-85032/7815219_zpid/,33.6034,-112.01700000000001,6591,2018-01-17
958511,23930114,"3541 W Galveston St, Chandler, AZ 85226 ",85226,0.25121259689331055,0.8519575595855713,0.21402247098637872,202000,https://www.zillow.com/homedetails/3541-W-Galveston-St-Chandler-AZ-85226/8155031_zpid/,33.3113,-111.906,6654,2018-03-21
9026313,23874141,"3217 E Hartford Ave, Phoenix, AZ 85032 ",85032,0.24817096441984177,0.8617481589317322,0.21386087168911105,249700,https://www.zillow.com/homedetails/3217-E-Hartford-Ave-Phoenix-AZ-85032/7998434_zpid/,33.6428,-112.012,6613,2018-02-08
215638,23890057,"1449 E Carol Ave, Phoenix, AZ 85020 ",85020,0.24817096441984177,0.8614382445812225,0.21378395994585753,199300,https://www.zillow.com/homedetails/1449-E-Carol-Ave-Phoenix-AZ-85020/7786871_zpid/,33.5718,-112.05,6625,2018-02-20
1113152,23930028,"1516 W Cheyenne Dr, Chandler, AZ 85224 ",85224,0.2522263154387474,0.846612274646759,0.2135378946393689,205000,https://www.zillow.com/homedetails/1516-W-Cheyenne-Dr-Chandler-AZ-85224/8176581_zpid/,33.3469,-111.869,6656,2018-03-23
9027832,23897667,"3534 E Montreal Pl, Phoenix, AZ 85032 ",85032,0.24944288283586502,0.8560537695884705,0.21353652014865743,199900,https://www.zillow.com/homedetails/3534-E-Montreal-Pl-Phoenix-AZ-85032/8007111_zpid/,33.6333,-112.006,6628,2018-02-23
9022735,23864019,"13216 N 31ST Way, Phoenix, AZ 85032 ",85032,0.24817096441984177,0.8603046834468842,0.21350264298591992,241000,https://www.zillow.com/homedetails/13216-N-31st-Way-Phoenix-AZ-85032/50188555_zpid/,33.6068,-112.014,6581,2018-01-07
233708,23915399,"19203 N 15TH Dr, Phoenix, AZ 85027 ",85027,0.24944288283586502,0.8558431267738342,0.2134839767977259,215000,https://www.zillow.com/homedetails/19203-N-15TH-Dr-Phoenix-AZ-85027/7969532_zpid/,33.66,-112.09200000000001,6645,2018-03-12
213246,23881925,"1214 E Carol Ave, Phoenix, AZ 85020 ",85020,0.24917340278625488,0.8561924397945404,0.2133403836634713,229000,https://www.zillow.com/homedetails/1214-E-Carol-Ave-Phoenix-AZ-85020/7786735_zpid/,33.5725,-112.056,6602,2018-01-28
387107,23882069,"2121 W Shaw Butte Dr, Phoenix, AZ 85029 ",85029,0.24565673619508743,0.8683986663818359,0.2133279820995284,172500,https://www.zillow.com/homedetails/2121-W-Shaw-Butte-Dr-Phoenix-AZ-85029/7748956_zpid/,33.5958,-112.105,6602,2018-01-28
7652,23868185,"18611 N 22ND St LOT 44, Phoenix, AZ 85024 ",85024,0.24944288283586502,0.8550767004489899,0.21329279720577543,219000,https://www.zillow.com/homedetails/18611-N-22nd-St-LOT-44-Phoenix-AZ-85024/11884597_zpid/,33.6568,-112.03299999999999,6589,2018-01-15
328263,23891369,"2142 W Clarendon Ave, Phoenix, AZ 85015 ",85015,0.24996966123580933,0.8531886339187622,0.21327127379091593,168500,https://www.zillow.com/homedetails/2142-W-Clarendon-Ave-Phoenix-AZ-85015/7516010_zpid/,33.4915,-112.10600000000001,6620,2018-02-15
9029137,23903895,"3336 E Hubbell St, Phoenix, AZ 85008 ",85008,0.2524988204240799,0.8444778025150299,0.21322964900936414,170000,https://www.zillow.com/homedetails/3336-E-Hubbell-St-Phoenix-AZ-85008/7542143_zpid/,33.4704,-112.009,6607,2018-02-02
283679,23872189,"2237 E Paradise Dr, Phoenix, AZ 85028 ",85028,0.2504561096429825,0.8510879874229431,0.21316018629382594,247000,https://www.zillow.com/homedetails/2237-E-Paradise-Dr-Phoenix-AZ-85028/7816525_zpid/,33.5956,-112.03299999999999,6604,2018-01-30
8250,23881188,"1263 E Topeka Dr, Phoenix, AZ 85024 ",85024,0.24817096441984177,0.8583498001098633,0.21301749770284317,234900,https://www.zillow.com/homedetails/1263-E-Topeka-Dr-Phoenix-AZ-85024/7995724_zpid/,33.6598,-112.054,6614,2018-02-09
534744,23889399,"1950 W Palm Ln, Phoenix, AZ 85009 ",85009,0.24996966123580933,0.8513621687889099,0.21281471292114773,199900,https://www.zillow.com/homedetails/1950-W-Palm-Ln-Phoenix-AZ-85009/7519879_zpid/,33.4695,-112.102,6624,2018-02-19
9021889,23886670,"2926 E Charleston Ave, Phoenix, AZ 85032 ",85032,0.2504561096429825,0.8495282530784607,0.21276954129783032,169000,https://www.zillow.com/homedetails/2926-E-Charleston-Ave-Phoenix-AZ-85032/7998861_zpid/,33.6495,-112.01899999999999,6618,2018-02-13
249670,23881367,"418 E Taro Ln, Phoenix, AZ 85024 ",85024,0.24944288283586502,0.8516591489315033,0.2124403133030135,245000,https://www.zillow.com/homedetails/418-E-Taro-Ln-Phoenix-AZ-85024/7972390_zpid/,33.6595,-112.069,6592,2018-01-18
552768,23918872,"1415 N 44TH St, Phoenix, AZ 85008 ",85008,0.2524988204240799,0.8399823307991028,0.21209454770384273,168000,https://www.zillow.com/homedetails/1415-N-44TH-St-Phoenix-AZ-85008/7559866_zpid/,33.4633,-111.98700000000001,6633,2018-02-28
9030939,23910947,"1014 E Ruth Ave, Phoenix, AZ 85020 ",85020,0.24917340278625488,0.8508840203285217,0.21201766672170663,175000,https://www.zillow.com/homedetails/1014-E-Ruth-Ave-Phoenix-AZ-85020/7789692_zpid/,33.5634,-112.06,6601,2018-01-27
9005303,23873022,"3722 E Emile Zola Ave, Phoenix, AZ 85032 ",85032,0.24817096441984177,0.85429447889328,0.21201108472549146,229000,https://www.zillow.com/homedetails/3722-E-Emile-Zola-Ave-Phoenix-AZ-85032/7813820_zpid/,33.6086,-112.001,6607,2018-02-02
958473,23930110,"3534 W Carla Vista Dr, Chandler, AZ 85226 ",85226,0.25121259689331055,0.8438449800014496,0.21198448880154785,234000,https://www.zillow.com/homedetails/3534-W-Carla-Vista-Dr-Chandler-AZ-85226/8154923_zpid/,33.3095,-111.905,6656,2018-03-23
203922,23870255,"1233 N Oakleaf Dr, Phoenix, AZ 85008 ",85008,0.2524988204240799,0.8389778137207031,0.21184090832645097,225000,https://www.zillow.com/homedetails/1233-N-Oakleaf-Dr-Phoenix-AZ-85008/7544011_zpid/,33.4632,-112.01100000000001,6584,2018-01-10
319451,23873592,"1219 W Indian School Rd, Phoenix, AZ 85013 ",85013,0.2535233572125435,0.8354672789573669,0.21181046940250026,209900,https://www.zillow.com/homedetails/1219-W-Indian-School-Rd-Phoenix-AZ-85013/7516440_zpid/,33.4947,-112.089,6607,2018-02-02
211966,23872452,"1143 E Cheryl Dr, Phoenix, AZ 85020 ",85020,0.2504561096429825,0.845628023147583,0.21179270488262958,220000,https://www.zillow.com/homedetails/1143-E-Cheryl-Dr-Phoenix-AZ-85020/7787536_zpid/,33.5784,-112.057,6605,2018-01-31
9031657,23915259,"1122 E Villa Theresa Dr, Phoenix, AZ 85022 ",85022,0.24817096441984177,0.8532146215438843,0.21174309548565606,247500,https://www.zillow.com/homedetails/1122-E-Villa-Theresa-Dr-Phoenix-AZ-85022/8002659_zpid/,33.6538,-112.057,6648,2018-03-15
9029592,23909195,"422 W Maryland Ave, Phoenix, AZ 85013 ",85013,0.2518125995993614,0.8407853245735168,0.21172033828585013,179900,https://www.zillow.com/homedetails/422-W-Maryland-Ave-Phoenix-AZ-85013/2091142478_zpid/,33.5312,-112.08,6614,2018-02-09
231237,23886980,"18621 N 5th Dr, Phoenix, AZ 85027 ",85027,0.24944288283586502,0.8486956655979156,0.21170109347704735,225000,https://www.zillow.com/homedetails/18621-N-5th-Dr-Phoenix-AZ-85027/50183691_zpid/,33.6555,-112.081,6585,2018-01-11
228165,23915237,"1603 W Topeka Dr, Phoenix, AZ 85027 ",85027,0.24944288283586502,0.8483389616012573,0.21161211620380183,199000,https://www.zillow.com/homedetails/1603-W-Topeka-Dr-Phoenix-AZ-85027/7969565_zpid/,33.6596,-112.094,6629,2018-02-24
1090754,23921398,"649 W Ivanhoe St, Chandler, AZ 85225 ",85225,0.25121259689331055,0.842279851436615,0.21159130879030386,190000,https://www.zillow.com/homedetails/649-W-Ivanhoe-St-Chandler-AZ-85225/8189345_zpid/,33.3174,-111.851,6536,2017-11-23
354239,23890635,"2239 E Sandra Ter, Phoenix, AZ 85022 ",85022,0.2504561096429825,0.8445969223976135,0.21153445940014226,239900,https://www.zillow.com/homedetails/2239-E-Sandra-Ter-Phoenix-AZ-85022/8005257_zpid/,33.6349,-112.03299999999999,6626,2018-02-21
355785,23869967,"620 E Anderson Ave, Phoenix, AZ 85022 ",85022,0.24917340278625488,0.848236083984375,0.2113578714124742,215000,https://www.zillow.com/homedetails/620-E-Anderson-Ave-Phoenix-AZ-85022/7959431_zpid/,33.6434,-112.066,6593,2018-01-19
230832,23863481,"19209 N 6th St, Phoenix, AZ 85024 ",85024,0.24944288283586502,0.8471951484680176,0.21132680015842098,235000,https://www.zillow.com/homedetails/19209-N-6th-St-Phoenix-AZ-85024/7972480_zpid/,33.6606,-112.066,6581,2018-01-07
354931,23879421,"2330 E Sandra Ter, Phoenix, AZ 85022 ",85022,0.2504561096429825,0.8434311151504517,0.2112424758524245,214999,https://www.zillow.com/homedetails/2330-E-Sandra-Ter-Phoenix-AZ-85022/8005340_zpid/,33.6354,-112.03200000000001,6613,2018-02-08
327907,23878802,"2114 W Osborn Rd, Phoenix, AZ 85015 ",85015,0.24996966123580933,0.8437812924385071,0.21091972382796698,224900,https://www.zillow.com/homedetails/2114-W-Osborn-Rd-Phoenix-AZ-85015/7517327_zpid/,33.4881,-112.105,6615,2018-02-10
1120647,23919574,"2302 W Ironwood Dr, Chandler, AZ 85224 ",85224,0.25121259689331055,0.8395342826843262,0.21090158733409226,240000,https://www.zillow.com/homedetails/2302-W-Ironwood-Dr-Chandler-AZ-85224/8193050_zpid/,33.3247,-111.882,6656,2018-03-23
208870,23870132,"2955 N 29TH St, Phoenix, AZ 85016 ",85016,0.2535233572125435,0.8318227529525757,0.21088649693431716,162000,https://www.zillow.com/homedetails/2955-N-29th-St-Phoenix-AZ-85016/7538786_zpid/,33.4821,-112.01899999999999,6597,2018-01-23
217102,23873012,"305 E Orchid Ln, Phoenix, AZ 85020 ",85020,0.24917340278625488,0.8460852801799774,0.21082194830980683,248500,https://www.zillow.com/homedetails/305-E-Orchid-Ln-Phoenix-AZ-85020/64457540_zpid/,33.5617,-112.069,6607,2018-02-02
385542,23862282,"1634 W Andorra Dr, Phoenix, AZ 85029 ",85029,0.2504561096429825,0.8415223062038422,0.21076440298960497,235000,https://www.zillow.com/homedetails/1634-W-Andorra-Dr-Phoenix-AZ-85029/7784245_zpid/,33.6066,-112.095,6577,2018-01-03
8934396,23916747,"4130 N Mitchell St, Phoenix, AZ 85014 ",85014,0.2524988204240799,0.8344880044460297,0.21070723678066683,189000,https://www.zillow.com/homedetails/4130-N-Mitchell-St-Phoenix-AZ-85014/7769730_zpid/,33.4959,-112.05799999999999,6641,2018-03-08
8977566,23865226,"2018 W Bloomfield Rd, Phoenix, AZ 85029 ",85029,0.2469286546111107,0.8529757559299469,0.2106241558276769,206000,https://www.zillow.com/homedetails/2018-W-Bloomfield-Rd-Phoenix-AZ-85029/7739154_zpid/,33.5987,-112.102,6585,2018-01-11
343418,23916571,"2029 W Wilshire Dr, Phoenix, AZ 85009 ",85009,0.24996966123580933,0.8416910469532013,0.2103972258721054,203000,https://www.zillow.com/homedetails/2029-W-Wilshire-Dr-Phoenix-AZ-85009/7519525_zpid/,33.476,-112.104,6633,2018-02-28
217465,23882224,"518 E Hatcher Rd, Phoenix, AZ 85020 ",85020,0.24917340278625488,0.8441571891307831,0.21034151930219736,175000,https://www.zillow.com/homedetails/518-E-Hatcher-Rd-Phoenix-AZ-85020/7788699_zpid/,33.5717,-112.06700000000001,6599,2018-01-25
328365,23887157,"2201 W Mitchell Dr, Phoenix, AZ 85015 ",85015,0.24996966123580933,0.8409864604473114,0.2102211006219168,199000,https://www.zillow.com/homedetails/2201-W-Mitchell-Dr-Phoenix-AZ-85015/7517303_zpid/,33.4884,-112.10600000000001,6621,2018-02-16
9032146,23919136,"3432 E Culver St, Phoenix, AZ 85008 ",85008,0.2524988204240799,0.8321965336799622,0.21012864311519852,175000,https://www.zillow.com/homedetails/3432-E-Culver-St-Phoenix-AZ-85008/7543923_zpid/,33.4633,-112.007,6639,2018-03-06
327214,23888254,"2011 W Earll Dr, Phoenix, AZ 85015 ",85015,0.24996966123580933,0.840410977602005,0.21007724737002853,238900,https://www.zillow.com/homedetails/2011-W-Earll-Dr-Phoenix-AZ-85015/7517879_zpid/,33.4845,-112.103,6622,2018-02-17
9023943,23874154,"3643 E Winchcomb Dr, Phoenix, AZ 85032 ",85032,0.24944288283586502,0.841337263584137,0.20986559246566516,242500,https://www.zillow.com/homedetails/3643-E-Winchcomb-Dr-Phoenix-AZ-85032/8012851_zpid/,33.6168,-112.00299999999999,6613,2018-02-08
9030697,23909015,"15231 N 21st Pl, Phoenix, AZ 85022 ",85022,0.2504561096429825,0.837927520275116,0.20986406689089687,220000,https://www.zillow.com/homedetails/15231-N-21st-Pl-Phoenix-AZ-85022/2091457773_zpid/,33.6258,-112.036,6592,2018-01-18
9026842,23908029,"1842 W Sonora St, Phoenix, AZ 85007 ",85007,0.24996966123580933,0.8388233780860901,0.20968039565685714,152900,https://www.zillow.com/homedetails/1842-W-Sonora-St-Phoenix-AZ-85007/7501196_zpid/,33.4325,-112.09899999999999,6612,2018-02-07
319613,23916667,"2242 N 18TH St, Phoenix, AZ 85006 ",85006,0.2524988204240799,0.8303892314434052,0.20967230143231808,228000,https://www.zillow.com/homedetails/2242-N-18TH-St-Phoenix-AZ-85006/7532044_zpid/,33.4727,-112.044,6641,2018-03-08
332864,23892089,"5326 N 19TH Dr, Phoenix, AZ 85015 ",85015,0.2482738345861435,0.8441700041294098,0.20958532396780916,195000,https://www.zillow.com/homedetails/5326-N-19TH-Dr-Phoenix-AZ-85015/7765074_zpid/,33.5159,-112.102,6627,2018-02-22
26983,23916589,"1927 W Mitchell Dr, Phoenix, AZ 85015 ",85015,0.24996966123580933,0.8382043540477753,0.20952565842770277,185999,https://www.zillow.com/homedetails/1927-W-Mitchell-Dr-Phoenix-AZ-85015/7517163_zpid/,33.4885,-112.101,6636,2018-03-03
9028740,23903920,"5309 N 22nd Dr, Phoenix, AZ 85015 ",85015,0.2482738345861435,0.8439296782016754,0.20952565732818007,179900,https://www.zillow.com/homedetails/5309-N-22nd-Dr-Phoenix-AZ-85015/7764988_zpid/,33.5153,-112.10700000000001,6625,2018-02-20
384614,23864029,"13636 N 18TH Dr, Phoenix, AZ 85029 ",85029,0.24794188141822815,0.8436631858348846,0.20917943757919755,189500,https://www.zillow.com/homedetails/13636-N-18th-Dr-Phoenix-AZ-85029/7784603_zpid/,33.6108,-112.09899999999999,6583,2018-01-09
352492,23915326,"206 E Campo Bello Dr, Phoenix, AZ 85022 ",85022,0.2504561096429825,0.834976464509964,0.2091249569446174,229900,https://www.zillow.com/homedetails/206-E-Campo-Bello-Dr-Phoenix-AZ-85022/7959252_zpid/,33.6438,-112.071,6655,2018-03-22
230590,23873315,"1832 W Wescott Dr, Phoenix, AZ 85027 ",85027,0.24565673619508743,0.849525660276413,0.20869170101748025,227000,https://www.zillow.com/homedetails/1832-W-Wescott-Dr-Phoenix-AZ-85027/7969386_zpid/,33.6586,-112.09899999999999,6610,2018-02-05
554904,23878800,"2105 N 25th Pl, Phoenix, AZ 85008 ",85008,0.2524988204240799,0.8259429633617401,0.20854962398640842,190000,https://www.zillow.com/homedetails/2105-N-25th-Pl-Phoenix-AZ-85008/7543747_zpid/,33.4706,-112.02600000000001,6619,2018-02-14
9027758,23896749,"3311 E Sheridan St, Phoenix, AZ 85008 ",85008,0.2524988204240799,0.8256788551807404,0.20848293698224163,180000,https://www.zillow.com/homedetails/3311-E-Sheridan-St-Phoenix-AZ-85008/7541052_zpid/,33.475,-112.01,6617,2018-02-12
9027956,23897415,"3535 E Everett Dr, Phoenix, AZ 85032 ",85032,0.24817096441984177,0.8398814797401428,0.20843419682547504,192500,https://www.zillow.com/homedetails/3535-E-Everett-Dr-Phoenix-AZ-85032/8012101_zpid/,33.6198,-112.005,6627,2018-02-22
295206,23875568,"2327 E Mitchell Dr, Phoenix, AZ 85016 ",85016,0.2524988204240799,0.825378805398941,0.2084071747662688,200000,https://www.zillow.com/homedetails/2327-E-Mitchell-Dr-Phoenix-AZ-85016/7539639_zpid/,33.4882,-112.031,6612,2018-02-07
239887,23915244,"17409 N 10TH Ave, Phoenix, AZ 85023 ",85023,0.24917340278625488,0.8360852301120758,0.20833020180635486,149900,https://www.zillow.com/homedetails/17409-N-10TH-Ave-Phoenix-AZ-85023/7963462_zpid/,33.6455,-112.086,6656,2018-03-23
24722,23873850,"9618 N 10th Ave, Phoenix, AZ 85021 ",85021,0.2504561096429825,0.8317659199237823,0.20832085643772702,224900,https://www.zillow.com/homedetails/9618-N-10th-Ave-Phoenix-AZ-85021/2113547855_zpid/,33.5738,-112.086,6607,2018-02-02
9029330,23902731,"3702 E Sheridan St, Phoenix, AZ 85008 ",85008,0.2535233572125435,0.8215568959712982,0.20828386240775987,219000,https://www.zillow.com/homedetails/3702-E-Sheridan-St-Phoenix-AZ-85008/7541275_zpid/,33.4757,-112.00200000000001,6618,2018-02-13
351094,23879416,"1925 E Wagoner Rd, Phoenix, AZ 85022 ",85022,0.24944288283586502,0.8339363932609558,0.20801949803675646,220000,https://www.zillow.com/homedetails/1925-E-Wagoner-Rd-Phoenix-AZ-85022/8001511_zpid/,33.6533,-112.041,6592,2018-01-18
352916,23863486,"213 E Campo Bello Dr, Phoenix, AZ 85022 ",85022,0.2504561096429825,0.8303978741168976,0.20797822100712127,225000,https://www.zillow.com/homedetails/213-E-Campo-Bello-Dr-Phoenix-AZ-85022/7959267_zpid/,33.6435,-112.071,6579,2018-01-05
330024,23916715,"3608 N 21ST Ave, Phoenix, AZ 85015 ",85015,0.24996966123580933,0.8320128321647644,0.20797796580007244,210000,https://www.zillow.com/homedetails/3608-N-21ST-Ave-Phoenix-AZ-85015/7517059_zpid/,33.4899,-112.104,6642,2018-03-09
9026261,23865254,"2153 W Joan De Arc Ave, Phoenix, AZ 85029 ",85029,0.24565673619508743,0.8466123938560486,0.2079760374969868,195000,https://www.zillow.com/homedetails/2153-W-Joan-De-Arc-Ave-Phoenix-AZ-85029/7749859_zpid/,33.6072,-112.10600000000001,6585,2018-01-11
231305,23881182,"1507 W Danbury Rd, Phoenix, AZ 85023 ",85023,0.2504561096429825,0.830359011888504,0.20796848772458576,150000,https://www.zillow.com/homedetails/1507-W-Danbury-Rd-Phoenix-AZ-85023/7965178_zpid/,33.6414,-112.09200000000001,6615,2018-02-10
328346,23881518,"2158 W Mulberry Dr, Phoenix, AZ 85015 ",85015,0.24996966123580933,0.8313250243663788,0.20780603471771464,190000,https://www.zillow.com/homedetails/2158-W-Mulberry-Dr-Phoenix-AZ-85015/7517725_zpid/,33.486999999999995,-112.10600000000001,6610,2018-02-05
257719,23869968,"919 W Anderson Dr, Phoenix, AZ 85023 ",85023,0.24917340278625488,0.833579808473587,0.2077059173712783,155000,https://www.zillow.com/homedetails/919-W-Anderson-Dr-Phoenix-AZ-85023/7963528_zpid/,33.6429,-112.086,6591,2018-01-17
220035,23868856,"833 E Seldon Ln, Phoenix, AZ 85020 ",85020,0.24917340278625488,0.8324326276779175,0.20742007042881028,205000,https://www.zillow.com/homedetails/833-E-Seldon-Ln-Phoenix-AZ-85020/7789529_zpid/,33.561,-112.06200000000001,6593,2018-01-19
221496,23882325,"9822 N 2nd Pl, Phoenix, AZ 85020 ",85020,0.2504561096429825,0.8279888927936554,0.20737487691669942,219000,https://www.zillow.com/homedetails/9822-N-2nd-Pl-Phoenix-AZ-85020/7788439_zpid/,33.576,-112.071,6611,2018-02-06
9032147,23919205,"3445 E Granada Rd, Phoenix, AZ 85008 ",85008,0.2524988204240799,0.8210500478744507,0.20731416859743312,206975,https://www.zillow.com/homedetails/3445-E-Granada-Rd-Phoenix-AZ-85008/7542230_zpid/,33.4685,-112.007,6642,2018-03-09
221321,23880024,"9624 N 14th St, Phoenix, AZ 85020 ",85020,0.24917340278625488,0.8319925367832184,0.20731041148304286,179000,https://www.zillow.com/homedetails/9624-N-14th-St-Phoenix-AZ-85020/7786741_zpid/,33.5745,-112.053,6613,2018-02-08
225604,23915210,"1441 E Topeka Dr, Phoenix, AZ 85024 ",85024,0.24817096441984177,0.8344836235046387,0.20709460563771032,225000,https://www.zillow.com/homedetails/1441-E-Topeka-Dr-Phoenix-AZ-85024/7995823_zpid/,33.6595,-112.05,6648,2018-03-15
561112,23847992,"1043 W Frito Ave, Mesa, AZ 85210 ",85210,0.25121259689331055,0.8242435455322266,0.2070603615457003,195000,https://www.zillow.com/homedetails/1043-W-Frito-Ave-Mesa-AZ-85210/7598695_zpid/,33.3951,-111.854,6543,2017-11-30
215330,23881998,"1402 E Northern Ave, Phoenix, AZ 85020 ",85020,0.24944288283586502,0.8297973275184631,0.2069870375457019,189900,https://www.zillow.com/homedetails/1402-E-Northern-Ave-Phoenix-AZ-85020/7790581_zpid/,33.5535,-112.052,6610,2018-02-05
9027880,23897174,"15031 N 24th Pl, Phoenix, AZ 85032 ",85032,0.2504561096429825,0.8263937830924988,0.20697537194649396,190000,https://www.zillow.com/homedetails/15031-N-24th-Pl-Phoenix-AZ-85032/8013856_zpid/,33.6244,-112.029,6619,2018-02-14
554321,23878782,"2014 N 24TH St, Phoenix, AZ 85008 ",85008,0.2524988204240799,0.8188408017158508,0.20675633654836023,179900,https://www.zillow.com/homedetails/2014-N-24TH-St-Phoenix-AZ-85008/7531483_zpid/,33.47,-112.031,6614,2018-02-09
8972923,23871238,"2018 N 22ND Pl, Phoenix, AZ 85006 ",85006,0.2524988204240799,0.8186896741390228,0.2067181770134776,210900,https://www.zillow.com/homedetails/2018-N-22ND-Pl-Phoenix-AZ-85006/7531384_zpid/,33.4701,-112.03399999999999,6601,2018-01-27
312452,23877979,"1511 W Buckeye Rd, Phoenix, AZ 85007 ",85007,0.2524988204240799,0.8180785179138184,0.20656386078751865,120000,https://www.zillow.com/homedetails/1511-W-Buckeye-Rd-Phoenix-AZ-85007/7500714_zpid/,33.4365,-112.09200000000001,6618,2018-02-13
313708,23877974,"1636 S 15th Ave, Phoenix, AZ 85007 ",85007,0.2524988204240799,0.8176242709159851,0.20644916395638457,145000,https://www.zillow.com/homedetails/1636-S-15th-Ave-Phoenix-AZ-85007/7501368_zpid/,33.4318,-112.09100000000001,6612,2018-02-07
627067,23856639,"1610 W 7th Ave, Mesa, AZ 85202 ",85202,0.2535233572125435,0.8138554990291595,0.20633137839976246,218900,https://www.zillow.com/homedetails/1610-W-7th-Ave-Mesa-AZ-85202/7604416_zpid/,33.4024,-111.866,6560,2017-12-17
217475,23873047,"520 E Orchid Ln, Phoenix, AZ 85020 ",85020,0.24917340278625488,0.8279694020748138,0.2063079533178822,207000,https://www.zillow.com/homedetails/520-E-Orchid-Ln-Phoenix-AZ-85020/7793796_zpid/,33.562,-112.06700000000001,6607,2018-02-02
552417,23918798,"1225 N 48TH St, Phoenix, AZ 85008 ",85008,0.25121259689331055,0.8205446004867554,0.20613113995506183,225000,https://www.zillow.com/homedetails/1225-N-48TH-St-Phoenix-AZ-85008/7559517_zpid/,33.4617,-111.978,6632,2018-02-27
9026524,23889225,"8051 S Calle Maravilla, Guadalupe, AZ 85283 ",85283,0.25121259689331055,0.8200781941413879,0.20601397280583456,115000,https://www.zillow.com/homedetails/8051-S-Calle-Maravilla-Guadalupe-AZ-85283/8138989_zpid/,33.3728,-111.96600000000001,6624,2018-02-19
255987,23850390,"506 W Beverly Ln, Phoenix, AZ 85023 ",85023,0.24917340278625488,0.8260419964790344,0.20582769510703258,229900,https://www.zillow.com/homedetails/506-W-Beverly-Ln-Phoenix-AZ-85023/7965481_zpid/,33.6337,-112.081,6552,2017-12-09
237426,23869648,"1633 W Charleston Ave, Phoenix, AZ 85023 ",85023,0.2504561096429825,0.8217801749706268,0.20581986560487264,212000,https://www.zillow.com/homedetails/1633-W-Charleston-Ave-Phoenix-AZ-85023/7957304_zpid/,33.6487,-112.095,6594,2018-01-20
326637,23878774,"1821 W Heatherbrae Dr, Phoenix, AZ 85015 ",85015,0.24996966123580933,0.8231845498085022,0.2057711630501835,235000,https://www.zillow.com/homedetails/1821-W-Heatherbrae-Dr-Phoenix-AZ-85015/7772229_zpid/,33.498000000000005,-112.09899999999999,6614,2018-02-09
338577,23879437,"15030 N 23RD Pl, Phoenix, AZ 85022 ",85022,0.2504561096429825,0.8198437690734863,0.2053348809171851,249900,https://www.zillow.com/homedetails/15030-N-23RD-Pl-Phoenix-AZ-85022/8010606_zpid/,33.6235,-112.03200000000001,6598,2018-01-24
236678,23915272,"1615 W Bluefield Ave, Phoenix, AZ 85023 ",85023,0.2504561096429825,0.8198204934597015,0.205329051397507,249000,https://www.zillow.com/homedetails/1615-W-Bluefield-Ave-Phoenix-AZ-85023/7957434_zpid/,33.6522,-112.095,6648,2018-03-15
172577,23886200,"8139 E Elm Dr, Scottsdale, AZ 85257 ",85257,0.2522263154387474,0.8134226500988007,0.20516659792884195,230000,https://www.zillow.com/homedetails/8139-E-Elm-Dr-Scottsdale-AZ-85257/7577539_zpid/,33.467,-111.906,6619,2018-02-14
226156,23915215,"1422 W Sack Dr, Phoenix, AZ 85027 ",85027,0.24944288283586502,0.8224362432956696,0.20515086747637068,224900,https://www.zillow.com/homedetails/1422-W-Sack-Dr-Phoenix-AZ-85027/7968968_zpid/,33.658,-112.09,6656,2018-03-23
312487,23888251,"1344 E Polk St, Phoenix, AZ 85006 ",85006,0.2524988204240799,0.8121322989463806,0.20506244751225733,169000,https://www.zillow.com/homedetails/1344-E-Polk-St-Phoenix-AZ-85006/71595779_zpid/,33.4532,-112.053,6622,2018-02-17
336037,23873250,"1837 W Sunnyslope Ln, Phoenix, AZ 85021 ",85021,0.24794188141822815,0.8266173601150513,0.20495306347989484,242000,https://www.zillow.com/homedetails/1837-W-Sunnyslope-Ln-Phoenix-AZ-85021/7781055_zpid/,33.5696,-112.09899999999999,6609,2018-02-04
225855,23847348,"1461 E Renee Dr, Phoenix, AZ 85024 ",85024,0.24817096441984177,0.8254328370094299,0.20484846322443628,249000,https://www.zillow.com/homedetails/1461-E-Renee-Dr-Phoenix-AZ-85024/7996071_zpid/,33.6554,-112.05,6545,2017-12-02
9029614,23903996,"10617 N 14TH Ave, Phoenix, AZ 85029 ",85029,0.2504561096429825,0.8164655864238739,0.20448879443309975,139900,https://www.zillow.com/homedetails/10617-N-14TH-Ave-Phoenix-AZ-85029/7785072_zpid/,33.5827,-112.09,6621,2018-02-16
377477,23887449,"10615 N 14th Ave, Phoenix, AZ 85029 ",85029,0.2504561096429825,0.8164655864238739,0.20448879443309975,139900,https://www.zillow.com/homedetails/10615-N-14th-Ave-Phoenix-AZ-85029/7785072_zpid/,33.5827,-112.09,6621,2018-02-16
240310,23929303,"17433 N 17TH Ave, Phoenix, AZ 85023 ",85023,0.2504561096429825,0.8162235915660858,0.20442818534246454,214900,https://www.zillow.com/homedetails/17433-N-17TH-Ave-Phoenix-AZ-85023/7958496_zpid/,33.6449,-112.096,6648,2018-03-15
316157,23911982,"501 N 13TH Ave, Phoenix, AZ 85007 ",85007,0.25121259689331055,0.8128423690795898,0.20419624240139456,235000,https://www.zillow.com/homedetails/501-N-13TH-Ave-Phoenix-AZ-85007/7521773_zpid/,33.4544,-112.089,6641,2018-03-08
387030,23862016,"2114 W Sunnyside Dr, Phoenix, AZ 85029 ",85029,0.2469286546111107,0.8264356255531311,0.2040706371405263,174400,https://www.zillow.com/homedetails/2114-W-Sunnyside-Dr-Phoenix-AZ-85029/7748813_zpid/,33.5934,-112.104,6575,2018-01-01
227332,23881178,"1516 W Kristal Way, Phoenix, AZ 85027 ",85027,0.24944288283586502,0.81787109375,0.20401212341312203,175000,https://www.zillow.com/homedetails/1516-W-Kristal-Way-Phoenix-AZ-85027/7969631_zpid/,33.6613,-112.09200000000001,6589,2018-01-15
691577,23890456,"29 N San Jose, Mesa, AZ 85201 ",85201,0.2524988204240799,0.8075084984302521,0.20389494333605862,128000,https://www.zillow.com/homedetails/29-N-San-Jose-Mesa-AZ-85201/7610491_zpid/,33.4156,-111.87799999999999,6625,2018-02-20
354199,23879414,"2237 E Blanche Dr, Phoenix, AZ 85022 ",85022,0.2504561096429825,0.813945472240448,0.2038576164388628,214000,https://www.zillow.com/homedetails/2237-E-Blanche-Dr-Phoenix-AZ-85022/8010622_zpid/,33.6237,-112.03299999999999,6593,2018-01-19
243942,23854107,"18463 N 5TH Ave, Phoenix, AZ 85023 ",85023,0.24817096441984177,0.821126401424408,0.20377973095208946,249000,https://www.zillow.com/homedetails/18463-N-5th-Ave-Phoenix-AZ-85023/7956457_zpid/,33.6543,-112.08,6552,2017-12-09
320086,23872996,"2323 E Harvard St, Phoenix, AZ 85006 ",85006,0.2524988204240799,0.8063817620277405,0.20361044372349557,145000,https://www.zillow.com/homedetails/2323-E-Harvard-St-Phoenix-AZ-85006/7531217_zpid/,33.4737,-112.031,6606,2018-02-01
250623,23869041,"510 E Topeka Dr, Phoenix, AZ 85024 ",85024,0.24944288283586502,0.8144305050373077,0.20315389304597553,209900,https://www.zillow.com/homedetails/510-E-Topeka-Dr-Phoenix-AZ-85024/7972420_zpid/,33.6601,-112.06700000000001,6585,2018-01-11
327338,23884326,"2020 W Missouri Ave, Phoenix, AZ 85015 ",85015,0.2482738345861435,0.8181045651435852,0.20311395748062733,239900,https://www.zillow.com/homedetails/2020-W-Missouri-Ave-Phoenix-AZ-85015/7763414_zpid/,33.5171,-112.103,6604,2018-01-30
335006,23888936,"6615 N 19th Dr, Phoenix, AZ 85015 ",85015,0.24698761105537415,0.821919322013855,0.20300388982445483,189500,https://www.zillow.com/homedetails/6615-N-19th-Dr-Phoenix-AZ-85015/7773425_zpid/,33.533,-112.1,6623,2018-02-18
9031164,23912013,"1138 W Tonto St, Phoenix, AZ 85007 ",85007,0.25121259689331055,0.807947039604187,0.20296647397123024,239000,https://www.zillow.com/homedetails/1138-W-Tonto-St-Phoenix-AZ-85007/2112543713_zpid/,33.4381,-112.089,6647,2018-03-14
9027726,23896637,"1811 E Amelia Ave, Phoenix, AZ 85016 ",85016,0.2524988204240799,0.8037579953670502,0.20294794573660324,249900,https://www.zillow.com/homedetails/1811-E-Amelia-Ave-Phoenix-AZ-85016/7540387_zpid/,33.4936,-112.04299999999999,6614,2018-02-09
386006,23854095,"1749 W Surrey Ave, Phoenix, AZ 85029 ",85029,0.24794188141822815,0.8177943825721741,0.2027654778282031,220000,https://www.zillow.com/homedetails/1749-W-Surrey-Ave-Phoenix-AZ-85029/7784365_zpid/,33.6053,-112.098,6555,2017-12-12
553087,23875566,"1801 N 44th St, Phoenix, AZ 85008 ",85008,0.25121259689331055,0.8068583011627197,0.20269296916001167,229000,https://www.zillow.com/homedetails/1801-N-44th-St-Phoenix-AZ-85008/7561011_zpid/,33.4674,-111.98700000000001,6611,2018-02-06
9024480,23868335,"17622 N 18th Dr, Phoenix, AZ 85023 ",85023,0.24665917456150055,0.82159623503685,0.202654249157026,217000,https://www.zillow.com/homedetails/17622-N-18th-Dr-Phoenix-AZ-85023/7958450_zpid/,33.6465,-112.098,6592,2018-01-18
687850,23870138,"3307 E Yale St, Phoenix, AZ 85008 ",85008,0.2524988204240799,0.8024285435676575,0.20261226072544591,235000,https://www.zillow.com/homedetails/3307-E-Yale-St-Phoenix-AZ-85008/7541018_zpid/,33.4757,-112.01,6597,2018-01-23
9027098,23894811,"2038 N 21ST Pl, Phoenix, AZ 85006 ",85006,0.2524988204240799,0.7999931573867798,0.2019973285874972,165000,https://www.zillow.com/homedetails/2038-N-21ST-Pl-Phoenix-AZ-85006/7531662_zpid/,33.4708,-112.036,6605,2018-01-31
347881,23882311,"9444 N 5th Ave, Phoenix, AZ 85021 ",85021,0.2504561096429825,0.8064767420291901,0.20198702732617813,165000,https://www.zillow.com/homedetails/9444-N-5th-Ave-Phoenix-AZ-85021/7789173_zpid/,33.5729,-112.081,6611,2018-02-06
233636,23869963,"19201 N 21ST Ave, Phoenix, AZ 85027 ",85027,0.24565673619508743,0.8222326338291168,0.20198698521955127,220000,https://www.zillow.com/homedetails/19201-N-21st-Ave-Phoenix-AZ-85027/7970134_zpid/,33.6596,-112.105,6585,2018-01-11
321311,23878819,"2846 N Greenfield Rd, Phoenix, AZ 85006 ",85006,0.2524988204240799,0.7999459207057953,0.20198540138126786,239500,https://www.zillow.com/homedetails/2846-N-Greenfield-Rd-Phoenix-AZ-85006/7530734_zpid/,33.4789,-112.03399999999999,6604,2018-01-30
332059,23858248,"115 E Hartford Ave, Phoenix, AZ 85022 ",85022,0.2504561096429825,0.8063667714595795,0.20195948452513823,215000,https://www.zillow.com/homedetails/115-E-Hartford-Ave-Phoenix-AZ-85022/79527909_zpid/,33.6426,-112.073,6562,2017-12-19
1885132,23876932,"1319 E Orangewood Ave, Phoenix, AZ 85020 ",85020,0.2507880628108978,0.8040982484817505,0.20165824204637417,165000,https://www.zillow.com/homedetails/1319-E-Orangewood-Ave-Phoenix-AZ-85020/7791665_zpid/,33.5449,-112.053,6599,2018-01-25
355855,23833551,"702 E Rose Marie Ln, Phoenix, AZ 85022 ",85022,0.24917340278625488,0.8084269464015961,0.20143849313898698,247000,https://www.zillow.com/homedetails/702-E-Rose-Marie-Ln-Phoenix-AZ-85022/49942677_zpid/,33.6527,-112.065,6527,2017-11-14
9020422,23864586,"4227 N 11th Pl, Phoenix, AZ 85014 ",85014,0.25121259689331055,0.8016247749328613,0.20137824144489969,232900,https://www.zillow.com/homedetails/4227-N-11th-Pl-Phoenix-AZ-85014/7769603_zpid/,33.4974,-112.057,6584,2018-01-10
316546,23912005,"718 W Cocopah St, Phoenix, AZ 85007 ",85007,0.25121259689331055,0.8014710247516632,0.2013396174626081,120000,https://www.zillow.com/homedetails/718-W-Cocopah-St-Phoenix-AZ-85007/7501483_zpid/,33.4324,-112.083,6631,2018-02-26
237155,23871686,"2001 W Wescott Dr, Phoenix, AZ 85027 ",85027,0.24565673619508743,0.8176979422569275,0.20087300768827587,249500,https://www.zillow.com/homedetails/2001-W-Wescott-Dr-Phoenix-AZ-85027/7970026_zpid/,33.6578,-112.103,6597,2018-01-23
9029095,23901819,"8051 S Calle Maravilla, Tempe, AZ 85283 ",85283,0.25121259689331055,0.7995016872882843,0.2008448950842734,115000,https://www.zillow.com/homedetails/8051-S-Calle-Maravilla-Tempe-AZ-85283/8138989_zpid/,33.3732,-111.96700000000001,6624,2018-02-19
327561,23884356,"2038 W Orange Dr, Phoenix, AZ 85015 ",85015,0.24996966123580933,0.8025738000869751,0.20061910092447732,199900,https://www.zillow.com/homedetails/2038-W-Orange-Dr-Phoenix-AZ-85015/7765251_zpid/,33.5126,-112.104,6593,2018-01-19
332307,23881944,"1124 W Cinnabar Ave, Phoenix, AZ 85021 ",85021,0.2504561096429825,0.8002713918685913,0.2004328594659821,197500,https://www.zillow.com/homedetails/1124-W-Cinnabar-Ave-Phoenix-AZ-85021/7781762_zpid/,33.577,-112.088,6616,2018-02-11
9031668,23915436,"19243 N 21ST Dr, Phoenix, AZ 85027 ",85027,0.24565673619508743,0.8146891593933105,0.20013387991008003,249500,https://www.zillow.com/homedetails/19243-N-21ST-Dr-Phoenix-AZ-85027/7970150_zpid/,33.661,-112.105,6656,2018-03-23
9019399,23864514,"15032 N 26th St, Phoenix, AZ 85032 ",85032,0.2504561096429825,0.7984927296638489,0.1999873826498133,238000,https://www.zillow.com/homedetails/15032-N-26th-St-Phoenix-AZ-85032/8013907_zpid/,33.6237,-112.027,6584,2018-01-10
12110,23881914,"1115 E Sunnyslope Ln, Phoenix, AZ 85020 ",85020,0.24917340278625488,0.8023467063903809,0.19992345904563535,235000,https://www.zillow.com/homedetails/1115-E-Sunnyslope-Ln-Phoenix-AZ-85020/7787205_zpid/,33.5704,-112.059,6605,2018-01-31
225987,23864034,"1415 W Renee Dr, Phoenix, AZ 85027 ",85027,0.24944288283586502,0.8009570837020874,0.19979304398645592,239999,https://www.zillow.com/homedetails/1415-W-Renee-Dr-Phoenix-AZ-85027/7969101_zpid/,33.6549,-112.09,6582,2018-01-08
220511,23888417,"8820 N 6th St, Phoenix, AZ 85020 ",85020,0.24917340278625488,0.8016051352024078,0.19973867922931987,160000,https://www.zillow.com/homedetails/8820-N-6th-St-Phoenix-AZ-85020/7793853_zpid/,33.5648,-112.06700000000001,6622,2018-02-17
9029122,23906034,"4708 E Mckinley St, Phoenix, AZ 85008 ",85008,0.2524988204240799,0.7895876467227936,0.1993699494189305,224950,https://www.zillow.com/homedetails/4708-E-Mckinley-St-Phoenix-AZ-85008/7560121_zpid/,33.4564,-111.98,6626,2018-02-21
291567,23878758,"1622 E Catalina Dr, Phoenix, AZ 85016 ",85016,0.2524988204240799,0.7891764342784882,0.19926611876179967,230000,https://www.zillow.com/homedetails/1622-E-Catalina-Dr-Phoenix-AZ-85016/7540606_zpid/,33.4821,-112.04700000000001,6601,2018-01-27
2044933,22443059,"1446 W Bentley St, Mesa, AZ 85201 ",85201,0.2535233572125435,0.7859037518501282,0.19924495761497818,220000,https://www.zillow.com/homedetails/1446-W-Bentley-St-Mesa-AZ-85201/7610672_zpid/,33.4202,-111.86200000000001,6338,2017-05-09
347157,23863475,"17828 N 1ST St, Phoenix, AZ 85022 ",85022,0.2504561096429825,0.7952444553375244,0.1991738324989889,104990,https://www.zillow.com/homedetails/17828-N-1st-St-Phoenix-AZ-85022/7956061_zpid/,33.6483,-112.074,6567,2017-12-24
8970849,23830064,"3715 E Delcoa Dr, Phoenix, AZ 85032 ",85032,0.24817096441984177,0.8021262884140015,0.1990644545822109,220000,https://www.zillow.com/homedetails/3715-E-Delcoa-Dr-Phoenix-AZ-85032/7813615_zpid/,33.6109,-112.00200000000001,6507,2017-10-25
339837,23873153,"15615 N 23RD Pl, Phoenix, AZ 85022 ",85022,0.2504561096429825,0.7947817742824554,0.19905795120193082,179700,https://www.zillow.com/homedetails/15615-N-23rd-Pl-Phoenix-AZ-85022/55267932_zpid/,33.6285,-112.03200000000001,6608,2018-02-03
9026615,23904544,"1817 W Cocopah St, Phoenix, AZ 85007 ",85007,0.24996966123580933,0.7961356341838837,0.19900975477470162,195000,https://www.zillow.com/homedetails/1817-W-Cocopah-St-Phoenix-AZ-85007/7501253_zpid/,33.4314,-112.098,6599,2018-01-25
213904,23918799,"1236 E Desert Park Ln, Phoenix, AZ 85020 ",85020,0.24944288283586502,0.7976793646812439,0.19897544030477077,230000,https://www.zillow.com/homedetails/1236-E-Desert-Park-Ln-Phoenix-AZ-85020/7790750_zpid/,33.5515,-112.055,6649,2018-03-16
233524,23915345,"19062 N 2ND Ave, Phoenix, AZ 85027 ",85027,0.24944288283586502,0.797453761100769,0.19891916509727903,179995,https://www.zillow.com/homedetails/19062-N-2ND-Ave-Phoenix-AZ-85027/7968753_zpid/,33.6604,-112.07600000000001,6648,2018-03-15
222394,23848564,"1010 W Campo Bello Dr, Phoenix, AZ 85023 ",85023,0.24917340278625488,0.7979012429714203,0.19881576779857113,199900,https://www.zillow.com/homedetails/1010-W-Campo-Bello-Dr-Phoenix-AZ-85023/7963596_zpid/,33.644,-112.087,6549,2017-12-06
307065,23911977,"1706 S 1ST St, Phoenix, AZ 85004 ",85004,0.25121259689331055,0.7908204197883606,0.19866405133129206,159900,https://www.zillow.com/homedetails/1706-S-1ST-St-Phoenix-AZ-85004/7523199_zpid/,33.4309,-112.073,6640,2018-03-07
351325,23879409,"1935 E Larkspur Dr, Phoenix, AZ 85022 ",85022,0.2504561096429825,0.7930225431919098,0.19861734102702977,120000,https://www.zillow.com/homedetails/1935-E-Larkspur-Dr-Phoenix-AZ-85022/7816005_zpid/,33.6003,-112.04,6603,2018-01-29
205698,23876898,"2402 N 36th Pl, Phoenix, AZ 85008 ",85008,0.2524988204240799,0.7855415940284729,0.19834832588624085,239900,https://www.zillow.com/homedetails/2402-N-36th-Pl-Phoenix-AZ-85008/7541257_zpid/,33.474000000000004,-112.00299999999999,6592,2018-01-18
9006564,23814082,"16612 N 28th Way, Phoenix, AZ 85032 ",85032,0.2504561096429825,0.7902985513210297,0.19793510062035002,194900,https://www.zillow.com/homedetails/16612-N-28th-Way-Phoenix-AZ-85032/8005824_zpid/,33.6376,-112.021,6511,2017-10-29
215590,23881975,"1438 E Mission Ln, Phoenix, AZ 85020 ",85020,0.24817096441984177,0.7972181141376495,0.19784638823850798,240000,https://www.zillow.com/homedetails/1438-E-Mission-Ln-Phoenix-AZ-85020/7786963_zpid/,33.5697,-112.051,6620,2018-02-15
8977430,22376634,"1505 W Hadley St, Phoenix, AZ 85007 ",85007,0.2524988204240799,0.7825504839420319,0.19759307411765592,180000,https://www.zillow.com/homedetails/1505-W-Hadley-St-Phoenix-AZ-85007/2112748542_zpid/,33.4392,-112.09200000000001,6414,2017-07-24
8985214,23876389,"4530 N 15th St, Phoenix, AZ 85014 ",85014,0.25121259689331055,0.7850852012634277,0.19722329219189305,229000,https://www.zillow.com/homedetails/4530-N-15th-St-Phoenix-AZ-85014/7768940_zpid/,33.5031,-112.05,6618,2018-02-13
335242,23884995,"6803 N 19TH Dr, Phoenix, AZ 85015 ",85015,0.24698761105537415,0.7970402240753174,0.19685906085940275,155000,https://www.zillow.com/homedetails/6803-N-19TH-Dr-Phoenix-AZ-85015/7773475_zpid/,33.5368,-112.1,6620,2018-02-15
315005,23890557,"1715 N Whittier Dr, Phoenix, AZ 85006 ",85006,0.2524988204240799,0.7788571715354919,0.19666051709154697,220000,https://www.zillow.com/homedetails/1715-N-Whittier-Dr-Phoenix-AZ-85006/7532186_zpid/,33.4672,-112.046,6626,2018-02-21
9019753,23873423,"517 N Center St, Mesa, AZ 85201 ",85201,0.25121259689331055,0.7821441888809204,0.196484472833788,159900,https://www.zillow.com/homedetails/517-N-Center-St-Mesa-AZ-85201/7622095_zpid/,33.4245,-111.831,6611,2018-02-06
227027,23869822,"1401 W Grovers Ave, Phoenix, AZ 85023 ",85023,0.2504561096429825,0.7844976782798767,0.19648223652593,184900,https://www.zillow.com/homedetails/1401-W-Grovers-Ave-Phoenix-AZ-85023/7963298_zpid/,33.6472,-112.09100000000001,6596,2018-01-22
149903,23800141,"8309 E Indian School Rd, Scottsdale, AZ 85251 ",85251,0.25121259689331055,0.7819502949714661,0.19643576424127218,239850,https://www.zillow.com/homedetails/8309-E-Indian-School-Rd-Scottsdale-AZ-85251/7577019_zpid/,33.4948,-111.902,6497,2017-10-15
556743,23922344,"2418 N Foote Dr, Phoenix, AZ 85008 ",85008,0.2524988204240799,0.7766605913639069,0.19610588318925481,239900,https://www.zillow.com/homedetails/2418-N-Foote-Dr-Phoenix-AZ-85008/7543670_zpid/,33.4744,-112.02600000000001,6656,2018-03-23
152639,23860420,"1133 N Granite Reef Rd, Scottsdale, AZ 85257 ",85257,0.2524988204240799,0.7765782475471497,0.1960850914726544,139500,https://www.zillow.com/homedetails/1133-N-Granite-Reef-Rd-Scottsdale-AZ-85257/7577718_zpid/,33.4606,-111.9,6546,2017-12-03
232117,23929304,"19448 N 12TH St, Phoenix, AZ 85024 ",85024,0.24944288283586502,0.7860501408576965,0.1960746131890816,219895,https://www.zillow.com/homedetails/19448-N-12TH-St-Phoenix-AZ-85024/7996527_zpid/,33.6635,-112.057,6651,2018-03-18
9024660,23923519,"20 Hillside Dr, Saint Johns, AZ 85936 ",85936,0.24917340278625488,0.7861781716346741,0.19589469022248807,59950,https://www.zillow.com/homedetails/20-Hillside-Dr-Saint-Johns-AZ-85936/7354311_zpid/,33.6469,-112.059,6638,2018-03-05
9025615,23856149,"17636 N 35th St, Phoenix, AZ 85032 ",85032,0.24817096441984177,0.787159651517868,0.19535016986957587,235000,https://www.zillow.com/homedetails/17636-N-35th-St-Phoenix-AZ-85032/7998341_zpid/,33.6469,-112.005,6557,2017-12-14
9019728,23843826,"17413 N 8TH Ave, Phoenix, AZ 85023 ",85023,0.24917340278625488,0.7826679050922394,0.19502002516342287,184500,https://www.zillow.com/homedetails/17413-N-8th-Ave-Phoenix-AZ-85023/7963487_zpid/,33.6445,-112.085,6542,2017-11-29
8976262,22541368,"2918 E Nisbet Ct, Phoenix, AZ 85032 ",85032,0.24817096441984177,0.7856754660606384,0.1949818381332773,219500,https://www.zillow.com/homedetails/2918-E-Nisbet-Ct-Phoenix-AZ-85032/8011642_zpid/,33.6234,-112.01899999999999,6440,2017-08-19
312249,23814876,"1433 S 14th Ave, Phoenix, AZ 85007 ",85007,0.2524988204240799,0.7721972465515137,0.1949788938889796,174900,https://www.zillow.com/homedetails/1433-S-14th-Ave-Phoenix-AZ-85007/7500688_zpid/,33.4338,-112.09,6511,2017-10-29
9029513,23903554,"3743 N 11TH St, Phoenix, AZ 85014 ",85014,0.2524988204240799,0.7716536223888397,0.1948416294291504,229000,https://www.zillow.com/homedetails/3743-N-11TH-St-Phoenix-AZ-85014/7534522_zpid/,33.4907,-112.05799999999999,6625,2018-02-20
9025461,23852787,"2114 W Monroe St, Phoenix, AZ 85009 ",85009,0.24996966123580933,0.7779986262321472,0.19447605304117488,229900,https://www.zillow.com/homedetails/2114-W-Monroe-St-Phoenix-AZ-85009/7514471_zpid/,33.4505,-112.105,6550,2017-12-07
9029061,23901621,"1922 W Granada Rd, Phoenix, AZ 85009 ",85009,0.24996966123580933,0.7766959965229034,0.1941504351340395,115000,https://www.zillow.com/homedetails/1922-W-Granada-Rd-Phoenix-AZ-85009/7519860_zpid/,33.4686,-112.102,6621,2018-02-16
325706,23869796,"1718 W Indian School Rd, Phoenix, AZ 85015 ",85015,0.2509941980242729,0.7732639014720917,0.19408475281110804,239000,https://www.zillow.com/homedetails/1718-W-Indian-School-Rd-Phoenix-AZ-85015/7772146_zpid/,33.4953,-112.09700000000001,6589,2018-01-15
230226,23915267,"1810 W Wickieup Ln, Phoenix, AZ 85027 ",85027,0.24565673619508743,0.7898903489112854,0.1940418850655452,215000,https://www.zillow.com/homedetails/1810-W-Wickieup-Ln-Phoenix-AZ-85027/7971109_zpid/,33.663000000000004,-112.098,6654,2018-03-21
225614,23844378,"1303 W Michelle Dr, Phoenix, AZ 85023 ",85023,0.2504561096429825,0.7744156718254089,0.19395713641194856,249900,https://www.zillow.com/homedetails/1303-W-Michelle-Dr-Phoenix-AZ-85023/7956957_zpid/,33.6494,-112.09,6543,2017-11-30
328525,23873923,"2215 W Highland Ave, Phoenix, AZ 85015 ",85015,0.24996966123580933,0.7755094170570374,0.1938538262669276,174500,https://www.zillow.com/homedetails/2215-W-Highland-Ave-Phoenix-AZ-85015/7767284_zpid/,33.5056,-112.10700000000001,6612,2018-02-07
225687,23849553,"1306 W Charleston Ave, Phoenix, AZ 85023 ",85023,0.2504561096429825,0.7736867964267731,0.19377458511519174,245000,https://www.zillow.com/homedetails/1306-W-Charleston-Ave-Phoenix-AZ-85023/7956977_zpid/,33.6491,-112.09,6550,2017-12-07
359281,23890314,"2013 S 86TH Ave, Tolleson, AZ 85353 ",85353,0.2047923281788826,0.9455662965774536,0.19364472332358051,211000,https://www.zillow.com/homedetails/2013-S-86TH-Ave-Tolleson-AZ-85353/59271375_zpid/,33.4287,-112.244,6624,2018-02-19
362997,23929962,"9017 W Hilton Ave, Tolleson, AZ 85353 ",85353,0.2047923281788826,0.9452895522117615,0.19358804820062003,210000,https://www.zillow.com/homedetails/9017-W-Hilton-Ave-Tolleson-AZ-85353/62726889_zpid/,33.4271,-112.25399999999999,6638,2018-03-05
363090,23874641,"9025 W Hilton Ave, Tolleson, AZ 85353 ",85353,0.2047923281788826,0.9443914890289307,0.19340413175055637,189900,https://www.zillow.com/homedetails/9025-W-Hilton-Ave-Tolleson-AZ-85353/67772691_zpid/,33.4271,-112.25399999999999,6608,2018-02-03
316565,23865348,"1845 E Almeria Rd, Phoenix, AZ 85006 ",85006,0.2524988204240799,0.7658717036247253,0.19338170176142366,224900,https://www.zillow.com/homedetails/1845-E-Almeria-Rd-Phoenix-AZ-85006/7531838_zpid/,33.4664,-112.041,6586,2018-01-12
354297,23929964,"8118 W Whyman Ave, Phoenix, AZ 85043 ",85043,0.2047923281788826,0.9438478648662567,0.19329280169262808,205000,https://www.zillow.com/homedetails/8118-W-Whyman-Ave-Phoenix-AZ-85043/52423847_zpid/,33.4273,-112.235,6640,2018-03-07
352675,23874598,"7143 W Zak Rd, Phoenix, AZ 85043 ",85043,0.2059379145503044,0.9385534226894379,0.1932837345627132,190000,https://www.zillow.com/homedetails/7143-W-Zak-Rd-Phoenix-AZ-85043/52424124_zpid/,33.4268,-112.214,6606,2018-02-01
349674,23890334,"6325 W Magnolia St, Phoenix, AZ 85043 ",85043,0.2059379145503044,0.9384447336196899,0.1932613513623549,193000,https://www.zillow.com/homedetails/6325-W-Magnolia-St-Phoenix-AZ-85043/54948469_zpid/,33.4246,-112.197,6625,2018-02-20
9033237,23929791,"2405 S 90TH Gln, Tolleson, AZ 85353 ",85353,0.2047923281788826,0.9433076977729797,0.19318217961599027,210000,https://www.zillow.com/homedetails/2405-S-90TH-Gln-Tolleson-AZ-85353/67772731_zpid/,33.4252,-112.255,6633,2018-02-28
352694,23929821,"7205 W Hess Ave, Phoenix, AZ 85043 ",85043,0.2059379145503044,0.9378849565982819,0.19314607204995293,209990,https://www.zillow.com/homedetails/7205-W-Hess-Ave-Phoenix-AZ-85043/52424247_zpid/,33.4296,-112.215,6639,2018-03-06
40027,23874516,"2248 S 82ND Ln, Phoenix, AZ 85043 ",85043,0.2047923281788826,0.9424767196178436,0.19301200166493415,210000,https://www.zillow.com/homedetails/2248-S-82ND-Ln-Phoenix-AZ-85043/52423821_zpid/,33.4267,-112.238,6612,2018-02-07
8985061,23874094,"1918 E Willetta St, Phoenix, AZ 85006 ",85006,0.25121259689331055,0.767387717962265,0.19277746145333197,210000,https://www.zillow.com/homedetails/1918-E-Willetta-St-Phoenix-AZ-85006/7528826_zpid/,33.464,-112.04,6612,2018-02-07
350370,23890327,"6417 W Preston Ln, Phoenix, AZ 85043 ",85043,0.2059379145503044,0.9360238909721375,0.1927628080760635,203800,https://www.zillow.com/homedetails/6417-W-Preston-Ln-Phoenix-AZ-85043/55257431_zpid/,33.4233,-112.199,6626,2018-02-21
315846,23892183,"324 N 18TH Ave Phoenix, AZ 85007",85007,0.24868343770503998,0.7749770283699036,0.1927239515574639,139900,https://www.zillow.com/homedetails/324-N-18TH-Ave-Phoenix-AZ-85007/7521418_zpid/,33.4523,-112.098,6627,2018-02-22
9028534,23899487,"9926 W Gross Ave, Tolleson, AZ 85353 ",85353,0.2047923281788826,0.9407193958759308,0.1926521152444638,217000,https://www.zillow.com/homedetails/9926-W-Gross-Ave-Tolleson-AZ-85353/89456847_zpid/,33.428000000000004,-112.274,6633,2018-02-28
9027233,23895214,"8406 W Hamster Ln, Tolleson, AZ 85353 ",85353,0.2047923281788826,0.9405021369457245,0.1926076222823292,189000,https://www.zillow.com/homedetails/8406-W-Hamster-Ln-Tolleson-AZ-85353/58883271_zpid/,33.4288,-112.241,6614,2018-02-09
350150,23874570,"6406 W Preston Ln, Phoenix, AZ 85043 ",85043,0.2059379145503044,0.9352152943611145,0.192596287376277,169900,https://www.zillow.com/homedetails/6406-W-Preston-Ln-Phoenix-AZ-85043/55257443_zpid/,33.4237,-112.198,6606,2018-02-01
361380,23886784,"8601 W Flavia Hvn, Tolleson, AZ 85353 ",85353,0.2047923281788826,0.9403661787509918,0.1925797790870949,245000,https://www.zillow.com/homedetails/8601-W-Flavia-Hvn-Tolleson-AZ-85353/59271170_zpid/,33.4241,-112.245,6621,2018-02-16
350839,23886786,"6514 W Sonora St, Phoenix, AZ 85043 ",85043,0.2059379145503044,0.9351183176040649,0.19257631618517035,175000,https://www.zillow.com/homedetails/6514-W-Sonora-St-Phoenix-AZ-85043/7500079_zpid/,33.4338,-112.2,6621,2018-02-16
41792,23874571,"6411 W Winslow Ave, Phoenix, AZ 85043 ",85043,0.2059379145503044,0.9348728358745575,0.19252576218973538,210000,https://www.zillow.com/homedetails/6411-W-Winslow-Ave-Phoenix-AZ-85043/49641685_zpid/,33.4219,-112.198,6610,2018-02-05
354621,23808089,"2310 E Winchcomb Dr, Phoenix, AZ 85022 ",85022,0.24917340278625488,0.7723628878593445,0.19245228895373145,224900,https://www.zillow.com/homedetails/2310-E-Winchcomb-Dr-Phoenix-AZ-85022/8010116_zpid/,33.6168,-112.03399999999999,6507,2017-10-25
361198,23929894,"8529 W Hughes Dr, Tolleson, AZ 85353 ",85353,0.2047923281788826,0.939661055803299,0.1924353753169845,239900,https://www.zillow.com/homedetails/8529-W-Hughes-Dr-Tolleson-AZ-85353/59271124_zpid/,33.4249,-112.244,6635,2018-03-02
359511,23875667,"2422 S 84th Ln, Tolleson, AZ 85353 ",85353,0.2047923281788826,0.9396108388900757,0.19242509127841156,197500,https://www.zillow.com/homedetails/2422-S-84th-Ln-Tolleson-AZ-85353/59271244_zpid/,33.4258,-112.242,6605,2018-01-31
40196,23874530,"2907 S 71st Dr, Phoenix, AZ 85043 ",85043,0.2047923281788826,0.9386889934539795,0.19223630440533235,240000,https://www.zillow.com/homedetails/2907-S-71st-Dr-Phoenix-AZ-85043/71604365_zpid/,33.4222,-112.213,6613,2018-02-08
43860,23874625,"8140 W Gibson Ln, Phoenix, AZ 85043 ",85043,0.2047923281788826,0.938359797000885,0.1921688874972749,214900,https://www.zillow.com/homedetails/8140-W-Gibson-Ln-Phoenix-AZ-85043/52423784_zpid/,33.4279,-112.236,6615,2018-02-10
354449,23889724,"8137 W Hess Ave, Phoenix, AZ 85043 ",85043,0.2047923281788826,0.9380666315555573,0.19210884946318463,205000,https://www.zillow.com/homedetails/8137-W-Hess-Ave-Phoenix-AZ-85043/40371664_zpid/,33.4291,-112.236,6624,2018-02-19
41535,23889260,"6314 W Mohave St, Phoenix, AZ 85043 ",85043,0.2059379145503044,0.9326741993427277,0.19207297956751623,190000,https://www.zillow.com/homedetails/6314-W-Mohave-St-Phoenix-AZ-85043/55257271_zpid/,33.431999999999995,-112.196,6623,2018-02-18
9027087,23894944,"1036 E Indianola Ave, Phoenix, AZ 85014 ",85014,0.2524988204240799,0.760431319475174,0.19200801118100808,224900,https://www.zillow.com/homedetails/1036-E-Indianola-Ave-Phoenix-AZ-85014/7534423_zpid/,33.4922,-112.059,6611,2018-02-06
21550,23880121,"8329 W Gross Ave, Tolleson, AZ 85353 ",85353,0.2047923281788826,0.9370518922805786,0.1919010386445672,198000,https://www.zillow.com/homedetails/8329-W-Gross-Ave-Tolleson-AZ-85353/59271315_zpid/,33.4293,-112.24,6620,2018-02-15
9022216,23869757,"8333 W Watkins St, Tolleson, AZ 85353 ",85353,0.2047923281788826,0.9368900954723358,0.19186790389951525,190000,https://www.zillow.com/homedetails/8333-W-Watkins-St-Tolleson-AZ-85353/54886336_zpid/,33.4265,-112.24,6594,2018-01-20
9024040,23873322,"2215 S 99TH Ln, Tolleson, AZ 85353 ",85353,0.2047923281788826,0.9368411600589752,0.19185788230228273,213999,https://www.zillow.com/homedetails/2215-S-99TH-Ln-Tolleson-AZ-85353/95076703_zpid/,33.4261,-112.273,6610,2018-02-05
232395,23858251,"19615 N 6th Pl, Phoenix, AZ 85024 ",85024,0.24944288283586502,0.768837958574295,0.19178115682041352,179990,https://www.zillow.com/homedetails/19615-N-6th-Pl-Phoenix-AZ-85024/7967758_zpid/,33.6645,-112.066,6553,2017-12-10
39857,23889258,"1810 S 82nd Dr, Phoenix, AZ 85043 ",85043,0.2047923281788826,0.9361580312252045,0.1917179827579687,179900,https://www.zillow.com/homedetails/1810-S-82nd-Dr-Phoenix-AZ-85043/60047254_zpid/,33.4316,-112.238,6624,2018-02-19
348816,23890060,"9822 N 11TH Ave, Phoenix, AZ 85021 ",85021,0.2504561096429825,0.7654720544815063,0.19171715280585921,185000,https://www.zillow.com/homedetails/9822-N-11TH-Ave-Phoenix-AZ-85021/7781736_zpid/,33.5756,-112.087,6625,2018-02-20
354192,23874622,"8108 W Magnolia St, Phoenix, AZ 85043 ",85043,0.2047923281788826,0.9358955323696136,0.19166422500618796,217000,https://www.zillow.com/homedetails/8108-W-Magnolia-St-Phoenix-AZ-85043/50884736_zpid/,33.425,-112.234,6613,2018-02-08
9005657,23871977,"10439 W Papago St, Tolleson, AZ 85353 ",85353,0.2059379145503044,0.9299247860908508,0.19150677113618775,220000,https://www.zillow.com/homedetails/10439-W-Papago-St-Tolleson-AZ-85353/125986296_zpid/,33.4338,-112.24600000000001,6603,2018-01-29
365838,23892504,"9923 W Whyman Ave, Tolleson, AZ 85353 ",85353,0.2047923281788826,0.9350224435329437,0.19148542311061933,224000,https://www.zillow.com/homedetails/9923-W-Whyman-Ave-Tolleson-AZ-85353/95149673_zpid/,33.4254,-112.274,6634,2018-03-01
9024825,23871833,"509 N 41ST Pl, Phoenix, AZ 85008 ",85008,0.2524988204240799,0.7583305835723877,0.19147757784353203,224900,https://www.zillow.com/homedetails/509-N-41ST-Pl-Phoenix-AZ-85008/7560288_zpid/,33.454,-111.992,6596,2018-01-22
359312,23869360,"2024 S 85TH Ln, Tolleson, AZ 85353 ",85353,0.2047923281788826,0.9346956610679626,0.19141850056880783,185000,https://www.zillow.com/homedetails/2024-S-85th-Ln-Tolleson-AZ-85353/59271383_zpid/,33.4284,-112.244,6595,2018-01-21
349981,23889261,"6342 W Whyman Ave, Phoenix, AZ 85043 ",85043,0.2059379145503044,0.9293397068977356,0.19138628114731082,179900,https://www.zillow.com/homedetails/6342-W-Whyman-Ave-Phoenix-AZ-85043/53206189_zpid/,33.4274,-112.198,6624,2018-02-19
43394,23929854,"7910 W Winslow Ave, Phoenix, AZ 85043 ",85043,0.2047923281788826,0.9344815015792847,0.19137464234851986,239950,https://www.zillow.com/homedetails/7910-W-Winslow-Ave-Phoenix-AZ-85043/67764464_zpid/,33.4221,-112.23,6644,2018-03-11
7425243,23864205,"3629 E Yale St, Phoenix, AZ 85008 ",85008,0.2535233572125435,0.7547678649425507,0.19135128303637905,225500,https://www.zillow.com/homedetails/3629-E-Yale-St-Phoenix-AZ-85008/67082142_zpid/,33.4758,-112.00299999999999,6582,2018-01-08
40028,23875647,"2304 S 66TH Ln, Phoenix, AZ 85043 ",85043,0.2059379145503044,0.929102748632431,0.19133748245631854,219900,https://www.zillow.com/homedetails/2304-S-66TH-Ln-Phoenix-AZ-85043/67773205_zpid/,33.427,-112.204,6617,2018-02-12
328296,23918731,"2144 W Whitton Ave, Phoenix, AZ 85015 ",85015,0.24996966123580933,0.765396773815155,0.19132597226155568,224900,https://www.zillow.com/homedetails/2144-W-Whitton-Ave-Phoenix-AZ-85015/7517251_zpid/,33.4898,-112.10600000000001,6656,2018-03-23
9017497,23847149,"3044 E Roosevelt St, Phoenix, AZ 85008 ",85008,0.2524988204240799,0.7572386562824249,0.19120186749082757,239900,https://www.zillow.com/homedetails/3044-E-Roosevelt-St-Phoenix-AZ-85008/2098123425_zpid/,33.4588,-112.015,6546,2017-12-03
359526,23874541,"2429 S 83RD Dr, Tolleson, AZ 85353 ",85353,0.2047923281788826,0.9333004653453827,0.19113277518851546,209999,https://www.zillow.com/homedetails/2429-S-83RD-Dr-Tolleson-AZ-85353/59271229_zpid/,33.4258,-112.23899999999999,6600,2018-01-26
9033245,23929967,"8536 W Magnolia St, Tolleson, AZ 85353 ",85353,0.2047923281788826,0.9329393208026886,0.19105881555680804,230000,https://www.zillow.com/homedetails/8536-W-Magnolia-St-Tolleson-AZ-85353/59271181_zpid/,33.4238,-112.245,6643,2018-03-10
352885,23929847,"7223 W Zak Rd, Phoenix, AZ 85043 ",85043,0.2059379145503044,0.9274108707904816,0.1909890606618736,179900,https://www.zillow.com/homedetails/7223-W-Zak-Rd-Phoenix-AZ-85043/52424200_zpid/,33.4269,-112.21600000000001,6646,2018-03-13
17178,23846249,"14813 N 35TH St, Phoenix, AZ 85032 ",85032,0.24944288283586502,0.7651743292808533,0.19086729056781548,199900,https://www.zillow.com/homedetails/14813-N-35th-St-Phoenix-AZ-85032/8014278_zpid/,33.6214,-112.006,6543,2017-11-30
258476,23717515,"614 W Rosemonte Dr, Phoenix, AZ 85027 ",85027,0.24944288283586502,0.76498743891716,0.1908206720967216,234900,https://www.zillow.com/homedetails/614-W-Rosemonte-Dr-Phoenix-AZ-85027/7968459_zpid/,33.657,-112.08200000000001,6494,2017-10-12
359488,23929707,"2409 S 90TH Gln, Tolleson, AZ 85353 ",85353,0.2047923281788826,0.9315019845962524,0.19076446012871617,213900,https://www.zillow.com/homedetails/2409-S-90TH-Gln-Tolleson-AZ-85353/67772730_zpid/,33.425,-112.25399999999999,6647,2018-03-14
41583,23874562,"6321 W Mohave St, Phoenix, AZ 85043 ",85043,0.2059379145503044,0.9258624911308289,0.1906701905838326,195000,https://www.zillow.com/homedetails/6321-W-Mohave-St-Phoenix-AZ-85043/55257280_zpid/,33.4315,-112.196,6608,2018-02-03
343494,23875666,"2518 S 66th Dr, Phoenix, AZ 85043 ",85043,0.2059379145503044,0.9242354333400726,0.19033511769555145,194900,https://www.zillow.com/homedetails/2518-S-66th-Dr-Phoenix-AZ-85043/67773235_zpid/,33.425,-112.20200000000001,6581,2018-01-07
448361,23888250,"8402 W Coolidge St, Phoenix, AZ 85037 ",85037,0.2059379145503044,0.92390176653862,0.19026640305030562,183500,https://www.zillow.com/homedetails/8402-W-Coolidge-St-Phoenix-AZ-85037/7481009_zpid/,33.5049,-112.24,6622,2018-02-17
39873,23876462,"1904 S 82nd Dr, Phoenix, AZ 85043 ",85043,0.2047923281788826,0.9284107685089111,0.19013140278928553,207000,https://www.zillow.com/homedetails/1904-S-82nd-Dr-Phoenix-AZ-85043/58770129_zpid/,33.4313,-112.238,6619,2018-02-14
8946285,22054871,"1612 W Andorra Dr, Phoenix, AZ 85029 ",85029,0.2504561096429825,0.7588001191616058,0.19004612584184732,219900,https://www.zillow.com/homedetails/1612-W-Andorra-Dr-Phoenix-AZ-85029/7784242_zpid/,33.6066,-112.094,6380,2017-06-20
9027265,23895296,"8555 W Sonora St, Tolleson, AZ 85353 ",85353,0.2047923281788826,0.927426815032959,0.18992989666612559,190500,https://www.zillow.com/homedetails/8555-W-Sonora-St-Tolleson-AZ-85353/58494114_zpid/,33.4325,-112.244,6608,2018-02-03
336868,23820918,"2122 W Glendale Ave, Phoenix, AZ 85021 ",85021,0.24698761105537415,0.7687224447727203,0.18986492019906098,208400,https://www.zillow.com/homedetails/2122-W-Glendale-Ave-Phoenix-AZ-85021/7778952_zpid/,33.5389,-112.105,6516,2017-11-03
316133,23865426,"435 N 17TH Ave, Phoenix, AZ 85007 ",85007,0.25121259689331055,0.755759060382843,0.1898561961844223,169000,https://www.zillow.com/homedetails/435-N-17th-Ave-Phoenix-AZ-85007/7521605_zpid/,33.4546,-112.095,6585,2018-01-11
332879,23849200,"5333 N 22nd Dr, Phoenix, AZ 85015 ",85015,0.2482738345861435,0.7645366787910461,0.1898144529252077,240000,https://www.zillow.com/homedetails/5333-N-22nd-Dr-Phoenix-AZ-85015/7764971_zpid/,33.5163,-112.10700000000001,6549,2017-12-06
327950,23884388,"2118 W Montebello Ave, Phoenix, AZ 85015 ",85015,0.2482738345861435,0.7642656862735748,0.18974717257375096,239000,https://www.zillow.com/homedetails/2118-W-Montebello-Ave-Phoenix-AZ-85015/7763188_zpid/,33.5211,-112.105,6591,2018-01-17
9023033,23823351,"437 E Wescott Dr, Phoenix, AZ 85024 ",85024,0.24944288283586502,0.7589722275733948,0.1893202204382658,225000,https://www.zillow.com/homedetails/437-E-Wescott-Dr-Phoenix-AZ-85024/2092120604_zpid/,33.6585,-112.068,6521,2017-11-08
13979,23887011,"2235 W Danbury Rd, Phoenix, AZ 85023 ",85023,0.2128113955259323,0.8891389966011047,0.18921891068320829,200000,https://www.zillow.com/homedetails/2235-W-Danbury-Rd-Phoenix-AZ-85023/7958239_zpid/,33.6411,-112.109,6620,2018-02-15
351243,23874592,"6540 W Gross Ave, Phoenix, AZ 85043 ",85043,0.2059379145503044,0.9172104597091675,0.18888840927623196,229900,https://www.zillow.com/homedetails/6540-W-Gross-Ave-Phoenix-AZ-85043/62727279_zpid/,33.4297,-112.20200000000001,6613,2018-02-08
435409,23915054,"7910 W Catalina Dr, Phoenix, AZ 85033 ",85033,0.2047923281788826,0.9217371940612793,0.1887647059408799,217000,https://www.zillow.com/homedetails/7910-W-Catalina-Dr-Phoenix-AZ-85033/7469393_zpid/,33.4815,-112.228,6629,2018-02-24
328225,23916660,"2137 W Mulberry Dr, Phoenix, AZ 85015 ",85015,0.24996966123580933,0.7548773884773254,0.18869644507224947,219900,https://www.zillow.com/homedetails/2137-W-Mulberry-Dr-Phoenix-AZ-85015/7517743_zpid/,33.4865,-112.105,6649,2018-03-16
320123,23878817,"2325 N Mitchell St, Phoenix, AZ 85006 ",85006,0.25121259689331055,0.751123458147049,0.18869167450860402,235000,https://www.zillow.com/homedetails/2325-N-Mitchell-St-Phoenix-AZ-85006/7533644_zpid/,33.4739,-112.057,6613,2018-02-08
5231985,23914892,"4221 N 79TH Dr, Phoenix, AZ 85033 ",85033,0.2059379145503044,0.9162222445011139,0.1886848982971585,183000,https://www.zillow.com/homedetails/4221-N-79TH-Dr-Phoenix-AZ-85033/7481959_zpid/,33.4971,-112.229,6630,2018-02-25
445506,23891936,"4646 N 84TH Ln, Phoenix, AZ 85037 ",85037,0.2047923281788826,0.921171247959137,0.18864880452099841,198000,https://www.zillow.com/homedetails/4646-N-84TH-Ln-Phoenix-AZ-85037/7481172_zpid/,33.505,-112.242,6627,2018-02-22
9006368,23879941,"4701 N 79TH Dr, Phoenix, AZ 85033 ",85033,0.2059379145503044,0.9152155220508575,0.18847757597522174,187499,https://www.zillow.com/homedetails/4701-N-79TH-Dr-Phoenix-AZ-85033/82779611_zpid/,33.5056,-112.229,6614,2018-02-09
