property_id,transaction_id,address,zipcode,any_sell,good_sell,bayesian,list,url,lat,long,date_listed,transaction_date
9030467,23907928,"1105 S 6th Ave, Phoenix, AZ 85003 ",85003,0.5190394073724747,0.9987142384052277,0.5183720464363017,50000,https://www.zillow.com/homedetails/1105-S-6th-Ave-Phoenix-AZ-85003/2091048360_zpid/,33.437,-112.08200000000001,6619,2018-02-14
9034546,23940259,"10960 N 67th Ave LOT 77, Glendale, AZ 85304 ",85304,0.5008041113615036,0.998730331659317,0.500168256236424,51500,https://www.zillow.com/homedetails/10960-N-67th-Ave-LOT-77-Glendale-AZ-85304/2123701142_zpid/,33.5847,-112.205,6674,2018-04-10
9026868,23897793,"1302 W Cortez Ct, Chandler, AZ 85224 ",85224,0.5190394073724747,0.948827475309372,0.49247885048329776,249500,https://www.zillow.com/homedetails/1302-W-Cortez-Ct-Chandler-AZ-85224/8172446_zpid/,33.3554,-111.86399999999999,6624,2018-02-19
973060,23891307,"600 N Aspen Dr, Chandler, AZ 85226 ",85226,0.5190394073724747,0.9464520215988159,0.49124589639713,223900,https://www.zillow.com/homedetails/600-N-Aspen-Dr-Chandler-AZ-85226/8262023_zpid/,33.3128,-111.945,6624,2018-02-19
363090,23874641,"9025 W Hilton Ave, Tolleson, AZ 85353 ",85353,0.5190394073724747,0.9459177851676941,0.49096860663652375,189900,https://www.zillow.com/homedetails/9025-W-Hilton-Ave-Tolleson-AZ-85353/67772691_zpid/,33.4271,-112.25399999999999,6608,2018-02-03
1113596,23885766,"1567 W Kesler Ln, Chandler, AZ 85224 ",85224,0.5190394073724747,0.9444407820701599,0.4902019838240923,245000,https://www.zillow.com/homedetails/1567-W-Kesler-Ln-Chandler-AZ-85224/8226104_zpid/,33.2918,-111.869,6596,2018-01-22
9026756,23893480,"1033 W Orchid Ln, Chandler, AZ 85224 ",85224,0.5190394073724747,0.9436411559581757,0.48978694636080844,249900,https://www.zillow.com/homedetails/1033-W-Orchid-Ln-Chandler-AZ-85224/8203649_zpid/,33.3236,-111.86,6619,2018-02-14
1112872,23885785,"1482 W Orchid Ln, Chandler, AZ 85224 ",85224,0.5190394073724747,0.942941814661026,0.4894239606683848,249900,https://www.zillow.com/homedetails/1482-W-Orchid-Ln-Chandler-AZ-85224/8203452_zpid/,33.3237,-111.867,6614,2018-02-09
359281,23890314,"2013 S 86TH Ave, Tolleson, AZ 85353 ",85353,0.5190394073724747,0.9416636228561401,0.48876052875146847,211000,https://www.zillow.com/homedetails/2013-S-86TH-Ave-Tolleson-AZ-85353/59271375_zpid/,33.4287,-112.244,6624,2018-02-19
350839,23886786,"6514 W Sonora St, Phoenix, AZ 85043 ",85043,0.5190394073724747,0.9414635896682739,0.48865670364418357,175000,https://www.zillow.com/homedetails/6514-W-Sonora-St-Phoenix-AZ-85043/7500079_zpid/,33.4338,-112.2,6621,2018-02-16
359312,23869360,"2024 S 85TH Ln, Tolleson, AZ 85353 ",85353,0.5190394073724747,0.9408336579799652,0.48832974427399867,185000,https://www.zillow.com/homedetails/2024-S-85th-Ln-Tolleson-AZ-85353/59271383_zpid/,33.4284,-112.244,6595,2018-01-21
1094758,23892220,"818 W Nopal Pl, Chandler, AZ 85225 ",85225,0.5190394073724747,0.9403159618377686,0.4880610395751539,249990,https://www.zillow.com/homedetails/818-W-Nopal-Pl-Chandler-AZ-85225/8177792_zpid/,33.3423,-111.85799999999999,6627,2018-02-22
959786,23890197,"3817 W Folley St, Chandler, AZ 85226 ",85226,0.5190394073724747,0.9402578771114349,0.4880308913132203,235000,https://www.zillow.com/homedetails/3817-W-Folley-St-Chandler-AZ-85226/8156123_zpid/,33.2977,-111.90799999999999,6625,2018-02-20
352675,23874598,"7143 W Zak Rd, Phoenix, AZ 85043 ",85043,0.5190394073724747,0.9393733441829681,0.48757178386622746,190000,https://www.zillow.com/homedetails/7143-W-Zak-Rd-Phoenix-AZ-85043/52424124_zpid/,33.4268,-112.214,6606,2018-02-01
40027,23874516,"2248 S 82ND Ln, Phoenix, AZ 85043 ",85043,0.5190394073724747,0.9389505982398987,0.48735236206246757,210000,https://www.zillow.com/homedetails/2248-S-82ND-Ln-Phoenix-AZ-85043/52423821_zpid/,33.4267,-112.238,6612,2018-02-07
625494,23866146,"1522 W Plana Ave, Mesa, AZ 85202 ",85202,0.5190394073724747,0.9386607110500336,0.4872018991872351,242500,https://www.zillow.com/homedetails/1522-W-Plana-Ave-Mesa-AZ-85202/8172015_zpid/,33.3588,-111.866,6585,2018-01-11
9022216,23869757,"8333 W Watkins St, Tolleson, AZ 85353 ",85353,0.5190394073724747,0.9377285540103912,0.4867180729498011,190000,https://www.zillow.com/homedetails/8333-W-Watkins-St-Tolleson-AZ-85353/54886336_zpid/,33.4265,-112.24,6594,2018-01-20
40196,23874530,"2907 S 71st Dr, Phoenix, AZ 85043 ",85043,0.5190394073724747,0.9372984766960144,0.4864948458754226,240000,https://www.zillow.com/homedetails/2907-S-71st-Dr-Phoenix-AZ-85043/71604365_zpid/,33.4222,-112.213,6613,2018-02-08
349674,23890334,"6325 W Magnolia St, Phoenix, AZ 85043 ",85043,0.5190394073724747,0.9370737969875336,0.48637822825268406,193000,https://www.zillow.com/homedetails/6325-W-Magnolia-St-Phoenix-AZ-85043/54948469_zpid/,33.4246,-112.197,6625,2018-02-20
354449,23889724,"8137 W Hess Ave, Phoenix, AZ 85043 ",85043,0.5190394073724747,0.9369451999664307,0.48631148133106095,205000,https://www.zillow.com/homedetails/8137-W-Hess-Ave-Phoenix-AZ-85043/40371664_zpid/,33.4291,-112.236,6624,2018-02-19
6833,23886010,"3873 W Commonwealth Ave, Chandler, AZ 85226 ",85226,0.5190394073724747,0.9369392693042755,0.4863084030836906,230000,https://www.zillow.com/homedetails/3873-W-Commonwealth-Ave-Chandler-AZ-85226/55273361_zpid/,33.3027,-111.90899999999999,6618,2018-02-13
43860,23874625,"8140 W Gibson Ln, Phoenix, AZ 85043 ",85043,0.5190394073724747,0.9365543723106384,0.48610862637621377,214900,https://www.zillow.com/homedetails/8140-W-Gibson-Ln-Phoenix-AZ-85043/52423784_zpid/,33.4279,-112.236,6615,2018-02-10
361380,23886784,"8601 W Flavia Hvn, Tolleson, AZ 85353 ",85353,0.5190394073724747,0.9363393783569336,0.48599703604189415,245000,https://www.zillow.com/homedetails/8601-W-Flavia-Hvn-Tolleson-AZ-85353/59271170_zpid/,33.4241,-112.245,6621,2018-02-16
9027233,23895214,"8406 W Hamster Ln, Tolleson, AZ 85353 ",85353,0.5190394073724747,0.9360328018665314,0.48583791076200145,189000,https://www.zillow.com/homedetails/8406-W-Hamster-Ln-Tolleson-AZ-85353/58883271_zpid/,33.4288,-112.241,6614,2018-02-09
1851930,23885755,"1315 W Manor St, Chandler, AZ 85224 ",85224,0.5190394073724747,0.9355932474136353,0.4856097646792623,247500,https://www.zillow.com/homedetails/1315-W-Manor-St-Chandler-AZ-85224/8194266_zpid/,33.328,-111.86399999999999,6605,2018-01-31
41792,23874571,"6411 W Winslow Ave, Phoenix, AZ 85043 ",85043,0.5190394073724747,0.9350653290748596,0.48533575425756315,210000,https://www.zillow.com/homedetails/6411-W-Winslow-Ave-Phoenix-AZ-85043/49641685_zpid/,33.4219,-112.198,6610,2018-02-05
9029090,23901746,"2331 W Comstock Dr, Chandler, AZ 85224 ",85224,0.5190394073724747,0.9346819818019867,0.48513678191623333,245000,https://www.zillow.com/homedetails/2331-W-Comstock-Dr-Chandler-AZ-85224/8201985_zpid/,33.3471,-111.882,6625,2018-02-20
39857,23889258,"1810 S 82nd Dr, Phoenix, AZ 85043 ",85043,0.5190394073724747,0.9338872134685516,0.4847242658314488,179900,https://www.zillow.com/homedetails/1810-S-82nd-Dr-Phoenix-AZ-85043/60047254_zpid/,33.4316,-112.238,6624,2018-02-19
359526,23874541,"2429 S 83RD Dr, Tolleson, AZ 85353 ",85353,0.5190394073724747,0.9337973594665527,0.48467762806350123,209999,https://www.zillow.com/homedetails/2429-S-83RD-Dr-Tolleson-AZ-85353/59271229_zpid/,33.4258,-112.23899999999999,6600,2018-01-26
350370,23890327,"6417 W Preston Ln, Phoenix, AZ 85043 ",85043,0.5190394073724747,0.9336299896240234,0.4845907565196228,203800,https://www.zillow.com/homedetails/6417-W-Preston-Ln-Phoenix-AZ-85043/55257431_zpid/,33.4233,-112.199,6626,2018-02-21
9026644,23892930,"1956 N Illinois St, Chandler, AZ 85225 ",85225,0.5190394073724747,0.9335690140724182,0.4845591078054534,237500,https://www.zillow.com/homedetails/1956-N-Illinois-St-Chandler-AZ-85225/8182717_zpid/,33.3332,-111.84899999999999,6619,2018-02-14
1370662,23883178,"6798 N 87TH Ln, Glendale, AZ 85305 ",85305,0.5190394073724747,0.9331397414207458,0.4843362983827282,247900,https://www.zillow.com/homedetails/6798-N-87TH-Ln-Glendale-AZ-85305/95111567_zpid/,33.5346,-112.24799999999999,6598,2018-01-24
359511,23875667,"2422 S 84th Ln, Tolleson, AZ 85353 ",85353,0.5190394073724747,0.9324814081192017,0.4839945974560411,197500,https://www.zillow.com/homedetails/2422-S-84th-Ln-Tolleson-AZ-85353/59271244_zpid/,33.4258,-112.242,6605,2018-01-31
354192,23874622,"8108 W Magnolia St, Phoenix, AZ 85043 ",85043,0.5190394073724747,0.9321162700653076,0.4838050764169388,217000,https://www.zillow.com/homedetails/8108-W-Magnolia-St-Phoenix-AZ-85043/50884736_zpid/,33.425,-112.234,6613,2018-02-08
350150,23874570,"6406 W Preston Ln, Phoenix, AZ 85043 ",85043,0.5190394073724747,0.9320607483386993,0.48377625845286376,169900,https://www.zillow.com/homedetails/6406-W-Preston-Ln-Phoenix-AZ-85043/55257443_zpid/,33.4237,-112.198,6606,2018-02-01
349981,23889261,"6342 W Whyman Ave, Phoenix, AZ 85043 ",85043,0.5190394073724747,0.9313696920871735,0.4834175730256107,179900,https://www.zillow.com/homedetails/6342-W-Whyman-Ave-Phoenix-AZ-85043/53206189_zpid/,33.4274,-112.198,6624,2018-02-19
1466691,23869657,"17797 N 89TH Dr, Peoria, AZ 85382 ",85382,0.5190394073724747,0.930933952331543,0.48319140692107965,241500,https://www.zillow.com/homedetails/17797-N-89TH-Dr-Peoria-AZ-85382/71616751_zpid/,33.6449,-112.251,6594,2018-01-20
9026899,23893911,"1318 W Boxelder Ct, Chandler, AZ 85224 ",85224,0.5190394073724747,0.9308866262435913,0.48316684281643596,239900,https://www.zillow.com/homedetails/1318-W-Boxelder-Ct-Chandler-AZ-85224/8172413_zpid/,33.3542,-111.865,6604,2018-01-30
9029967,23940804,"8765 W Port Au Prince Ln, Peoria, AZ 85381 ",85381,0.5190394073724747,0.9307756721973419,0.4831092532940251,249500,https://www.zillow.com/homedetails/8765-W-Port-Au-Prince-Ln-Peoria-AZ-85381/7909199_zpid/,33.623000000000005,-112.24799999999999,6627,2018-02-22
40028,23875647,"2304 S 66TH Ln, Phoenix, AZ 85043 ",85043,0.5190394073724747,0.9303512573242188,0.4828889652497992,219900,https://www.zillow.com/homedetails/2304-S-66TH-Ln-Phoenix-AZ-85043/67773205_zpid/,33.427,-112.204,6617,2018-02-12
1406510,23868833,"6760 N 77th Ave, Glendale, AZ 85303 ",85303,0.5190394073724747,0.9302144646644592,0.4828179644687447,195000,https://www.zillow.com/homedetails/6760-N-77th-Ave-Glendale-AZ-85303/7463200_zpid/,33.5359,-112.225,6593,2018-01-19
21550,23880121,"8329 W Gross Ave, Tolleson, AZ 85353 ",85353,0.5190394073724747,0.9292562007904053,0.4823205877554493,198000,https://www.zillow.com/homedetails/8329-W-Gross-Ave-Tolleson-AZ-85353/59271315_zpid/,33.4293,-112.24,6620,2018-02-15
41535,23889260,"6314 W Mohave St, Phoenix, AZ 85043 ",85043,0.5190394073724747,0.9292410016059875,0.48231269877977656,190000,https://www.zillow.com/homedetails/6314-W-Mohave-St-Phoenix-AZ-85043/55257271_zpid/,33.431999999999995,-112.196,6623,2018-02-18
1373435,23873994,"8759 W Peppertree Ln, Glendale, AZ 85305 ",85305,0.5190394073724747,0.9290272891521454,0.4822017735943862,240000,https://www.zillow.com/homedetails/8759-W-Peppertree-Ln-Glendale-AZ-85305/95158696_zpid/,33.5368,-112.24700000000001,6612,2018-02-07
9024040,23873322,"2215 S 99TH Ln, Tolleson, AZ 85353 ",85353,0.5190394073724747,0.9288255870342255,0.4820970822466353,213999,https://www.zillow.com/homedetails/2215-S-99TH-Ln-Tolleson-AZ-85353/95076703_zpid/,33.4261,-112.273,6610,2018-02-05
445506,23891936,"4646 N 84TH Ln, Phoenix, AZ 85037 ",85037,0.5190394073724747,0.9284401834011078,0.4818970425733027,198000,https://www.zillow.com/homedetails/4646-N-84TH-Ln-Phoenix-AZ-85037/7481172_zpid/,33.505,-112.242,6627,2018-02-22
9029774,23904701,"7414 W Paradise Dr, Peoria, AZ 85345 ",85345,0.5190394073724747,0.9284132719039917,0.48188307444578804,179900,https://www.zillow.com/homedetails/7414-W-Paradise-Dr-Peoria-AZ-85345/7700773_zpid/,33.5939,-112.219,6620,2018-02-15
351243,23874592,"6540 W Gross Ave, Phoenix, AZ 85043 ",85043,0.5190394073724747,0.9283413887023926,0.48184576423143,229900,https://www.zillow.com/homedetails/6540-W-Gross-Ave-Phoenix-AZ-85043/62727279_zpid/,33.4297,-112.20200000000001,6613,2018-02-08
1126602,23890192,"2807 N Central Dr, Chandler, AZ 85224 ",85224,0.5190394073724747,0.9281640648841858,0.4817537261819149,180000,https://www.zillow.com/homedetails/2807-N-Central-Dr-Chandler-AZ-85224/8199127_zpid/,33.3475,-111.866,6625,2018-02-20
1097216,23886156,"901 W Cheyenne Dr, Chandler, AZ 85225 ",85225,0.5190394073724747,0.9277146756649017,0.48152047546785814,240000,https://www.zillow.com/homedetails/901-W-Cheyenne-Dr-Chandler-AZ-85225/8176783_zpid/,33.3463,-111.85600000000001,6618,2018-02-13
9029861,23905103,"8642 W Echo Ln, Peoria, AZ 85345 ",85345,0.5190394073724747,0.9276966750621796,0.4815111324456889,185000,https://www.zillow.com/homedetails/8642-W-Echo-Ln-Peoria-AZ-85345/50187500_zpid/,33.5583,-112.24600000000001,6617,2018-02-12
9030034,23905759,"7410 W Sierra St, Peoria, AZ 85345 ",85345,0.5190394073724747,0.9270654320716858,0.48118349245799497,249777,https://www.zillow.com/homedetails/7410-W-Sierra-St-Peoria-AZ-85345/7700341_zpid/,33.5901,-112.219,6599,2018-01-25
251570,23881419,"710 E Sack Dr, Phoenix, AZ 85024 ",85024,0.5190394073724747,0.9268670976161957,0.48108054905975584,240000,https://www.zillow.com/homedetails/710-E-Sack-Dr-Phoenix-AZ-85024/7997524_zpid/,33.6583,-112.065,6620,2018-02-15
351665,23889721,"6616 W Johnson St, Phoenix, AZ 85043 ",85043,0.5190394073724747,0.926634669303894,0.4809599096062822,180000,https://www.zillow.com/homedetails/6616-W-Johnson-St-Phoenix-AZ-85043/67788378_zpid/,33.4544,-112.20200000000001,6625,2018-02-20
448361,23888250,"8402 W Coolidge St, Phoenix, AZ 85037 ",85037,0.5190394073724747,0.9264082610607147,0.48084239480591817,183500,https://www.zillow.com/homedetails/8402-W-Coolidge-St-Phoenix-AZ-85037/7481009_zpid/,33.5049,-112.24,6622,2018-02-17
523764,23888833,"9034 W Avalon Dr, Phoenix, AZ 85037 ",85037,0.5190394073724747,0.926395982503891,0.480836021751061,180000,https://www.zillow.com/homedetails/9034-W-Avalon-Dr-Phoenix-AZ-85037/54948475_zpid/,33.4832,-112.25399999999999,6623,2018-02-18
447841,23877841,"8329 W Mulberry Dr, Phoenix, AZ 85037 ",85037,0.5190394073724747,0.9261421263217926,0.4807042603887468,175000,https://www.zillow.com/homedetails/8329-W-Mulberry-Dr-Phoenix-AZ-85037/7470394_zpid/,33.486,-112.23899999999999,6597,2018-01-23
1416563,23872427,"7608 W Peck Dr, Glendale, AZ 85303 ",85303,0.5190394073724747,0.925486296415329,0.4803638588227588,249900,https://www.zillow.com/homedetails/7608-W-Peck-Dr-Glendale-AZ-85303/95094058_zpid/,33.5268,-112.22399999999999,6605,2018-01-31
9026278,23865568,"8630 W El Caminito Dr, Peoria, AZ 85345 ",85345,0.5190394073724747,0.9247103631496429,0.4799611188803765,199999,https://www.zillow.com/homedetails/8630-W-El-Caminito-Dr-Peoria-AZ-85345/50187525_zpid/,33.5576,-112.24600000000001,6585,2018-01-11
1413599,23870195,"7315 W Midway Ave, Glendale, AZ 85303 ",85303,0.5190394073724747,0.9243026077747345,0.4797494777722311,203000,https://www.zillow.com/homedetails/7315-W-Midway-Ave-Glendale-AZ-85303/95160837_zpid/,33.541,-112.21600000000001,6597,2018-01-23
501561,23888074,"7826 W Palm Ln, Phoenix, AZ 85035 ",85035,0.5190394073724747,0.9242882430553436,0.4797420219167914,172000,https://www.zillow.com/homedetails/7826-W-Palm-Ln-Phoenix-AZ-85035/95097689_zpid/,33.469,-112.228,6622,2018-02-17
9025872,23872342,"15168 N 90TH Ln, Peoria, AZ 85381 ",85381,0.5190394073724747,0.9239186346530914,0.4795501805907265,213700,https://www.zillow.com/homedetails/15168-N-90TH-Ln-Peoria-AZ-85381/7908827_zpid/,33.6229,-112.25399999999999,6605,2018-01-31
1127341,23920612,"2909 W Curry St, Chandler, AZ 85224 ",85224,0.5190394073724747,0.9238470494747162,0.479513025062166,238700,https://www.zillow.com/homedetails/2909-W-Curry-St-Chandler-AZ-85224/8197532_zpid/,33.3541,-111.89299999999999,6628,2018-02-23
343494,23875666,"2518 S 66th Dr, Phoenix, AZ 85043 ",85043,0.5190394073724747,0.923333466053009,0.47924645502732677,194900,https://www.zillow.com/homedetails/2518-S-66th-Dr-Phoenix-AZ-85043/67773235_zpid/,33.425,-112.20200000000001,6581,2018-01-07
1408259,23883188,"6919 N 73rd Dr, Glendale, AZ 85303 ",85303,0.5190394073724747,0.9231981933116913,0.47917624314383955,214000,https://www.zillow.com/homedetails/6919-N-73rd-Dr-Glendale-AZ-85303/7706959_zpid/,33.5365,-112.21600000000001,6608,2018-02-03
519544,23891946,"8906 W Cypress St, Phoenix, AZ 85037 ",85037,0.5190394073724747,0.9230607748031616,0.4791049175226103,219000,https://www.zillow.com/homedetails/8906-W-Cypress-St-Phoenix-AZ-85037/7487715_zpid/,33.4719,-112.251,6627,2018-02-22
625114,23886893,"2235 S Hosick, Mesa, AZ 85210 ",85210,0.5190394073724747,0.9229643940925598,0.4790548921356974,200000,https://www.zillow.com/homedetails/2235-S-Hosick-Mesa-AZ-85210/8170281_zpid/,33.3741,-111.848,6621,2018-02-16
1090009,23867209,"615 W Dublin St, Chandler, AZ 85225 ",85225,0.5190394073724747,0.9227089881896973,0.4789223264072362,247000,https://www.zillow.com/homedetails/615-W-Dublin-St-Chandler-AZ-85225/8189370_zpid/,33.3189,-111.851,6586,2018-01-12
450725,23873992,"8746 W Granada Rd, Phoenix, AZ 85037 ",85037,0.5190394073724747,0.922674149274826,0.47890424363750794,199900,https://www.zillow.com/homedetails/8746-W-Granada-Rd-Phoenix-AZ-85037/7487519_zpid/,33.4683,-112.249,6611,2018-02-06
1111311,23885718,"1319 W Straford Dr, Chandler, AZ 85224 ",85224,0.5190394073724747,0.9224194288253784,0.478772033686381,209000,https://www.zillow.com/homedetails/1319-W-Straford-Dr-Chandler-AZ-85224/8172355_zpid/,33.353,-111.865,6618,2018-02-13
420581,23882618,"5810 W Alice Ave, Glendale, AZ 85302 ",85302,0.5190394073724747,0.9223950505256653,0.47875938038814514,234500,https://www.zillow.com/homedetails/5810-W-Alice-Ave-Glendale-AZ-85302/7733216_zpid/,33.5645,-112.185,6590,2018-01-16
1414408,23870613,"7359 N 70th Ave, Glendale, AZ 85303 ",85303,0.5190394073724747,0.9223811626434326,0.47875217202998144,174900,https://www.zillow.com/homedetails/7359-N-70th-Ave-Glendale-AZ-85303/7704942_zpid/,33.5441,-112.21,6598,2018-01-24
445188,23891613,"4627 N 91ST Dr, Phoenix, AZ 85037 ",85037,0.5190394073724747,0.9216980338096619,0.478397601244942,236900,https://www.zillow.com/homedetails/4627-N-91st-Dr-Phoenix-AZ-85037/7466477_zpid/,33.5051,-112.256,6626,2018-02-21
9026594,23892782,"9941 W Gulf Hills Dr, Sun City, AZ 85351 ",85351,0.5190394073724747,0.9216497540473938,0.4783725421457463,193500,https://www.zillow.com/homedetails/9941-W-Gulf-Hills-Dr-Sun-City-AZ-85351/7905903_zpid/,33.6258,-112.273,6600,2018-01-26
483296,23891539,"2625 N 73RD Dr, Phoenix, AZ 85035 ",85035,0.5190394073724747,0.9215531647205353,0.47832240847877516,205000,https://www.zillow.com/homedetails/2625-N-73rd-Dr-Phoenix-AZ-85035/95093273_zpid/,33.4771,-112.21600000000001,6623,2018-02-18
9029809,23904890,"17460 N 92ND Ave, Peoria, AZ 85382 ",85382,0.5190394073724747,0.921431303024292,0.47825915745617564,226000,https://www.zillow.com/homedetails/17460-N-92ND-Ave-Peoria-AZ-85382/95103614_zpid/,33.6425,-112.258,6621,2018-02-16
1108960,23920279,"1170 W Butler Dr, Chandler, AZ 85224 ",85224,0.5008041113615036,0.9549603462219238,0.4782480675751444,249900,https://www.zillow.com/homedetails/1170-W-Butler-Dr-Chandler-AZ-85224/8207445_zpid/,33.3013,-111.86200000000001,6642,2018-03-09
9029763,23905774,"7055 W Lincoln St, Peoria, AZ 85345 ",85345,0.5190394073724747,0.9213269054889679,0.4782049710213099,198000,https://www.zillow.com/homedetails/7055-W-Lincoln-St-Peoria-AZ-85345/63200896_zpid/,33.5844,-112.211,6620,2018-02-15
832308,23877784,"4147 W Pinchot Ave, Phoenix, AZ 85019 ",85019,0.5190394073724747,0.921314150094986,0.4781983504691767,175000,https://www.zillow.com/homedetails/4147-W-Pinchot-Ave-Phoenix-AZ-85019/7509015_zpid/,33.482,-112.149,6604,2018-01-30
1108948,23885722,"1169 W Nopal Pl, Chandler, AZ 85224 ",85224,0.5190394073724747,0.92110276222229,0.47808863183300687,244900,https://www.zillow.com/homedetails/1169-W-Nopal-Pl-Chandler-AZ-85224/8175911_zpid/,33.341,-111.86200000000001,6602,2018-01-28
1120336,23889251,"2231 W Ironwood Dr, Chandler, AZ 85224 ",85224,0.5190394073724747,0.9210633933544159,0.47806819783915655,219900,https://www.zillow.com/homedetails/2231-W-Ironwood-Dr-Chandler-AZ-85224/8192970_zpid/,33.3246,-111.881,6624,2018-02-19
39873,23876462,"1904 S 82nd Dr, Phoenix, AZ 85043 ",85043,0.5190394073724747,0.920884370803833,0.4779752780805957,207000,https://www.zillow.com/homedetails/1904-S-82nd-Dr-Phoenix-AZ-85043/58770129_zpid/,33.4313,-112.238,6619,2018-02-14
1414034,23890084,"7334 W Lamar Rd, Glendale, AZ 85303 ",85303,0.5190394073724747,0.9207923114299774,0.4779274956377466,226000,https://www.zillow.com/homedetails/7334-W-Lamar-Rd-Glendale-AZ-85303/50188064_zpid/,33.5354,-112.21799999999999,6625,2018-02-20
9029597,23903877,"9147 W Minnezona Ave, Phoenix, AZ 85037 ",85037,0.5190394073724747,0.9206840991973877,0.4778713292246728,249990,https://www.zillow.com/homedetails/9147-W-Minnezona-Ave-Phoenix-AZ-85037/2091007381_zpid/,33.5024,-112.251,6622,2018-02-17
1078091,23885832,"2052 N Holguin Way, Chandler, AZ 85225 ",85225,0.5190394073724747,0.9206400811672211,0.4778484821323814,219000,https://www.zillow.com/homedetails/2052-N-Holguin-Way-Chandler-AZ-85225/60985138_zpid/,33.3362,-111.84899999999999,6593,2018-01-19
1370616,23920014,"6750 N 89TH Ave, Glendale, AZ 85305 ",85305,0.5190394073724747,0.9199051856994629,0.4774670424243155,217700,https://www.zillow.com/homedetails/6750-N-89TH-Ave-Glendale-AZ-85305/7461686_zpid/,33.5333,-112.251,6630,2018-02-25
450133,23873086,"8659 W Palm Ln, Phoenix, AZ 85037 ",85037,0.5190394073724747,0.9198809564113617,0.4774544664689784,179900,https://www.zillow.com/homedetails/8659-W-Palm-Ln-Phoenix-AZ-85037/7487502_zpid/,33.47,-112.244,6607,2018-02-02
9033237,23929791,"2405 S 90TH Gln, Tolleson, AZ 85353 ",85353,0.5008041113615036,0.9530649483203888,0.47729884451338966,210000,https://www.zillow.com/homedetails/2405-S-90TH-Gln-Tolleson-AZ-85353/67772731_zpid/,33.4252,-112.255,6633,2018-02-28
384329,23890041,"13442 N 16TH Ave, Phoenix, AZ 85029 ",85029,0.5190394073724747,0.9193859398365021,0.4771975333593237,225000,https://www.zillow.com/homedetails/13442-N-16TH-Ave-Phoenix-AZ-85029/7784159_zpid/,33.6098,-112.094,6625,2018-02-20
353909,23881508,"2219 E Aire Libre Ave, Phoenix, AZ 85022 ",85022,0.5190394073724747,0.9193641245365143,0.47718621035894637,239900,https://www.zillow.com/homedetails/2219-E-Aire-Libre-Ave-Phoenix-AZ-85022/8005158_zpid/,33.637,-112.03399999999999,6620,2018-02-15
1115749,23864072,"1721 W Nopal Dr, Chandler, AZ 85224 ",85224,0.5190394073724747,0.919308215379715,0.47715719130333456,249900,https://www.zillow.com/homedetails/1721-W-Nopal-Dr-Chandler-AZ-85224/8198402_zpid/,33.3418,-111.874,6581,2018-01-07
9029821,23904953,"8011 N 87th Dr, Peoria, AZ 85345 ",85345,0.5190394073724747,0.9191038608551025,0.47705112325198584,214900,https://www.zillow.com/homedetails/8011-N-87th-Dr-Peoria-AZ-85345/50187488_zpid/,33.5525,-112.24700000000001,6614,2018-02-09
435409,23915054,"7910 W Catalina Dr, Phoenix, AZ 85033 ",85033,0.5190394073724747,0.9190435707569122,0.4770198303151507,217000,https://www.zillow.com/homedetails/7910-W-Catalina-Dr-Phoenix-AZ-85033/7469393_zpid/,33.4815,-112.228,6629,2018-02-24
9030014,23905762,"7436 W Sanna St, Peoria, AZ 85345 ",85345,0.5190394073724747,0.9190313816070557,0.4770135036660328,214997,https://www.zillow.com/homedetails/7436-W-Sanna-St-Peoria-AZ-85345/7702407_zpid/,33.5693,-112.21600000000001,6596,2018-01-22
451186,23869054,"3607 N 51ST Ave, Phoenix, AZ 85031 ",85031,0.5190394073724747,0.918967068195343,0.47698012247093136,174900,https://www.zillow.com/homedetails/3607-N-51st-Ave-Phoenix-AZ-85031/7508531_zpid/,33.4904,-112.169,6585,2018-01-11
243943,23929305,"18466 N 5TH Ave, Phoenix, AZ 85023 ",85023,0.5190394073724747,0.9189304113388062,0.4769610961178383,244000,https://www.zillow.com/homedetails/18466-N-5TH-Ave-Phoenix-AZ-85023/7956365_zpid/,33.6543,-112.08,6628,2018-02-23
958181,23885961,"3473 W Barcelona Dr, Chandler, AZ 85226 ",85226,0.5190394073724747,0.9186229705810547,0.47680152224913286,209000,https://www.zillow.com/homedetails/3473-W-Barcelona-Dr-Chandler-AZ-85226/8263797_zpid/,33.3222,-111.902,6604,2018-01-30
502152,23869709,"3805 N 51ST Ave, Phoenix, AZ 85031 ",85031,0.5190394073724747,0.9185756146907806,0.4767769426759094,164000,https://www.zillow.com/homedetails/3805-N-51st-Ave-Phoenix-AZ-85031/7508895_zpid/,33.4919,-112.169,6594,2018-01-20
9031700,23915672,"3736 W Villa Maria Dr, Glendale, AZ 85308 ",85308,0.5190394073724747,0.9184812903404236,0.4767279846209993,239000,https://www.zillow.com/homedetails/3736-W-Villa-Maria-Dr-Glendale-AZ-85308/7948248_zpid/,33.6519,-112.141,6628,2018-02-23
1419842,23883468,"7842 W Fleetwood Ln, Glendale, AZ 85303 ",85303,0.5190394073724747,0.9184314608573914,0.4767021211556566,217500,https://www.zillow.com/homedetails/7842-W-Fleetwood-Ln-Glendale-AZ-85303/7462815_zpid/,33.5367,-112.228,6617,2018-02-12
383956,23881937,"13249 N 14TH Dr, Phoenix, AZ 85029 ",85029,0.5190394073724747,0.9183709919452667,0.47667073540734295,235000,https://www.zillow.com/homedetails/13249-N-14TH-Dr-Phoenix-AZ-85029/7784486_zpid/,33.6077,-112.09,6619,2018-02-14
9025490,23867634,"4202 N 63rd Dr, Phoenix, AZ 85033 ",85033,0.5190394073724747,0.9183545708656311,0.47666221221990046,189900,https://www.zillow.com/homedetails/4202-N-63rd-Dr-Phoenix-AZ-85033/7717363_zpid/,33.4975,-112.196,6590,2018-01-16
9021871,23872703,"12120 N 89th Dr, Peoria, AZ 85345 ",85345,0.5190394073724747,0.9181805551052094,0.4765718911827377,239900,https://www.zillow.com/homedetails/12120-N-89th-Dr-Peoria-AZ-85345/7685583_zpid/,33.5947,-112.25200000000001,6606,2018-02-01
460994,23890564,"2924 N 53RD Pkwy, Phoenix, AZ 85031 ",85031,0.5190394073724747,0.9178684055805206,0.47640987327843165,174500,https://www.zillow.com/homedetails/2924-N-53RD-Pkwy-Phoenix-AZ-85031/7497218_zpid/,33.4826,-112.176,6626,2018-02-21
9029622,23904013,"5207 W Campo Bello Dr, Glendale, AZ 85308 ",85308,0.5190394073724747,0.9177640378475189,0.47635570231214563,230000,https://www.zillow.com/homedetails/5207-W-Campo-Bello-Dr-Glendale-AZ-85308/8100316_zpid/,33.6426,-112.17200000000001,6625,2018-02-20
9026770,23893524,"1518 W Marlboro Dr, Chandler, AZ 85224 ",85224,0.5190394073724747,0.9175052046775818,0.4762213576970131,237500,https://www.zillow.com/homedetails/1518-W-Marlboro-Dr-Chandler-AZ-85224/8176555_zpid/,33.3476,-111.87,6591,2018-01-17
9024613,23887041,"3851 W Wagoner Rd, Glendale, AZ 85308 ",85308,0.5190394073724747,0.9174589514732361,0.47619735046124045,246500,https://www.zillow.com/homedetails/3851-W-Wagoner-Rd-Glendale-AZ-85308/7948380_zpid/,33.6531,-112.14299999999999,6619,2018-02-14
7542144,23891819,"4205 W Rockwood Dr, Glendale, AZ 85308 ",85308,0.5190394073724747,0.9173882901668549,0.4761606744586522,219900,https://www.zillow.com/homedetails/4205-W-Rockwood-Dr-Glendale-AZ-85308/7935978_zpid/,33.6561,-112.149,6627,2018-02-22
9027668,23915751,"4828 W Kristal Way, Glendale, AZ 85308 ",85308,0.5190394073724747,0.9172126352787018,0.4760695026496031,239900,https://www.zillow.com/homedetails/4828-W-Kristal-Way-Glendale-AZ-85308/7939901_zpid/,33.6616,-112.165,6631,2018-02-26
434384,23888835,"7629 W Flower St, Phoenix, AZ 85033 ",85033,0.5190394073724747,0.9171236753463745,0.4760233289390481,175900,https://www.zillow.com/homedetails/7629-W-Flower-St-Phoenix-AZ-85033/7469131_zpid/,33.4849,-112.22399999999999,6623,2018-02-18
354297,23929964,"8118 W Whyman Ave, Phoenix, AZ 85043 ",85043,0.5008041113615036,0.9502273797988892,0.47587777853155266,205000,https://www.zillow.com/homedetails/8118-W-Whyman-Ave-Phoenix-AZ-85043/52423847_zpid/,33.4273,-112.235,6640,2018-03-07
837022,23871277,"5743 N 38th Dr, Phoenix, AZ 85019 ",85019,0.5190394073724747,0.9168027639389038,0.4758567632722954,187900,https://www.zillow.com/homedetails/5743-N-38th-Dr-Phoenix-AZ-85019/7719105_zpid/,33.5219,-112.141,6601,2018-01-27
9030024,23905709,"7267 W Charter Oak Rd, Peoria, AZ 85381 ",85381,0.5190394073724747,0.9164911806583405,0.47569503927100465,248000,https://www.zillow.com/homedetails/7267-W-Charter-Oak-Rd-Peoria-AZ-85381/7912731_zpid/,33.5972,-112.21600000000001,6614,2018-02-09
9020198,23867892,"17950 N 88th Ave, Peoria, AZ 85382 ",85382,0.5190394073724747,0.9164347350597382,0.47566574178095733,249000,https://www.zillow.com/homedetails/17950-N-88th-Ave-Peoria-AZ-85382/7898435_zpid/,33.6467,-112.24799999999999,6590,2018-01-16
476441,23869697,"3201 N 54TH Dr, Phoenix, AZ 85031 ",85031,0.5190394073724747,0.9161460697650909,0.47551591311749464,184900,https://www.zillow.com/homedetails/3201-N-54th-Dr-Phoenix-AZ-85031/7496896_zpid/,33.486,-112.175,6594,2018-01-20
1410407,23890694,"7080 W Glenn Dr, Glendale, AZ 85303 ",85303,0.5190394073724747,0.9159414172172546,0.4754096903803484,234650,https://www.zillow.com/homedetails/7080-W-Glenn-Dr-Glendale-AZ-85303/55173602_zpid/,33.5399,-112.211,6626,2018-02-21
1850957,23888709,"7907 W Sweetwater Ave, Peoria, AZ 85381 ",85381,0.5190394073724747,0.9157882332801819,0.4753301818804312,229500,https://www.zillow.com/homedetails/7907-W-Sweetwater-Ave-Peoria-AZ-85381/8101192_zpid/,33.6026,-112.229,6619,2018-02-14
9028736,23900205,"6736 W Kings Ave, Peoria, AZ 85382 ",85382,0.5190394073724747,0.915751725435257,0.4753112328702369,200000,https://www.zillow.com/homedetails/6736-W-Kings-Ave-Peoria-AZ-85382/7902943_zpid/,33.6345,-112.205,6627,2018-02-22
232639,23915245,"18011 N 33RD Dr, Phoenix, AZ 85053 ",85053,0.5190394073724747,0.9156733155250549,0.4752705350369135,199000,https://www.zillow.com/homedetails/18011-N-33RD-Dr-Phoenix-AZ-85053/7941273_zpid/,33.6496,-112.131,6628,2018-02-23
9028885,23901304,"9922 W Desert Rock Dr, Sun City, AZ 85351 ",85351,0.5190394073724747,0.9156404137611389,0.47525345772486904,225000,https://www.zillow.com/homedetails/9922-W-Desert-Rock-Dr-Sun-City-AZ-85351/7923906_zpid/,33.6283,-112.273,6627,2018-02-22
449589,23950202,"8551 W Sheridan St, Phoenix, AZ 85037 ",85037,0.5190394073724747,0.9155033230781555,0.47518230225801705,220000,https://www.zillow.com/homedetails/8551-W-Sheridan-St-Phoenix-AZ-85037/7487376_zpid/,33.4745,-112.245,6625,2018-02-20
7474886,23914732,"9316 W Palmer Dr, Peoria, AZ 85345 ",85345,0.5190394073724747,0.9153895080089569,0.47512322775195015,249000,https://www.zillow.com/homedetails/9316-W-Palmer-Dr-Peoria-AZ-85345/7697300_zpid/,33.5703,-112.26,6627,2018-02-22
9025882,23869744,"7140 W Desert Cove Ave, Peoria, AZ 85345 ",85345,0.5190394073724747,0.9153436124324799,0.4750994061391345,234900,https://www.zillow.com/homedetails/7140-W-Desert-Cove-Ave-Peoria-AZ-85345/7701093_zpid/,33.585,-112.213,6595,2018-01-21
8985192,23888637,"13250 N 79TH Ave, Peoria, AZ 85381 ",85381,0.5190394073724747,0.9153296947479248,0.47509218231239103,249900,https://www.zillow.com/homedetails/13250-N-79TH-Ave-Peoria-AZ-85381/8100968_zpid/,33.6054,-112.229,6620,2018-02-15
461098,23891547,"2939 N 53RD Dr, Phoenix, AZ 85031 ",85031,0.5190394073724747,0.9153180718421936,0.47508614956628836,212999,https://www.zillow.com/homedetails/2939-N-53rd-Dr-Phoenix-AZ-85031/7497250_zpid/,33.4831,-112.176,6614,2018-02-09
22091,23889710,"8335 W Lewis Ave, Phoenix, AZ 85037 ",85037,0.5190394073724747,0.9153113067150116,0.475082638198685,184900,https://www.zillow.com/homedetails/8335-W-Lewis-Ave-Phoenix-AZ-85037/81996643_zpid/,33.4736,-112.23899999999999,6625,2018-02-20
832708,23877794,"4248 W Cheery Lynn Rd, Phoenix, AZ 85019 ",85019,0.5190394073724747,0.9152942597866058,0.47507379017106777,198900,https://www.zillow.com/homedetails/4248-W-Cheery-Lynn-Rd-Phoenix-AZ-85019/7507231_zpid/,33.4852,-112.15100000000001,6614,2018-02-09
7436448,23881415,"757 E Rosemonte Dr, Phoenix, AZ 85024 ",85024,0.5190394073724747,0.9152897894382477,0.4750714698841052,245900,https://www.zillow.com/homedetails/757-E-Rosemonte-Dr-Phoenix-AZ-85024/7997447_zpid/,33.6568,-112.06299999999999,6596,2018-01-22
485999,23881464,"4650 W Hubbell St, Phoenix, AZ 85035 ",85035,0.5190394073724747,0.9152261912822723,0.4750384599349178,173000,https://www.zillow.com/homedetails/4650-W-Hubbell-St-Phoenix-AZ-85035/7494965_zpid/,33.4703,-112.16,6620,2018-02-15
9029901,23905267,"7329 W Peoria Ave, Peoria, AZ 85345 ",85345,0.5190394073724747,0.9152018129825592,0.4750258066366819,192000,https://www.zillow.com/homedetails/7329-W-Peoria-Ave-Peoria-AZ-85345/7705949_zpid/,33.5815,-112.21700000000001,6621,2018-02-16
833315,23884788,"5610 N 38th Dr, Phoenix, AZ 85019 ",85019,0.5190394073724747,0.9151998460292816,0.4750247857104184,180000,https://www.zillow.com/homedetails/5610-N-38th-Dr-Phoenix-AZ-85019/7719600_zpid/,33.5183,-112.14200000000001,6613,2018-02-08
1933748,23915060,"7145 W Mulberry Dr, Phoenix, AZ 85033 ",85033,0.5190394073724747,0.9150655269622803,0.4749550688214832,185000,https://www.zillow.com/homedetails/7145-W-Mulberry-Dr-Phoenix-AZ-85033/7485834_zpid/,33.4866,-112.214,6628,2018-02-23
450364,23891932,"8721 W Virginia Ave, Phoenix, AZ 85037 ",85037,0.5190394073724747,0.915054440498352,0.47494931450981603,189000,https://www.zillow.com/homedetails/8721-W-Virginia-Ave-Phoenix-AZ-85037/7473685_zpid/,33.4763,-112.24799999999999,6627,2018-02-22
352885,23929847,"7223 W Zak Rd, Phoenix, AZ 85043 ",85043,0.5008041113615036,0.9483025670051575,0.4749138243708506,179900,https://www.zillow.com/homedetails/7223-W-Zak-Rd-Phoenix-AZ-85043/52424200_zpid/,33.4269,-112.21600000000001,6646,2018-03-13
419910,23882592,"5621 W Eva St, Glendale, AZ 85302 ",85302,0.5190394073724747,0.9148070514202118,0.4748209098293077,232000,https://www.zillow.com/homedetails/5621-W-Eva-St-Glendale-AZ-85302/7734644_zpid/,33.5683,-112.18,6611,2018-02-06
9022517,23872117,"9918 W Oakstone Dr, Sun City, AZ 85351 ",85351,0.5190394073724747,0.9148004055023193,0.47481746033602334,205000,https://www.zillow.com/homedetails/9918-W-Oakstone-Dr-Sun-City-AZ-85351/7907984_zpid/,33.6152,-112.26899999999999,6603,2018-01-29
524624,23887143,"9123 W Cambridge Ave, Phoenix, AZ 85037 ",85037,0.5190394073724747,0.9147775173187256,0.474805580466775,232000,https://www.zillow.com/homedetails/9123-W-Cambridge-Ave-Phoenix-AZ-85037/60974866_zpid/,33.4764,-112.257,6620,2018-02-15
501810,23886672,"3308 N 46th Dr, Phoenix, AZ 85031 ",85031,0.5190394073724747,0.9147410988807678,0.47478667786232,249000,https://www.zillow.com/homedetails/3308-N-46th-Dr-Phoenix-AZ-85031/7509418_zpid/,33.4859,-112.15899999999999,6619,2018-02-14
427579,23877851,"6040 W Earll Dr, Phoenix, AZ 85033 ",85033,0.5190394073724747,0.9145626425743103,0.4746940520067744,175000,https://www.zillow.com/homedetails/6040-W-Earll-Dr-Phoenix-AZ-85033/7497995_zpid/,33.484,-112.19,6616,2018-02-11
355451,23891815,"414 E Danbury Rd, Phoenix, AZ 85022 ",85022,0.5190394073724747,0.914557933807373,0.4746916079711738,179900,https://www.zillow.com/homedetails/414-E-Danbury-Rd-Phoenix-AZ-85022/7959485_zpid/,33.6425,-112.068,6627,2018-02-22
8991642,23869584,"9253 W Gold Dust Ave, Peoria, AZ 85345 ",85345,0.5190394073724747,0.914520263671875,0.4746720556863693,215000,https://www.zillow.com/homedetails/9253-W-Gold-Dust-Ave-Peoria-AZ-85345/7697589_zpid/,33.5765,-112.26,6589,2018-01-15
235315,23915223,"16027 N 19TH Dr, Phoenix, AZ 85023 ",85023,0.5190394073724747,0.9143397808074951,0.47457837796740066,249900,https://www.zillow.com/homedetails/16027-N-19TH-Dr-Phoenix-AZ-85023/81980470_zpid/,33.6314,-112.1,6631,2018-02-26
398139,23888411,"4133 W Bloomfield Rd, Phoenix, AZ 85029 ",85029,0.5190394073724747,0.9143349826335907,0.47457588752606084,230000,https://www.zillow.com/homedetails/4133-W-Bloomfield-Rd-Phoenix-AZ-85029/7742616_zpid/,33.5986,-112.148,6622,2018-02-17
356334,23881413,"819 E Audrey Ln, Phoenix, AZ 85022 ",85022,0.5190394073724747,0.914152979850769,0.47448142090952494,249900,https://www.zillow.com/homedetails/819-E-Audrey-Ln-Phoenix-AZ-85022/8002728_zpid/,33.6543,-112.06299999999999,6614,2018-02-09
43394,23929854,"7910 W Winslow Ave, Phoenix, AZ 85043 ",85043,0.5008041113615036,0.9473561942577362,0.47443987700806156,239950,https://www.zillow.com/homedetails/7910-W-Winslow-Ave-Phoenix-AZ-85043/67764464_zpid/,33.4221,-112.23,6644,2018-03-11
252070,23915737,"3728 W Carol Ann Way, Phoenix, AZ 85053 ",85053,0.5190394073724747,0.9140569567680359,0.47443158114556905,198900,https://www.zillow.com/homedetails/3728-W-Carol-Ann-Way-Phoenix-AZ-85053/7945963_zpid/,33.6283,-112.139,6627,2018-02-22
9029867,23905119,"9707 W Caron Dr, Peoria, AZ 85345 ",85345,0.5190394073724747,0.9139406979084015,0.4743712382159626,206900,https://www.zillow.com/homedetails/9707-W-Caron-Dr-Peoria-AZ-85345/95113869_zpid/,33.5663,-112.26899999999999,6601,2018-01-27
9031613,23914878,"3312 N 61ST Ave, Phoenix, AZ 85033 ",85033,0.5190394073724747,0.9137558937072754,0.4742753175529302,178000,https://www.zillow.com/homedetails/3312-N-61ST-Ave-Phoenix-AZ-85033/7498313_zpid/,33.4852,-112.191,6628,2018-02-23
9005657,23871977,"10439 W Papago St, Tolleson, AZ 85353 ",85353,0.5190394073724747,0.9137153327465057,0.47425426481588984,220000,https://www.zillow.com/homedetails/10439-W-Papago-St-Tolleson-AZ-85353/125986296_zpid/,33.4338,-112.24600000000001,6603,2018-01-29
458026,23877814,"5408 W Mulberry Dr, Phoenix, AZ 85031 ",85031,0.5190394073724747,0.9136542677879333,0.4742225696959812,165000,https://www.zillow.com/homedetails/5408-W-Mulberry-Dr-Phoenix-AZ-85031/7497026_zpid/,33.4869,-112.175,6616,2018-02-11
9030435,23907757,"5907 W Whitton Ave, Phoenix, AZ 85033 ",85033,0.5190394073724747,0.9136017262935638,0.4741952985898812,180000,https://www.zillow.com/homedetails/5907-W-Whitton-Ave-Phoenix-AZ-85033/7489295_zpid/,33.4892,-112.18700000000001,6592,2018-01-18
836918,23890072,"5609 N 38TH Dr, Phoenix, AZ 85019 ",85019,0.5190394073724747,0.9135456085205078,0.4741661712542111,195900,https://www.zillow.com/homedetails/5609-N-38TH-Dr-Phoenix-AZ-85019/7719599_zpid/,33.5183,-112.14200000000001,6625,2018-02-20
9029848,23905048,"8468 W Audrey Ln, Peoria, AZ 85382 ",85382,0.5190394073724747,0.9133979380130768,0.4740895244415477,249000,https://www.zillow.com/homedetails/8468-W-Audrey-Ln-Peoria-AZ-85382/8128997_zpid/,33.6521,-112.242,6592,2018-01-18
449536,23875547,"8542 W Lewis Ave, Phoenix, AZ 85037 ",85037,0.5190394073724747,0.9133769571781158,0.4740786345614034,246000,https://www.zillow.com/homedetails/8542-W-Lewis-Ave-Phoenix-AZ-85037/7487365_zpid/,33.4742,-112.244,6617,2018-02-12
833199,23888418,"5269 N 42ND Ln, Phoenix, AZ 85019 ",85019,0.5190394073724747,0.9133721888065338,0.47407615958864335,209900,https://www.zillow.com/homedetails/5269-N-42ND-Ln-Phoenix-AZ-85019/55260747_zpid/,33.5158,-112.15,6622,2018-02-17
9025669,23888926,"3607 W Mclellan Blvd, Phoenix, AZ 85019 ",85019,0.5190394073724747,0.9132436811923981,0.4740094590727595,174000,https://www.zillow.com/homedetails/3607-W-Mclellan-Blvd-Phoenix-AZ-85019/7761699_zpid/,33.5325,-112.137,6617,2018-02-12
9029087,23901717,"6915 W Jenan Dr, Peoria, AZ 85345 ",85345,0.5190394073724747,0.9131721556186676,0.47397233448135845,203000,https://www.zillow.com/homedetails/6915-W-Jenan-Dr-Peoria-AZ-85345/7699796_zpid/,33.5918,-112.208,6620,2018-02-15
349587,23892378,"18405 N 16TH Way, Phoenix, AZ 85022 ",85022,0.5190394073724747,0.9131702780723572,0.47397135996083417,224900,https://www.zillow.com/homedetails/18405-N-16TH-Way-Phoenix-AZ-85022/8001243_zpid/,33.6533,-112.045,6630,2018-02-25
7442560,23888689,"7114 W Cochise Dr, Peoria, AZ 85345 ",85345,0.5190394073724747,0.9131621718406677,0.47396715250714205,185000,https://www.zillow.com/homedetails/7114-W-Cochise-Dr-Peoria-AZ-85345/7701382_zpid/,33.58,-112.212,6621,2018-02-16
9033248,23941288,"8937 W Hess St, Tolleson, AZ 85353 ",85353,0.5008041113615036,0.9463725090026855,0.4739472433880465,199000,https://www.zillow.com/homedetails/8937-W-Hess-St-Tolleson-AZ-85353/62726927_zpid/,33.428000000000004,-112.25399999999999,6653,2018-03-20
1091759,23886133,"701 W Dublin St, Chandler, AZ 85225 ",85225,0.5190394073724747,0.9131125211715698,0.47394138185327783,225000,https://www.zillow.com/homedetails/701-W-Dublin-St-Chandler-AZ-85225/8189377_zpid/,33.3186,-111.853,6588,2018-01-14
9030011,23905769,"9138 W Kimberly Way, Peoria, AZ 85382 ",85382,0.5190394073724747,0.9130255281925201,0.4738962290689863,239900,https://www.zillow.com/homedetails/9138-W-Kimberly-Way-Peoria-AZ-85382/7896528_zpid/,33.6559,-112.257,6600,2018-01-26
459358,23891941,"5643 W Earll Dr, Phoenix, AZ 85031 ",85031,0.5190394073724747,0.9129500091075897,0.4738570316878987,175900,https://www.zillow.com/homedetails/5643-W-Earll-Dr-Phoenix-AZ-85031/7497770_zpid/,33.4843,-112.182,6627,2018-02-22
445075,23888238,"4620 N 92ND Dr, Phoenix, AZ 85037 ",85037,0.5190394073724747,0.9127269089221954,0.473741233899887,241000,https://www.zillow.com/homedetails/4620-N-92ND-Dr-Phoenix-AZ-85037/7466545_zpid/,33.5049,-112.259,6622,2018-02-17
9029957,23905476,"6803 W Jenan Dr, Peoria, AZ 85345 ",85345,0.5190394073724747,0.9125747680664062,0.473662266800261,216000,https://www.zillow.com/homedetails/6803-W-Jenan-Dr-Peoria-AZ-85345/7699810_zpid/,33.5919,-112.205,6605,2018-01-31
9023243,23866706,"9140 W Gelding Dr, Peoria, AZ 85381 ",85381,0.5190394073724747,0.9124917387962341,0.4736191713370763,247000,https://www.zillow.com/homedetails/9140-W-Gelding-Dr-Peoria-AZ-85381/7908642_zpid/,33.6153,-112.255,6579,2018-01-05
703769,23889330,"736 S Sycamore, Mesa, AZ 85202 ",85202,0.5190394073724747,0.9124234914779663,0.4735837482894478,239900,https://www.zillow.com/homedetails/736-S-Sycamore-Mesa-AZ-85202/7604484_zpid/,33.4012,-111.87,6624,2018-02-19
650458,23872026,"2419 W Naranja Ave, Mesa, AZ 85202 ",85202,0.5190394073724747,0.9124108850955963,0.4735772050802134,218000,https://www.zillow.com/homedetails/2419-W-Naranja-Ave-Mesa-AZ-85202/8251330_zpid/,33.3643,-111.88600000000001,6603,2018-01-29
341987,23888290,"16633 N 19th Pl, Phoenix, AZ 85022 ",85022,0.5190394073724747,0.912406325340271,0.4735748383875116,244900,https://www.zillow.com/homedetails/16633-N-19th-Pl-Phoenix-AZ-85022/55267888_zpid/,33.6381,-112.04,6621,2018-02-16
415150,23919739,"10021 N 53RD Ave, Glendale, AZ 85302 ",85302,0.5190394073724747,0.9123916923999786,0.4735672433148541,238900,https://www.zillow.com/homedetails/10021-N-53RD-Ave-Glendale-AZ-85302/7735790_zpid/,33.5774,-112.17299999999999,6631,2018-02-26
835317,23884573,"3625 W Rose Ln, Phoenix, AZ 85019 ",85019,0.5190394073724747,0.9122308194637299,0.4734837439213613,182000,https://www.zillow.com/homedetails/3625-W-Rose-Ln-Phoenix-AZ-85019/7759060_zpid/,33.5274,-112.137,6611,2018-02-06
9026498,23870725,"3243 N 77th Dr, Phoenix, AZ 85033 ",85033,0.5190394073724747,0.9122141599655151,0.4734750969852808,172500,https://www.zillow.com/homedetails/3243-N-77th-Dr-Phoenix-AZ-85033/7469201_zpid/,33.4857,-112.225,6599,2018-01-25
233618,23887001,"18243 N 31st Ave, Phoenix, AZ 85053 ",85053,0.5190394073724747,0.9120253324508667,0.47337708806398204,201592,https://www.zillow.com/homedetails/18243-N-31st-Ave-Phoenix-AZ-85053/7940528_zpid/,33.6526,-112.126,6621,2018-02-16
9030455,23907854,"8242 W Whitton Ave, Phoenix, AZ 85033 ",85033,0.5190394073724747,0.9119471311569214,0.4733364985107169,199900,https://www.zillow.com/homedetails/8242-W-Whitton-Ave-Phoenix-AZ-85033/7478970_zpid/,33.4879,-112.23700000000001,6605,2018-01-31
460574,23887118,"5830 W Mackenzie Dr, Phoenix, AZ 85031 ",85031,0.5190394073724747,0.9118439555168152,0.4732829462876209,200000,https://www.zillow.com/homedetails/5830-W-Mackenzie-Dr-Phoenix-AZ-85031/7713025_zpid/,33.4974,-112.186,6621,2018-02-16
1128437,23920629,"3298 N Ash Dr, Chandler, AZ 85224 ",85224,0.5008041113615036,0.9450340270996094,0.473276926148003,240000,https://www.zillow.com/homedetails/3298-N-Ash-Dr-Chandler-AZ-85224/8191971_zpid/,33.3549,-111.87100000000001,6636,2018-03-03
460884,23891543,"2908 N 53RD Pkwy, Phoenix, AZ 85031 ",85031,0.5190394073724747,0.9116523861885071,0.4731835142569851,171900,https://www.zillow.com/homedetails/2908-N-53rd-Pkwy-Phoenix-AZ-85031/7497221_zpid/,33.4825,-112.177,6621,2018-02-16
9030029,23905726,"8997 W Alda Way, Peoria, AZ 85382 ",85382,0.5190394073724747,0.9116319715976715,0.4731729182798561,249900,https://www.zillow.com/homedetails/8997-W-Alda-Way-Peoria-AZ-85382/61629760_zpid/,33.6511,-112.25299999999999,6603,2018-01-29
9026589,23892776,"9818 W Pinecrest Dr, Sun City, AZ 85351 ",85351,0.5190394073724747,0.9115959107875824,0.47315420129835806,184900,https://www.zillow.com/homedetails/9818-W-Pinecrest-Dr-Sun-City-AZ-85351/7923143_zpid/,33.6328,-112.271,6596,2018-01-22
362997,23929962,"9017 W Hilton Ave, Tolleson, AZ 85353 ",85353,0.5008041113615036,0.9447784125804901,0.47314891334590437,210000,https://www.zillow.com/homedetails/9017-W-Hilton-Ave-Tolleson-AZ-85353/62726889_zpid/,33.4271,-112.25399999999999,6638,2018-03-05
261169,23890427,"4527 W Oraibi Dr, Glendale, AZ 85308 ",85308,0.5190394073724747,0.9115451276302338,0.4731278428384633,249000,https://www.zillow.com/homedetails/4527-W-Oraibi-Dr-Glendale-AZ-85308/7937923_zpid/,33.6626,-112.15799999999999,6626,2018-02-21
1348426,23873785,"5406 W Sands Rd, Glendale, AZ 85301 ",85301,0.5190394073724747,0.9115422368049622,0.4731263423862275,205000,https://www.zillow.com/homedetails/5406-W-Sands-Rd-Glendale-AZ-85301/7726252_zpid/,33.5525,-112.17399999999999,6607,2018-02-02
1878732,23888713,"8133 W Larkspur Dr, Peoria, AZ 85381 ",85381,0.5190394073724747,0.911534458398819,0.47312230508691266,232500,https://www.zillow.com/homedetails/8133-W-Larkspur-Dr-Peoria-AZ-85381/8100861_zpid/,33.5992,-112.235,6620,2018-02-15
9029588,23903860,"2206 W Dahlia Dr, Phoenix, AZ 85029 ",85029,0.5190394073724747,0.9115339815616608,0.47312205758963666,239900,https://www.zillow.com/homedetails/2206-W-Dahlia-Dr-Phoenix-AZ-85029/7738947_zpid/,33.6035,-112.10600000000001,6622,2018-02-17
9029753,23907035,"2208 W Dahlia Dr, Phoenix, AZ 85029 ",85029,0.5190394073724747,0.9115339815616608,0.47312205758963666,239900,https://www.zillow.com/homedetails/2208-W-Dahlia-Dr-Phoenix-AZ-85029/2090952469_zpid/,33.6035,-112.10600000000001,6626,2018-02-21
249670,23881367,"418 E Taro Ln, Phoenix, AZ 85024 ",85024,0.5190394073724747,0.9115298986434937,0.47311993839421085,245000,https://www.zillow.com/homedetails/418-E-Taro-Ln-Phoenix-AZ-85024/7972390_zpid/,33.6595,-112.069,6592,2018-01-18
451876,23881479,"8821 W Columbus Ave, Phoenix, AZ 85037 ",85037,0.5190394073724747,0.911512017250061,0.4731106572463606,174000,https://www.zillow.com/homedetails/8821-W-Columbus-Ave-Phoenix-AZ-85037/7470735_zpid/,33.4888,-112.249,6620,2018-02-15
9024146,23879848,"18231 N 35th Dr, Glendale, AZ 85308 ",85308,0.5190394073724747,0.9114724695682526,0.47309013044103176,244900,https://www.zillow.com/homedetails/18231-N-35th-Dr-Glendale-AZ-85308/7947905_zpid/,33.652,-112.135,6619,2018-02-14
829793,23888927,"3720 W Lawrence Rd, Phoenix, AZ 85019 ",85019,0.5190394073724747,0.9114679396152496,0.4730877792169097,235000,https://www.zillow.com/homedetails/3720-W-Lawrence-Rd-Phoenix-AZ-85019/7758462_zpid/,33.5358,-112.14,6621,2018-02-16
493303,23877816,"5924 W Roanoke Ave, Phoenix, AZ 85035 ",85035,0.5190394073724747,0.9114677906036377,0.47308770187401095,184900,https://www.zillow.com/homedetails/5924-W-Roanoke-Ave-Phoenix-AZ-85035/7491817_zpid/,33.4788,-112.18700000000001,6604,2018-01-30
9029860,23905097,"11808 N 78th Dr, Peoria, AZ 85345 ",85345,0.5190394073724747,0.9113966822624207,0.4730507938427264,229900,https://www.zillow.com/homedetails/11808-N-78th-Dr-Peoria-AZ-85345/7680322_zpid/,33.5926,-112.228,6621,2018-02-16
830118,23887515,"3742 W San Juan Ave, Phoenix, AZ 85019 ",85019,0.5190394073724747,0.9113161861896515,0.4730090132088205,178000,https://www.zillow.com/homedetails/3742-W-San-Juan-Ave-Phoenix-AZ-85019/7719490_zpid/,33.5191,-112.14,6621,2018-02-16
5231985,23914892,"4221 N 79TH Dr, Phoenix, AZ 85033 ",85033,0.5190394073724747,0.9112493395805359,0.4729743171844403,183000,https://www.zillow.com/homedetails/4221-N-79TH-Dr-Phoenix-AZ-85033/7481959_zpid/,33.4971,-112.229,6630,2018-02-25
9029979,23905545,"6851 W Jenan Dr, Peoria, AZ 85345 ",85345,0.5190394073724747,0.9111851155757904,0.4729409823950781,194900,https://www.zillow.com/homedetails/6851-W-Jenan-Dr-Peoria-AZ-85345/7699802_zpid/,33.5918,-112.20700000000001,6612,2018-02-07
450573,23877887,"8734 W Granada Rd, Phoenix, AZ 85037 ",85037,0.5190394073724747,0.9111568033695221,0.4729262872443152,195000,https://www.zillow.com/homedetails/8734-W-Granada-Rd-Phoenix-AZ-85037/7487516_zpid/,33.4682,-112.249,6597,2018-01-23
9030358,23907409,"6126 W Monterey Way, Phoenix, AZ 85033 ",85033,0.5190394073724747,0.9110928773880005,0.4728931071407505,175000,https://www.zillow.com/homedetails/6126-W-Monterey-Way-Phoenix-AZ-85033/7498339_zpid/,33.4851,-112.19200000000001,6606,2018-02-01
9026758,23893954,"8538 W Las Palmaritas Dr, Peoria, AZ 85345 ",85345,0.5190394073724747,0.9110767543315887,0.4728847386391055,198000,https://www.zillow.com/homedetails/8538-W-Las-Palmaritas-Dr-Peoria-AZ-85345/7683390_zpid/,33.5569,-112.243,6613,2018-02-08
8946286,23890062,"3545 W Griswold Rd, Phoenix, AZ 85051 ",85051,0.5190394073724747,0.9109308421611786,0.4728090044726474,203000,https://www.zillow.com/homedetails/3545-W-Griswold-Rd-Phoenix-AZ-85051/7753645_zpid/,33.5561,-112.13600000000001,6625,2018-02-20
443817,23887960,"4318 N 85TH Ave, Phoenix, AZ 85037 ",85037,0.5190394073724747,0.9109268486499786,0.47280693168296084,184900,https://www.zillow.com/homedetails/4318-N-85TH-Ave-Phoenix-AZ-85037/7466861_zpid/,33.4987,-112.243,6621,2018-02-16
9029929,23905358,"8408 W Surrey Ave, Peoria, AZ 85381 ",85381,0.5190394073724747,0.9109224677085876,0.4728046578017375,249900,https://www.zillow.com/homedetails/8408-W-Surrey-Ave-Peoria-AZ-85381/7914278_zpid/,33.6041,-112.24,6617,2018-02-12
497626,23889892,"6811 W Encanto Blvd, Phoenix, AZ 85035 ",85035,0.5190394073724747,0.9107458889484406,0.4727130064667162,189900,https://www.zillow.com/homedetails/6811-W-Encanto-Blvd-Phoenix-AZ-85035/7475710_zpid/,33.4732,-112.206,6625,2018-02-20
9023484,23885682,"9501 W Hidden Valley Cir N, Sun City, AZ 85351 ",85351,0.5190394073724747,0.9107250869274139,0.4727022093980504,186000,https://www.zillow.com/homedetails/9501-W-Hidden-Valley-Cir-N-Sun-City-AZ-85351/7904887_zpid/,33.6359,-112.264,6620,2018-02-15
418906,23882456,"5241 W Barbara Ave, Glendale, AZ 85302 ",85302,0.5190394073724747,0.9105959236621857,0.47263516857341203,241995,https://www.zillow.com/homedetails/5241-W-Barbara-Ave-Glendale-AZ-85302/7733970_zpid/,33.5639,-112.17299999999999,6620,2018-02-15
9027265,23895296,"8555 W Sonora St, Tolleson, AZ 85353 ",85353,0.5190394073724747,0.9105915427207947,0.4726328946921887,190500,https://www.zillow.com/homedetails/8555-W-Sonora-St-Tolleson-AZ-85353/58494114_zpid/,33.4325,-112.244,6608,2018-02-03
831339,23887481,"4008 W Sierra Vista Dr, Phoenix, AZ 85019 ",85019,0.5190394073724747,0.9104896187782288,0.47257999214944224,169900,https://www.zillow.com/homedetails/4008-W-Sierra-Vista-Dr-Phoenix-AZ-85019/7762318_zpid/,33.5322,-112.145,6621,2018-02-16
836554,23888931,"4243 W Marlette Ave, Phoenix, AZ 85019 ",85019,0.5190394073724747,0.9103211164474487,0.4724925327995333,164900,https://www.zillow.com/homedetails/4243-W-Marlette-Ave-Phoenix-AZ-85019/7762056_zpid/,33.5288,-112.15100000000001,6622,2018-02-17
836505,23888930,"4146 W Citrus Way, Phoenix, AZ 85019 ",85019,0.5190394073724747,0.9103138744831085,0.47248877393465394,175000,https://www.zillow.com/homedetails/4146-W-Citrus-Way-Phoenix-AZ-85019/7762092_zpid/,33.5299,-112.149,6623,2018-02-18
9026282,23865594,"9621 N 82nd Ln, Peoria, AZ 85345 ",85345,0.5190394073724747,0.910219669342041,0.4724398777540628,205000,https://www.zillow.com/homedetails/9621-N-82nd-Ln-Peoria-AZ-85345/67710601_zpid/,33.5723,-112.236,6585,2018-01-11
828943,23890684,"3619 W Krall St, Phoenix, AZ 85019 ",85019,0.5190394073724747,0.9101237058639526,0.4723900689272664,179990,https://www.zillow.com/homedetails/3619-W-Krall-St-Phoenix-AZ-85019/7761766_zpid/,33.5341,-112.137,6626,2018-02-21
460594,23877800,"5832 W Campbell Ave, Phoenix, AZ 85031 ",85031,0.5190394073724747,0.9099409580230713,0.4722952155962368,198900,https://www.zillow.com/homedetails/5832-W-Campbell-Ave-Phoenix-AZ-85031/7713282_zpid/,33.5025,-112.185,6619,2018-02-14
830424,23884627,"3812 W Lamar Rd, Phoenix, AZ 85019 ",85019,0.5190394073724747,0.90969517827034,0.47216764621903495,204000,https://www.zillow.com/homedetails/3812-W-Lamar-Rd-Phoenix-AZ-85019/7758401_zpid/,33.5365,-112.141,6615,2018-02-10
391862,23884713,"4128 W Solar Dr, Phoenix, AZ 85051 ",85051,0.5190394073724747,0.9096859097480774,0.47216283549073257,195000,https://www.zillow.com/homedetails/4128-W-Solar-Dr-Phoenix-AZ-85051/7756636_zpid/,33.54,-112.148,6612,2018-02-07
9029911,23905288,"7550 W Ironwood Dr, Peoria, AZ 85345 ",85345,0.5190394073724747,0.9094100594520569,0.47201965831656256,217500,https://www.zillow.com/homedetails/7550-W-Ironwood-Dr-Peoria-AZ-85345/7682225_zpid/,33.5754,-112.22200000000001,6621,2018-02-16
415173,23882334,"10024 N 65th Ln, Glendale, AZ 85302 ",85302,0.5190394073724747,0.9093433022499084,0.4719850086979216,175000,https://www.zillow.com/homedetails/10024-N-65th-Ln-Glendale-AZ-85302/92346658_zpid/,33.577,-112.2,6603,2018-01-29
9027954,23897411,"2622 E Corrine Dr, Phoenix, AZ 85032 ",85032,0.5190394073724747,0.9093023836612701,0.47196377033792425,249000,https://www.zillow.com/homedetails/2622-E-Corrine-Dr-Phoenix-AZ-85032/7820387_zpid/,33.6006,-112.025,6628,2018-02-23
1405541,23883136,"6702 N 82ND Dr, Glendale, AZ 85303 ",85303,0.5190394073724747,0.909292459487915,0.47195861930086735,229900,https://www.zillow.com/homedetails/6702-N-82ND-Dr-Glendale-AZ-85303/7462533_zpid/,33.5329,-112.23700000000001,6585,2018-01-11
838479,23892080,"4127 W Cavalier Dr, Phoenix, AZ 85019 ",85019,0.5190394073724747,0.9092851281166077,0.47195481403024875,179900,https://www.zillow.com/homedetails/4127-W-Cavalier-Dr-Phoenix-AZ-85019/7760505_zpid/,33.525999999999996,-112.148,6627,2018-02-22
244592,23872363,"1941 W Faria Ln, Phoenix, AZ 85023 ",85023,0.5190394073724747,0.9092758595943451,0.47195000330194636,194000,https://www.zillow.com/homedetails/1941-W-Faria-Ln-Phoenix-AZ-85023/81954546_zpid/,33.6312,-112.101,6605,2018-01-31
832520,23884707,"4220 W Cavalier Dr, Phoenix, AZ 85019 ",85019,0.5190394073724747,0.9092450737953186,0.47193402425906417,172000,https://www.zillow.com/homedetails/4220-W-Cavalier-Dr-Phoenix-AZ-85019/7760517_zpid/,33.5263,-112.15,6603,2018-01-29
833768,23884876,"6226 N 35th Dr, Phoenix, AZ 85019 ",85019,0.5190394073724747,0.9091635942459106,0.4718917331620265,139650,https://www.zillow.com/homedetails/6226-N-35th-Dr-Phoenix-AZ-85019/7761396_zpid/,33.5286,-112.135,6613,2018-02-08
423604,23883734,"8812 N 57TH Dr, Glendale, AZ 85302 ",85302,0.5190394073724747,0.9091452658176422,0.47188221998547997,239000,https://www.zillow.com/homedetails/8812-N-57TH-Dr-Glendale-AZ-85302/7733242_zpid/,33.5658,-112.18299999999999,6603,2018-01-29
1094985,23886129,"825 W Temple St, Chandler, AZ 85225 ",85225,0.5190394073724747,0.90906623005867,0.4718411973119818,230000,https://www.zillow.com/homedetails/825-W-Temple-St-Chandler-AZ-85225/8183622_zpid/,33.3326,-111.85700000000001,6591,2018-01-17
447727,23877856,"8325 W Mackenzie Dr, Phoenix, AZ 85037 ",85037,0.5190394073724747,0.9090272784233093,0.471820979878248,186500,https://www.zillow.com/homedetails/8325-W-Mackenzie-Dr-Phoenix-AZ-85037/7466695_zpid/,33.4965,-112.23899999999999,6601,2018-01-27
1414405,23883372,"7358 W Peppertree Ln, Glendale, AZ 85303 ",85303,0.5190394073724747,0.9089744687080383,0.47179356955493024,242000,https://www.zillow.com/homedetails/7358-W-Peppertree-Ln-Glendale-AZ-85303/50188040_zpid/,33.5376,-112.21700000000001,6600,2018-01-26
9029804,23904860,"6849 W Yucca St, Peoria, AZ 85345 ",85345,0.5190394073724747,0.9089692234992981,0.47179084708489416,225000,https://www.zillow.com/homedetails/6849-W-Yucca-St-Peoria-AZ-85345/7699653_zpid/,33.5881,-112.20700000000001,6620,2018-02-15
1415136,23887527,"7425 W Ocotillo Rd, Glendale, AZ 85303 ",85303,0.5190394073724747,0.9087173938751221,0.471660137586003,188900,https://www.zillow.com/homedetails/7425-W-Ocotillo-Rd-Glendale-AZ-85303/7706749_zpid/,33.5341,-112.219,6621,2018-02-16
423259,23883620,"8604 N 54TH Dr, Glendale, AZ 85302 ",85302,0.5190394073724747,0.9086920619010925,0.47164698929321514,239900,https://www.zillow.com/homedetails/8604-N-54TH-Dr-Glendale-AZ-85302/7733811_zpid/,33.5626,-112.177,6620,2018-02-15
9030023,23905783,"8112 W Laurel Ln, Peoria, AZ 85345 ",85345,0.5190394073724747,0.9086867272853851,0.4716442204174398,243000,https://www.zillow.com/homedetails/8112-W-Laurel-Ln-Peoria-AZ-85345/7680881_zpid/,33.5932,-112.234,6580,2018-01-06
352694,23941236,"7205 W Hess Ave, Phoenix, AZ 85043 ",85043,0.5008041113615036,0.94175985455513,0.47163720707642076,199900,https://www.zillow.com/homedetails/7205-W-Hess-Ave-Phoenix-AZ-85043/52424247_zpid/,33.4296,-112.215,6661,2018-03-28
1466859,23888642,"18393 N 88TH Dr, Peoria, AZ 85382 ",85382,0.5190394073724747,0.9086044132709503,0.4716014962001691,239900,https://www.zillow.com/homedetails/18393-N-88TH-Dr-Peoria-AZ-85382/7898763_zpid/,33.6514,-112.249,6619,2018-02-14
490685,23873517,"5511 W Windsor Ave, Phoenix, AZ 85035 ",85035,0.5190394073724747,0.9085519909858704,0.4715742869683881,169000,https://www.zillow.com/homedetails/5511-W-Windsor-Ave-Phoenix-AZ-85035/7491875_zpid/,33.4779,-112.178,6611,2018-02-06
441376,23881465,"3101 N 89th Ln, Phoenix, AZ 85037 ",85037,0.5190394073724747,0.9085441827774048,0.4715702342004935,189900,https://www.zillow.com/homedetails/3101-N-89th-Ln-Phoenix-AZ-85037/7470193_zpid/,33.4843,-112.25200000000001,6619,2018-02-14
450213,23877909,"8705 W Palm Ln, Phoenix, AZ 85037 ",85037,0.5190394073724747,0.9084996283054352,0.4715471086737666,199900,https://www.zillow.com/homedetails/8705-W-Palm-Ln-Phoenix-AZ-85037/7487495_zpid/,33.4682,-112.24799999999999,6593,2018-01-19
479646,23870449,"2215 N 58TH Dr, Phoenix, AZ 85035 ",85035,0.5190394073724747,0.9083815813064575,0.4714858376293751,189000,https://www.zillow.com/homedetails/2215-N-58th-Dr-Phoenix-AZ-85035/7492426_zpid/,33.4717,-112.185,6598,2018-01-24
9029976,23905541,"8769 W Grovers Ave, Peoria, AZ 85382 ",85382,0.5190394073724747,0.9082449674606323,0.47141492965979914,189900,https://www.zillow.com/homedetails/8769-W-Grovers-Ave-Peoria-AZ-85382/7898340_zpid/,33.6451,-112.24799999999999,6607,2018-02-02
423926,23883680,"8921 N 65th Dr, Glendale, AZ 85302 ",85302,0.5190394073724747,0.9082261323928833,0.47140515351739687,228800,https://www.zillow.com/homedetails/8921-N-65th-Dr-Glendale-AZ-85302/50187782_zpid/,33.5665,-112.2,6614,2018-02-09
961362,23890199,"3986 W Calle Segunda, Chandler, AZ 85226 ",85226,0.5190394073724747,0.908207893371582,0.4713956867465896,215000,https://www.zillow.com/homedetails/3986-W-Calle-Segunda-Chandler-AZ-85226/8156357_zpid/,33.304,-111.911,6625,2018-02-20
441758,23877763,"3636 N 86th Ln, Phoenix, AZ 85037 ",85037,0.5190394073724747,0.9082066416740417,0.4713950370662401,189800,https://www.zillow.com/homedetails/3636-N-86th-Ln-Phoenix-AZ-85037/7469813_zpid/,33.4903,-112.24600000000001,6618,2018-02-13
9029948,23905431,"8835 W Rimrock Dr, Peoria, AZ 85382 ",85382,0.5190394073724747,0.908136248588562,0.47135850028086956,232500,https://www.zillow.com/homedetails/8835-W-Rimrock-Dr-Peoria-AZ-85382/7892874_zpid/,33.6632,-112.25,6593,2018-01-19
9029913,23905293,"19019 N 83rd Ln, Peoria, AZ 85382 ",85382,0.5190394073724747,0.9081076383590698,0.47134365044430915,249900,https://www.zillow.com/homedetails/19019-N-83rd-Ln-Peoria-AZ-85382/8101939_zpid/,33.6584,-112.23899999999999,6605,2018-01-31
42458,23891642,"6830 W Garfield St, Phoenix, AZ 85043 ",85043,0.5190394073724747,0.9080499708652496,0.47131371874249206,199900,https://www.zillow.com/homedetails/6830-W-Garfield-St-Phoenix-AZ-85043/7476107_zpid/,33.4575,-112.20700000000001,6626,2018-02-21
9030025,23905718,"7026 W Brown St, Peoria, AZ 85345 ",85345,0.5190394073724747,0.9079720973968506,0.4712732993436042,224900,https://www.zillow.com/homedetails/7026-W-Brown-St-Peoria-AZ-85345/7701724_zpid/,33.5772,-112.21,6606,2018-02-01
9029584,23903830,"6226 N 35TH Ave, Phoenix, AZ 85017 ",85017,0.5190394073724747,0.9079700708389282,0.47127224748018115,139650,https://www.zillow.com/homedetails/6226-N-35TH-Ave-Phoenix-AZ-85017/7761396_zpid/,33.5286,-112.135,6613,2018-02-08
9029902,23905265,"11226 N 67th Dr, Peoria, AZ 85345 ",85345,0.5190394073724747,0.9079398512840271,0.4712565623403142,214900,https://www.zillow.com/homedetails/11226-N-67th-Dr-Peoria-AZ-85345/7699634_zpid/,33.5882,-112.20299999999999,6618,2018-02-13
8975236,23887133,"3643 N 73rd Ave, Phoenix, AZ 85033 ",85033,0.5190394073724747,0.9078794419765472,0.4712252075291601,184000,https://www.zillow.com/homedetails/3643-N-73rd-Ave-Phoenix-AZ-85033/7468824_zpid/,33.4911,-112.21600000000001,6621,2018-02-16
402261,23882349,"14814 N 62nd Ave, Glendale, AZ 85306 ",85306,0.5190394073724747,0.9077973663806915,0.4711826070605274,190000,https://www.zillow.com/homedetails/14814-N-62nd-Ave-Glendale-AZ-85306/8098781_zpid/,33.6185,-112.191,6617,2018-02-12
1410681,23883266,"7115 N 77TH Ave, Glendale, AZ 85303 ",85303,0.5190394073724747,0.9077514410018921,0.471158769979132,165000,https://www.zillow.com/homedetails/7115-N-77TH-Ave-Glendale-AZ-85303/7684823_zpid/,33.54,-112.22399999999999,6586,2018-01-12
386382,23887498,"3636 W Frier Dr, Phoenix, AZ 85051 ",85051,0.5190394073724747,0.9077499210834503,0.4711579810815647,225000,https://www.zillow.com/homedetails/3636-W-Frier-Dr-Phoenix-AZ-85051/7755190_zpid/,33.5497,-112.13799999999999,6621,2018-02-16
359527,23941084,"2430 S 83RD Dr, Tolleson, AZ 85353 ",85353,0.5008041113615036,0.940735936164856,0.47112442453687287,195000,https://www.zillow.com/homedetails/2430-S-83RD-Dr-Tolleson-AZ-85353/59271226_zpid/,33.4258,-112.23899999999999,6663,2018-03-30
9029811,23904893,"12100 N 82nd Ave, Peoria, AZ 85345 ",85345,0.5190394073724747,0.9076535105705261,0.47110794022607205,244900,https://www.zillow.com/homedetails/12100-N-82nd-Ave-Peoria-AZ-85345/7680861_zpid/,33.5939,-112.235,6593,2018-01-19
1370392,23883185,"6654 N 84TH Ln, Glendale, AZ 85305 ",85305,0.5190394073724747,0.907640814781189,0.47110135061109837,220000,https://www.zillow.com/homedetails/6654-N-84TH-Ln-Glendale-AZ-85305/7461308_zpid/,33.5331,-112.24,6604,2018-01-30
9030927,23910921,"2344 W Echo Ln, Phoenix, AZ 85021 ",85021,0.5190394073724747,0.907475471496582,0.47101553093064297,205000,https://www.zillow.com/homedetails/2344-W-Echo-Ln-Phoenix-AZ-85021/7782743_zpid/,33.5598,-112.11,6608,2018-02-03
431177,23887130,"6717 W Earll Dr, Phoenix, AZ 85033 ",85033,0.5190394073724747,0.9074449241161346,0.4709996756363988,199900,https://www.zillow.com/homedetails/6717-W-Earll-Dr-Phoenix-AZ-85033/7468542_zpid/,33.4834,-112.204,6621,2018-02-16
830365,23884601,"3807 W Rose Ln, Phoenix, AZ 85019 ",85019,0.5190394073724747,0.9074073433876038,0.4709801697573335,189900,https://www.zillow.com/homedetails/3807-W-Rose-Ln-Phoenix-AZ-85019/7758888_zpid/,33.5274,-112.141,6605,2018-01-31
232284,23891805,"17842 N 34TH Dr, Phoenix, AZ 85053 ",85053,0.5190394073724747,0.9073891341686249,0.47097071845510596,145000,https://www.zillow.com/homedetails/17842-N-34TH-Dr-Phoenix-AZ-85053/7941332_zpid/,33.6488,-112.133,6627,2018-02-22
8967048,23877859,"8213 W Osborn Rd, Phoenix, AZ 85033 ",85033,0.5190394073724747,0.9071803390979767,0.47086234558537443,209900,https://www.zillow.com/homedetails/8213-W-Osborn-Rd-Phoenix-AZ-85033/7479277_zpid/,33.4871,-112.236,6606,2018-02-01
256906,23870517,"609 W Beverly Ln, Phoenix, AZ 85023 ",85023,0.5190394073724747,0.9070947766304016,0.47081793529291094,219900,https://www.zillow.com/homedetails/609-W-Beverly-Ln-Phoenix-AZ-85023/7965493_zpid/,33.6333,-112.08200000000001,6598,2018-01-24
9029771,23904721,"8834 W Palo Verde Ave, Peoria, AZ 85345 ",85345,0.5190394073724747,0.9070892035961151,0.4708150426684976,206000,https://www.zillow.com/homedetails/8834-W-Palo-Verde-Ave-Peoria-AZ-85345/7696466_zpid/,33.5722,-112.25,6625,2018-02-20
412006,23890703,"5332 W Aster Dr, Glendale, AZ 85304 ",85304,0.5190394073724747,0.9070597887039185,0.47079977518028393,192600,https://www.zillow.com/homedetails/5332-W-Aster-Dr-Glendale-AZ-85304/7911537_zpid/,33.6008,-112.17399999999999,6619,2018-02-14
492244,23876132,"5649 W Wilshire Dr, Phoenix, AZ 85035 ",85035,0.5190394073724747,0.9068280160427094,0.4706794760355648,155000,https://www.zillow.com/homedetails/5649-W-Wilshire-Dr-Phoenix-AZ-85035/7492095_zpid/,33.4751,-112.182,6618,2018-02-13
1414927,23883462,"7413 N 67TH Dr, Glendale, AZ 85303 ",85303,0.5190394073724747,0.9068178832530975,0.47067421671844967,235000,https://www.zillow.com/homedetails/7413-N-67TH-Dr-Glendale-AZ-85303/7705033_zpid/,33.5447,-112.20299999999999,6611,2018-02-06
1958850,23885690,"9924 W Camden Ave, Sun City, AZ 85351 ",85351,0.5190394073724747,0.906741738319397,0.4706346944971873,200000,https://www.zillow.com/homedetails/9924-W-Camden-Ave-Sun-City-AZ-85351/7688651_zpid/,33.5766,-112.274,6616,2018-02-11
523591,23877939,"9030 W Glenrosa Ave, Phoenix, AZ 85037 ",85037,0.5190394073724747,0.9067221879959106,0.470624547108871,175000,https://www.zillow.com/homedetails/9030-W-Glenrosa-Ave-Phoenix-AZ-85037/7467266_zpid/,33.4982,-112.25399999999999,6593,2018-01-19
413808,23882818,"6138 W Poinsettia Dr, Glendale, AZ 85304 ",85304,0.5190394073724747,0.906682550907135,0.47060397389780295,249000,https://www.zillow.com/homedetails/6138-W-Poinsettia-Dr-Glendale-AZ-85304/7698141_zpid/,33.5938,-112.19200000000001,6615,2018-02-10
1120141,23885857,"2213 W Los Arboles Pl, Chandler, AZ 85224 ",85224,0.5190394073724747,0.9065524637699127,0.4705364535471923,239990,https://www.zillow.com/homedetails/2213-W-Los-Arboles-Pl-Chandler-AZ-85224/8192352_zpid/,33.3355,-111.88,6613,2018-02-08
1356694,23883311,"7320 N 46th Cir, Glendale, AZ 85301 ",85301,0.5190394073724747,0.9065428972244263,0.4705314881330924,220000,https://www.zillow.com/homedetails/7320-N-46th-Cir-Glendale-AZ-85301/7725584_zpid/,33.5447,-112.15899999999999,6618,2018-02-13
1092216,23939633,"716 W Palomino Dr, Chandler, AZ 85225 ",85225,0.5008041113615036,0.939525693655014,0.47051833011219957,249999,https://www.zillow.com/homedetails/716-W-Palomino-Dr-Chandler-AZ-85225/8177692_zpid/,33.3408,-111.854,6657,2018-03-24
9029927,23905344,"11212 N 76th Dr, Peoria, AZ 85345 ",85345,0.5190394073724747,0.9065127074718475,0.47051581846180524,180000,https://www.zillow.com/homedetails/11212-N-76th-Dr-Peoria-AZ-85345/7681911_zpid/,33.5861,-112.22399999999999,6620,2018-02-15
400283,23870014,"10625 N 45TH Dr, Glendale, AZ 85304 ",85304,0.5190394073724747,0.9064938724040985,0.47050604231940296,234900,https://www.zillow.com/homedetails/10625-N-45th-Dr-Glendale-AZ-85304/7727738_zpid/,33.5835,-112.156,6591,2018-01-17
829151,23884603,"3631 W Krall St, Phoenix, AZ 85019 ",85019,0.5190394073724747,0.9064523875713348,0.47048451005639036,170000,https://www.zillow.com/homedetails/3631-W-Krall-St-Phoenix-AZ-85019/7761764_zpid/,33.5341,-112.13799999999999,6596,2018-01-22
9006368,23879941,"4701 N 79TH Dr, Phoenix, AZ 85033 ",85033,0.5190394073724747,0.9064423441886902,0.47047929714501446,187499,https://www.zillow.com/homedetails/4701-N-79TH-Dr-Phoenix-AZ-85033/82779611_zpid/,33.5056,-112.229,6614,2018-02-09
418904,23919782,"5240 W Las Palmaritas Dr, Glendale, AZ 85302 ",85302,0.5190394073724747,0.906438022851944,0.47047705420095065,245000,https://www.zillow.com/homedetails/5240-W-Las-Palmaritas-Dr-Glendale-AZ-85302/7732637_zpid/,33.5571,-112.17299999999999,6629,2018-02-24
972984,23921177,"5975 W Del Rio St, Chandler, AZ 85226 ",85226,0.5008041113615036,0.9394190609455109,0.47046492801287476,220000,https://www.zillow.com/homedetails/5975-W-Del-Rio-St-Chandler-AZ-85226/8262022_zpid/,33.3128,-111.945,6648,2018-03-15
460843,23890927,"2901 N 55TH Ave, Phoenix, AZ 85031 ",85031,0.5190394073724747,0.9062986969947815,0.4704047385906174,159000,https://www.zillow.com/homedetails/2901-N-55th-Ave-Phoenix-AZ-85031/7497233_zpid/,33.4808,-112.178,6621,2018-02-16
9022833,23873083,"8602 W Roma Ave, Phoenix, AZ 85037 ",85037,0.5190394073724747,0.9061985611915588,0.4703527641626559,229900,https://www.zillow.com/homedetails/8602-W-Roma-Ave-Phoenix-AZ-85037/7480533_zpid/,33.5006,-112.245,6606,2018-02-01
425872,23889873,"4041 N 80TH Dr, Phoenix, AZ 85033 ",85033,0.5190394073724747,0.9060645699501038,0.470283217428098,180000,https://www.zillow.com/homedetails/4041-N-80TH-Dr-Phoenix-AZ-85033/7478679_zpid/,33.4931,-112.23200000000001,6625,2018-02-20
440692,23880113,"2509 N 90th Ln, Phoenix, AZ 85037 ",85037,0.5190394073724747,0.9060451686382294,0.47027314738268045,205000,https://www.zillow.com/homedetails/2509-N-90th-Ln-Phoenix-AZ-85037/7473832_zpid/,33.4751,-112.25399999999999,6620,2018-02-15
9018003,23920413,"1842 W Alamo Dr, Chandler, AZ 85224 ",85224,0.5008041113615036,0.9389694929122925,0.4702397824935023,244000,https://www.zillow.com/homedetails/1842-W-Alamo-Dr-Chandler-AZ-85224/8199834_zpid/,33.3482,-111.875,6639,2018-03-06
1126522,23920569,"2802 N Pennington Dr, Chandler, AZ 85224 ",85224,0.5008041113615036,0.9389612078666687,0.4702356333085911,249000,https://www.zillow.com/homedetails/2802-N-Pennington-Dr-Chandler-AZ-85224/8176474_zpid/,33.3465,-111.87100000000001,6634,2018-03-01
521626,23877921,"8966 W Monterey Way, Phoenix, AZ 85037 ",85037,0.5190394073724747,0.9059643745422363,0.470231212062977,231900,https://www.zillow.com/homedetails/8966-W-Monterey-Way-Phoenix-AZ-85037/7470170_zpid/,33.485,-112.25399999999999,6607,2018-02-02
9030778,23911308,"4941 W Townley Ave, Glendale, AZ 85302 ",85302,0.5190394073724747,0.9059383571147919,0.4702177079928549,200000,https://www.zillow.com/homedetails/4941-W-Townley-Ave-Glendale-AZ-85302/7730613_zpid/,33.5647,-112.167,6613,2018-02-08
9030878,23910358,"1022 E Villa Theresa Dr, Phoenix, AZ 85022 ",85022,0.5190394073724747,0.9059127569198608,0.4702044204828493,249900,https://www.zillow.com/homedetails/1022-E-Villa-Theresa-Dr-Phoenix-AZ-85022/8002651_zpid/,33.6537,-112.059,6613,2018-02-08
500715,23888248,"7341 W Cypress St, Phoenix, AZ 85035 ",85035,0.5190394073724747,0.9058991074562073,0.4701973358733236,172000,https://www.zillow.com/homedetails/7341-W-Cypress-St-Phoenix-AZ-85035/7474860_zpid/,33.472,-112.21799999999999,6622,2018-02-17
9029943,23905404,"6848 W Mission Ln, Peoria, AZ 85345 ",85345,0.5190394073724747,0.9058710038661957,0.4701827490026189,164900,https://www.zillow.com/homedetails/6848-W-Mission-Ln-Peoria-AZ-85345/7702926_zpid/,33.5695,-112.20700000000001,6611,2018-02-06
9029830,23904987,"9503 N 82nd Ln, Peoria, AZ 85345 ",85345,0.5190394073724747,0.9058688580989838,0.4701816352648769,189900,https://www.zillow.com/homedetails/9503-N-82nd-Ln-Peoria-AZ-85345/67765087_zpid/,33.571,-112.236,6621,2018-02-16
452004,23877894,"8827 W Columbus Ave, Phoenix, AZ 85037 ",85037,0.5190394073724747,0.9058490693569183,0.4701713641279226,215000,https://www.zillow.com/homedetails/8827-W-Columbus-Ave-Phoenix-AZ-85037/7470617_zpid/,33.4888,-112.25,6619,2018-02-14
9024363,23888231,"3147 N 77TH Ln, Phoenix, AZ 85033 ",85033,0.5190394073724747,0.9057884514331818,0.4701399010367102,197900,https://www.zillow.com/homedetails/3147-N-77TH-Ln-Phoenix-AZ-85033/7469330_zpid/,33.4853,-112.226,6621,2018-02-16
9027670,23896482,"6826 W Mariposa St, Phoenix, AZ 85033 ",85033,0.5190394073724747,0.9057582914829254,0.4701242468340028,194700,https://www.zillow.com/homedetails/6826-W-Mariposa-St-Phoenix-AZ-85033/7716575_zpid/,33.5084,-112.206,6624,2018-02-19
365838,23892504,"9923 W Whyman Ave, Tolleson, AZ 85353 ",85353,0.5008041113615036,0.9385734498500824,0.4700414424996713,224000,https://www.zillow.com/homedetails/9923-W-Whyman-Ave-Tolleson-AZ-85353/95149673_zpid/,33.4254,-112.274,6634,2018-03-01
497391,23877834,"6741 W Virginia Ave, Phoenix, AZ 85035 ",85035,0.5190394073724747,0.9055390954017639,0.47001047542993835,172800,https://www.zillow.com/homedetails/6741-W-Virginia-Ave-Phoenix-AZ-85035/7475866_zpid/,33.4765,-112.205,6599,2018-01-25
9030022,23905699,"9131 N 95th Dr, Peoria, AZ 85345 ",85345,0.5190394073724747,0.9054163098335266,0.46994674488136656,230000,https://www.zillow.com/homedetails/9131-N-95th-Dr-Peoria-AZ-85345/7697835_zpid/,33.568000000000005,-112.264,6600,2018-01-26
834579,23884564,"3531 W Lamar Rd, Phoenix, AZ 85019 ",85019,0.5190394073724747,0.9054030478000641,0.4699398613633776,199900,https://www.zillow.com/homedetails/3531-W-Lamar-Rd-Phoenix-AZ-85019/7761505_zpid/,33.5361,-112.13600000000001,6619,2018-02-14
233975,23881266,"18437 N 33rd Ave, Phoenix, AZ 85053 ",85053,0.5190394073724747,0.9053911864757538,0.46993370486863695,200000,https://www.zillow.com/homedetails/18437-N-33rd-Ave-Phoenix-AZ-85053/7941768_zpid/,33.6542,-112.13,6619,2018-02-14
9027861,23897094,"4110 W Morten Ave, Phoenix, AZ 85051 ",85051,0.5190394073724747,0.9053865373134613,0.4699312917701959,189900,https://www.zillow.com/homedetails/4110-W-Morten-Ave-Phoenix-AZ-85051/7758065_zpid/,33.5482,-112.147,6623,2018-02-18
9029961,23905490,"6926 W Mountain View Rd, Peoria, AZ 85345 ",85345,0.5190394073724747,0.9053603112697601,0.4699176794200155,218000,https://www.zillow.com/homedetails/6926-W-Mountain-View-Rd-Peoria-AZ-85345/7701856_zpid/,33.5743,-112.208,6620,2018-02-15
228186,23886962,"15806 N 37TH Dr, Phoenix, AZ 85053 ",85053,0.5190394073724747,0.9053518772125244,0.4699133018119461,234999,https://www.zillow.com/homedetails/15806-N-37TH-Dr-Phoenix-AZ-85053/7945936_zpid/,33.6292,-112.139,6617,2018-02-12
241469,23891806,"3136 W Woodridge Dr, Phoenix, AZ 85053 ",85053,0.5190394073724747,0.9053362607955933,0.4699051962761569,209900,https://www.zillow.com/homedetails/3136-W-Woodridge-Dr-Phoenix-AZ-85053/7941784_zpid/,33.6405,-112.126,6626,2018-02-21
9025488,23872831,"4102 N 64th Dr, Phoenix, AZ 85033 ",85033,0.5190394073724747,0.9052993059158325,0.46988601523726636,159900,https://www.zillow.com/homedetails/4102-N-64th-Dr-Phoenix-AZ-85033/7717346_zpid/,33.4952,-112.198,6606,2018-02-01
457639,23877822,"5138 W Avalon Dr, Phoenix, AZ 85031 ",85031,0.5190394073724747,0.9051992297172546,0.4698340717464644,187500,https://www.zillow.com/homedetails/5138-W-Avalon-Dr-Phoenix-AZ-85031/7497418_zpid/,33.4836,-112.171,6619,2018-02-14
1094634,23886104,"814 W Palomino Dr, Chandler, AZ 85225 ",85225,0.5190394073724747,0.905153751373291,0.46981046669376525,195000,https://www.zillow.com/homedetails/814-W-Palomino-Dr-Chandler-AZ-85225/8177734_zpid/,33.3408,-111.85700000000001,6616,2018-02-11
9025883,23888696,"7436 W Beryl Ave, Peoria, AZ 85345 ",85345,0.5190394073724747,0.9051468372344971,0.46980687798326315,189900,https://www.zillow.com/homedetails/7436-W-Beryl-Ave-Peoria-AZ-85345/7705847_zpid/,33.5785,-112.219,6620,2018-02-15
448895,23877911,"8453 W Piccadilly Rd, Phoenix, AZ 85037 ",85037,0.5190394073724747,0.9051453471183777,0.4698061045542756,187000,https://www.zillow.com/homedetails/8453-W-Piccadilly-Rd-Phoenix-AZ-85037/7469708_zpid/,33.4921,-112.242,6604,2018-01-30
441928,23877749,"4010 N 89th Ave, Phoenix, AZ 85037 ",85037,0.5190394073724747,0.9051354825496674,0.46980098445437823,200000,https://www.zillow.com/homedetails/4010-N-89th-Ave-Phoenix-AZ-85037/7470903_zpid/,33.4927,-112.251,6608,2018-02-03
9016481,23867228,"7401 W Jenan Dr, Peoria, AZ 85345 ",85345,0.5190394073724747,0.9050679504871368,0.46976593265266375,240000,https://www.zillow.com/homedetails/7401-W-Jenan-Dr-Peoria-AZ-85345/7700306_zpid/,33.5916,-112.21799999999999,6589,2018-01-15
8989493,23890965,"3646 N 79TH Dr, Phoenix, AZ 85033 ",85033,0.5190394073724747,0.905056893825531,0.46976019380957634,169900,https://www.zillow.com/homedetails/3646-N-79th-Dr-Phoenix-AZ-85033/7478627_zpid/,33.4902,-112.23100000000001,6625,2018-02-20
498405,23877842,"6921 W Coronado Rd, Phoenix, AZ 85035 ",85035,0.5190394073724747,0.9050038158893585,0.4697326442690408,170000,https://www.zillow.com/homedetails/6921-W-Coronado-Rd-Phoenix-AZ-85035/7481300_zpid/,33.4675,-112.208,6619,2018-02-14
222384,23888203,"1010 W Anderson Dr, Phoenix, AZ 85023 ",85023,0.5190394073724747,0.9049828350543976,0.4697217543888965,200000,https://www.zillow.com/homedetails/1010-W-Anderson-Dr-Phoenix-AZ-85023/7963547_zpid/,33.6432,-112.087,6621,2018-02-16
421866,23919982,"6425 W Hatcher Rd, Glendale, AZ 85302 ",85302,0.5190394073724747,0.9049608409404755,0.4697103385770407,194900,https://www.zillow.com/homedetails/6425-W-Hatcher-Rd-Glendale-AZ-85302/7703488_zpid/,33.5711,-112.198,6629,2018-02-24
423622,23892126,"8816 N 44TH Ln, Glendale, AZ 85302 ",85302,0.5190394073724747,0.9049509763717651,0.4697052184771433,209000,https://www.zillow.com/homedetails/8816-N-44TH-Ln-Glendale-AZ-85302/7731485_zpid/,33.565,-112.155,6627,2018-02-22
1859,23868513,"9128 W Alvarado St, Phoenix, AZ 85037 ",85037,0.5190394073724747,0.9049440324306488,0.46970161429806145,210000,https://www.zillow.com/homedetails/9128-W-Alvarado-St-Phoenix-AZ-85037/60047210_zpid/,33.4712,-112.257,6592,2018-01-18
252997,23872566,"3801 W Tierra Buena Ln, Phoenix, AZ 85053 ",85053,0.5190394073724747,0.9049249887466431,0.4696917298756009,249900,https://www.zillow.com/homedetails/3801-W-Tierra-Buena-Ln-Phoenix-AZ-85053/7945818_zpid/,33.6286,-112.14,6604,2018-01-30
425445,23877724,"3310 N 80th Dr, Phoenix, AZ 85033 ",85033,0.5190394073724747,0.9049185812473297,0.4696884041309546,199600,https://www.zillow.com/homedetails/3310-N-80th-Dr-Phoenix-AZ-85033/7479422_zpid/,33.4857,-112.23200000000001,6598,2018-01-24
9029810,23904895,"7322 W Carol Ave, Peoria, AZ 85345 ",85345,0.5190394073724747,0.9048071503639221,0.4696305671112677,190000,https://www.zillow.com/homedetails/7322-W-Carol-Ave-Peoria-AZ-85345/7702124_zpid/,33.5721,-112.21600000000001,6596,2018-01-22
9033245,23929967,"8536 W Magnolia St, Tolleson, AZ 85353 ",85353,0.5008041113615036,0.9377314746379852,0.46961977785178854,230000,https://www.zillow.com/homedetails/8536-W-Magnolia-St-Tolleson-AZ-85353/59271181_zpid/,33.4238,-112.245,6643,2018-03-10
9029935,23905376,"9180 W Villa Rita Dr, Peoria, AZ 85382 ",85382,0.5190394073724747,0.9047828912734985,0.46961797568735086,249900,https://www.zillow.com/homedetails/9180-W-Villa-Rita-Dr-Peoria-AZ-85382/8104842_zpid/,33.6476,-112.257,6598,2018-01-24
9026500,23870186,"6608 W Hazelwood St, Phoenix, AZ 85033 ",85033,0.5190394073724747,0.9046778082847595,0.46956343347515084,217000,https://www.zillow.com/homedetails/6608-W-Hazelwood-St-Phoenix-AZ-85033/7712326_zpid/,33.5053,-112.20200000000001,6597,2018-01-23
419676,23882531,"5520 W Golden Ln, Glendale, AZ 85302 ",85302,0.5190394073724747,0.9045797884464264,0.46951255731635166,192500,https://www.zillow.com/homedetails/5520-W-Golden-Ln-Glendale-AZ-85302/7733492_zpid/,33.5652,-112.179,6599,2018-01-25
829953,23868785,"3730 W Stella Ln, Phoenix, AZ 85019 ",85019,0.5190394073724747,0.9045130014419556,0.46947789222913094,204900,https://www.zillow.com/homedetails/3730-W-Stella-Ln-Phoenix-AZ-85019/7761178_zpid/,33.5307,-112.14,6593,2018-01-19
418360,23882413,"5113 W Vogel Ave, Glendale, AZ 85302 ",85302,0.5190394073724747,0.9044438302516937,0.4694419896555302,189990,https://www.zillow.com/homedetails/5113-W-Vogel-Ave-Glendale-AZ-85302/7734511_zpid/,33.5721,-112.17200000000001,6607,2018-02-02
523165,23877895,"9022 W Whitton Ave, Phoenix, AZ 85037 ",85037,0.5190394073724747,0.9044353067874908,0.46943756564172157,229900,https://www.zillow.com/homedetails/9022-W-Whitton-Ave-Phoenix-AZ-85037/7470779_zpid/,33.4879,-112.25399999999999,6600,2018-01-26
9027479,23914308,"8015 W Yucca St, Peoria, AZ 85345 ",85345,0.5190394073724747,0.9043464362621307,0.4693914383369058,209000,https://www.zillow.com/homedetails/8015-W-Yucca-St-Peoria-AZ-85345/7681526_zpid/,33.5872,-112.23200000000001,6627,2018-02-22
465377,23887474,"2933 W Citrus Way, Phoenix, AZ 85017 ",85017,0.5190394073724747,0.904284805059433,0.4693594493139819,179900,https://www.zillow.com/homedetails/2933-W-Citrus-Way-Phoenix-AZ-85017/7761075_zpid/,33.5298,-112.12299999999999,6621,2018-02-16
1349271,23882555,"5556 W Gardenia Ave, Glendale, AZ 85301 ",85301,0.5190394073724747,0.9042399227619171,0.46933615363287773,173900,https://www.zillow.com/homedetails/5556-W-Gardenia-Ave-Glendale-AZ-85301/2136646466_zpid/,33.5451,-112.18,6601,2018-01-27
452001,23881474,"8826 W Wilshire Dr, Phoenix, AZ 85037 ",85037,0.5190394073724747,0.9042141735553741,0.46932278877997335,187000,https://www.zillow.com/homedetails/8826-W-Wilshire-Dr-Phoenix-AZ-85037/7473924_zpid/,33.475,-112.25,6620,2018-02-15
1884777,23888714,"8606 W Vogel Ave, Peoria, AZ 85345 ",85345,0.5190394073724747,0.9042129814624786,0.46932217003678334,225000,https://www.zillow.com/homedetails/8606-W-Vogel-Ave-Peoria-AZ-85345/7697101_zpid/,33.5717,-112.245,6614,2018-02-09
637717,23877260,"1942 W Portobello Ave, Mesa, AZ 85202 ",85202,0.5190394073724747,0.9041765630245209,0.4693032674323283,232500,https://www.zillow.com/homedetails/1942-W-Portobello-Ave-Mesa-AZ-85202/8191364_zpid/,33.3598,-111.876,6617,2018-02-12
259043,23891802,"18615 N 48TH Ave, Glendale, AZ 85308 ",85308,0.5190394073724747,0.9039826095104218,0.4692025979153125,210000,https://www.zillow.com/homedetails/18615-N-48TH-Ave-Glendale-AZ-85308/7939425_zpid/,33.655,-112.165,6627,2018-02-22
9026823,23923215,"15021 N Bolivar Dr, Sun City, AZ 85351 ",85351,0.5190394073724747,0.9038232862949371,0.4691199028879667,239900,https://www.zillow.com/homedetails/15021-N-Bolivar-Dr-Sun-City-AZ-85351/7908295_zpid/,33.6188,-112.257,6628,2018-02-23
9020875,23879906,"319 W Utopia Rd, Phoenix, AZ 85027 ",85027,0.5190394073724747,0.9038019478321075,0.46910882738486537,229000,https://www.zillow.com/homedetails/319-W-Utopia-Rd-Phoenix-AZ-85027/7968688_zpid/,33.6617,-112.079,6619,2018-02-14
15301,23888262,"9312 W Madison St, Tolleson, AZ 85353 ",85353,0.5190394073724747,0.9037747979164124,0.4690947355087127,164900,https://www.zillow.com/homedetails/9312-W-Madison-St-Tolleson-AZ-85353/7460113_zpid/,33.4457,-112.26100000000001,6622,2018-02-17
8987978,23871276,"5736 W Glenrosa Ave, Phoenix, AZ 85031 ",85031,0.5190394073724747,0.9037257730960846,0.46906928969502326,179900,https://www.zillow.com/homedetails/5736-W-Glenrosa-Ave-Phoenix-AZ-85031/7712879_zpid/,33.4989,-112.184,6601,2018-01-27
9029042,23901527,"10834 N Balboa Dr, Sun City, AZ 85351 ",85351,0.5190394073724747,0.90355184674263,0.46897901506359974,174900,https://www.zillow.com/homedetails/10834-N-Balboa-Dr-Sun-City-AZ-85351/7689600_zpid/,33.584,-112.274,6621,2018-02-16
9024755,23914845,"3026 N 75TH Dr, Phoenix, AZ 85033 ",85033,0.5190394073724747,0.9035228490829468,0.46896396413550256,174000,https://www.zillow.com/homedetails/3026-N-75TH-Dr-Phoenix-AZ-85033/7469531_zpid/,33.4832,-112.221,6629,2018-02-24
1116516,23920475,"1806 N Arrowhead Dr, Chandler, AZ 85224 ",85224,0.5008041113615036,0.9364017844200134,0.4689538635237911,225000,https://www.zillow.com/homedetails/1806-N-Arrowhead-Dr-Chandler-AZ-85224/8193583_zpid/,33.3327,-111.866,6639,2018-03-06
504041,23879864,"2130 N 49TH Ave, Phoenix, AZ 85035 ",85035,0.5190394073724747,0.9034965336322784,0.46895030537958293,174900,https://www.zillow.com/homedetails/2130-N-49th-Ave-Phoenix-AZ-85035/7494257_zpid/,33.4723,-112.166,6615,2018-02-10
259107,23915301,"18839 N 45TH Ave, Glendale, AZ 85308 ",85308,0.5190394073724747,0.9034670889377594,0.4689350224227895,198000,https://www.zillow.com/homedetails/18839-N-45TH-Ave-Glendale-AZ-85308/7938698_zpid/,33.6576,-112.15700000000001,6628,2018-02-23
41532,23941213,"6314 W Hilton Ave, Phoenix, AZ 85043 ",85043,0.5008041113615036,0.9363540410995483,0.4689299534726121,200000,https://www.zillow.com/homedetails/6314-W-Hilton-Ave-Phoenix-AZ-85043/53206229_zpid/,33.428000000000004,-112.196,6661,2018-03-28
400374,23882336,"10637 N 65th Ave, Glendale, AZ 85304 ",85304,0.5190394073724747,0.9034489989280701,0.468925632994881,175000,https://www.zillow.com/homedetails/10637-N-65th-Ave-Glendale-AZ-85304/7698648_zpid/,33.5832,-112.199,6604,2018-01-30
222670,23871974,"1018 W Anderson Dr, Phoenix, AZ 85023 ",85023,0.5190394073724747,0.9034135043621063,0.4689072099163982,198000,https://www.zillow.com/homedetails/1018-W-Anderson-Dr-Phoenix-AZ-85023/7963545_zpid/,33.6432,-112.087,6603,2018-01-29
390332,23890671,"4015 W Harmont Dr, Phoenix, AZ 85051 ",85051,0.5190394073724747,0.9033773243427277,0.4688884310605812,188000,https://www.zillow.com/homedetails/4015-W-Harmont-Dr-Phoenix-AZ-85051/7753081_zpid/,33.5542,-112.146,6626,2018-02-21
433137,23872612,"7225 W Catalina Dr, Phoenix, AZ 85033 ",85033,0.5190394073724747,0.9033501148223877,0.46887430824726906,180000,https://www.zillow.com/homedetails/7225-W-Catalina-Dr-Phoenix-AZ-85033/7468501_zpid/,33.4819,-112.215,6603,2018-01-29
361198,23929894,"8529 W Hughes Dr, Tolleson, AZ 85353 ",85353,0.5008041113615036,0.9361596405506134,0.4688325968784546,239900,https://www.zillow.com/homedetails/8529-W-Hughes-Dr-Tolleson-AZ-85353/59271124_zpid/,33.4249,-112.244,6635,2018-03-02
833447,23871528,"5713 N 42nd Ave, Phoenix, AZ 85019 ",85019,0.5190394073724747,0.9031763970851898,0.4687841418959038,159900,https://www.zillow.com/homedetails/5713-N-42nd-Ave-Phoenix-AZ-85019/7718429_zpid/,33.5207,-112.148,6602,2018-01-28
9028602,23899875,"8136 W Monterey Way, Phoenix, AZ 85033 ",85033,0.5190394073724747,0.9031693041324615,0.4687804603739232,179000,https://www.zillow.com/homedetails/8136-W-Monterey-Way-Phoenix-AZ-85033/7479180_zpid/,33.4844,-112.236,6621,2018-02-16
351354,23929786,"6558 W Nez Perce St, Phoenix, AZ 85043 ",85043,0.5008041113615036,0.9360532164573669,0.46877929925500883,185000,https://www.zillow.com/homedetails/6558-W-Nez-Perce-St-Phoenix-AZ-85043/54938704_zpid/,33.431999999999995,-112.20100000000001,6643,2018-03-10
251306,23891024,"533 E Taro Ln, Phoenix, AZ 85024 ",85024,0.5190394073724747,0.9031557440757751,0.46877342217013673,236000,https://www.zillow.com/homedetails/533-E-Taro-Ln-Phoenix-AZ-85024/7972372_zpid/,33.6591,-112.066,6617,2018-02-12
460344,23873373,"5811 W Cheery Lynn Rd, Phoenix, AZ 85031 ",85031,0.5190394073724747,0.9031244814395905,0.46875719562997853,164900,https://www.zillow.com/homedetails/5811-W-Cheery-Lynn-Rd-Phoenix-AZ-85031/7497530_zpid/,33.4852,-112.184,6610,2018-02-05
445830,23877779,"4710 N 84th Ln, Phoenix, AZ 85037 ",85037,0.5190394073724747,0.9030503034591675,0.4687186943349797,175000,https://www.zillow.com/homedetails/4710-N-84th-Ln-Phoenix-AZ-85037/7481167_zpid/,33.5057,-112.242,6594,2018-01-20
526499,23877916,"9407 W Virginia Ave, Phoenix, AZ 85037 ",85037,0.5190394073724747,0.9030321538448334,0.4687092739699117,172000,https://www.zillow.com/homedetails/9407-W-Virginia-Ave-Phoenix-AZ-85037/62727181_zpid/,33.476,-112.26100000000001,6615,2018-02-10
448657,23877888,"8427 W Berkeley Rd, Phoenix, AZ 85037 ",85037,0.5190394073724747,0.9030112326145172,0.4686984150269269,159990,https://www.zillow.com/homedetails/8427-W-Berkeley-Rd-Phoenix-AZ-85037/7488038_zpid/,33.4676,-112.242,6592,2018-01-18
426202,23889384,"4309 N 82nd Dr, Phoenix, AZ 85033 ",85033,0.5190394073724747,0.9030038416385651,0.4686945788191488,189900,https://www.zillow.com/homedetails/4309-N-82nd-Dr-Phoenix-AZ-85033/2091011523_zpid/,33.4983,-112.23700000000001,6624,2018-02-19
9029938,23905383,"8872 W Cameron Dr, Peoria, AZ 85345 ",85345,0.5190394073724747,0.902944952249527,0.4686640129055619,249999,https://www.zillow.com/homedetails/8872-W-Cameron-Dr-Peoria-AZ-85345/95166649_zpid/,33.5898,-112.249,6613,2018-02-08
385444,23890035,"1615 W Surrey Ave, Phoenix, AZ 85029 ",85029,0.5190394073724747,0.9028340280056,0.4686064388517308,233500,https://www.zillow.com/homedetails/1615-W-Surrey-Ave-Phoenix-AZ-85029/7784378_zpid/,33.6049,-112.095,6625,2018-02-20
235711,23887043,"2881 W Muriel Dr, Phoenix, AZ 85053 ",85053,0.5190394073724747,0.9027956128120422,0.4685864998524325,222900,https://www.zillow.com/homedetails/2881-W-Muriel-Dr-Phoenix-AZ-85053/7942467_zpid/,33.646,-112.12100000000001,6613,2018-02-08
832456,23872579,"4208 W Tuckey Ln, Phoenix, AZ 85019 ",85019,0.5190394073724747,0.9026850163936615,0.46852909595297865,157900,https://www.zillow.com/homedetails/4208-W-Tuckey-Ln-Phoenix-AZ-85019/7762230_zpid/,33.5336,-112.15,6605,2018-01-31
419255,23890686,"5351 W Onyx Ave, Glendale, AZ 85302 ",85302,0.5190394073724747,0.9026669859886169,0.46851973746222964,235000,https://www.zillow.com/homedetails/5351-W-Onyx-Ave-Glendale-AZ-85302/7736018_zpid/,33.5768,-112.176,6626,2018-02-21
492845,23877828,"5812 W Encanto Blvd, Phoenix, AZ 85035 ",85035,0.5190394073724747,0.9026372134685516,0.46850428435105895,169500,https://www.zillow.com/homedetails/5812-W-Encanto-Blvd-Phoenix-AZ-85035/7492026_zpid/,33.4735,-112.185,6600,2018-01-26
417983,23889534,"4933 W Golden Ln, Glendale, AZ 85302 ",85302,0.5190394073724747,0.9026186168193817,0.4684946319572947,200000,https://www.zillow.com/homedetails/4933-W-Golden-Ln-Glendale-AZ-85302/7730593_zpid/,33.5645,-112.166,6623,2018-02-18
832651,23869467,"4232 W Citrus Way, Phoenix, AZ 85019 ",85019,0.5190394073724747,0.9026010632514954,0.4684855209638217,180000,https://www.zillow.com/homedetails/4232-W-Citrus-Way-Phoenix-AZ-85019/7762086_zpid/,33.5299,-112.15100000000001,6593,2018-01-19
435965,23872021,"2237 N 94th Ave, Phoenix, AZ 85037 ",85037,0.5190394073724747,0.9025961756706238,0.4684829841167426,224000,https://www.zillow.com/homedetails/2237-N-94th-Ave-Phoenix-AZ-85037/67773064_zpid/,33.4752,-112.26100000000001,6602,2018-01-28
427784,23877802,"6089 W Earll Dr, Phoenix, AZ 85033 ",85033,0.5190394073724747,0.9025864005088806,0.46847791042258446,167900,https://www.zillow.com/homedetails/6089-W-Earll-Dr-Phoenix-AZ-85033/7497997_zpid/,33.4827,-112.191,6597,2018-01-23
9001872,23877725,"3034 N 71st Dr, Phoenix, AZ 85033 ",85033,0.5190394073724747,0.9025689363479614,0.4684688458348507,219900,https://www.zillow.com/homedetails/3034-N-71st-Dr-Phoenix-AZ-85033/7468971_zpid/,33.4834,-112.213,6599,2018-01-25
7376039,23873159,"17022 N 39TH Ave, Glendale, AZ 85308 ",85308,0.5190394073724747,0.9025157988071442,0.4684412653571557,249500,https://www.zillow.com/homedetails/17022-N-39th-Ave-Glendale-AZ-85308/7946707_zpid/,33.6402,-112.14299999999999,6608,2018-02-03
383147,23881939,"13014 N 18th Dr, Phoenix, AZ 85029 ",85029,0.5190394073724747,0.9025036990642548,0.468434985113777,225000,https://www.zillow.com/homedetails/13014-N-18th-Dr-Phoenix-AZ-85029/7784318_zpid/,33.6055,-112.09899999999999,6614,2018-02-09
8107,23887040,"4213 W Renee Dr, Glendale, AZ 85308 ",85308,0.5190394073724747,0.9024648070335388,0.4684147986172027,224900,https://www.zillow.com/homedetails/4213-W-Renee-Dr-Glendale-AZ-85308/2100694760_zpid/,33.655,-112.149,6599,2018-01-25
9015636,23887124,"7118 W Sells Dr, Phoenix, AZ 85033 ",85033,0.5190394073724747,0.9024352431297302,0.46839945378609027,175000,https://www.zillow.com/homedetails/7118-W-Sells-Dr-Phoenix-AZ-85033/88889219_zpid/,33.5022,-112.213,6620,2018-02-15
402542,23889509,"11840 N 49TH Ave, Glendale, AZ 85304 ",85304,0.5190394073724747,0.9023935794830322,0.46837782871159916,227500,https://www.zillow.com/homedetails/11840-N-49TH-Ave-Glendale-AZ-85304/7727457_zpid/,33.5948,-112.164,6624,2018-02-19
9024754,23889061,"2007 N 70th Dr, Phoenix, AZ 85035 ",85035,0.5190394073724747,0.9023740887641907,0.4683677122604424,159000,https://www.zillow.com/homedetails/2007-N-70th-Dr-Phoenix-AZ-85035/92350230_zpid/,33.4701,-112.211,6622,2018-02-17
8958904,23877123,"18619 N 45th Dr, Glendale, AZ 85308 ",85308,0.5190394073724747,0.9021713435649872,0.4682624795124002,200000,https://www.zillow.com/homedetails/18619-N-45th-Dr-Glendale-AZ-85308/7938848_zpid/,33.6553,-112.15700000000001,6617,2018-02-12
9031745,23915938,"754 E Rosemonte Dr, Phoenix, AZ 85024 ",85024,0.5008041113615036,0.9349723756313324,0.46823800972560337,249999,https://www.zillow.com/homedetails/754-E-Rosemonte-Dr-Phoenix-AZ-85024/7997468_zpid/,33.6572,-112.064,6656,2018-03-23
1409866,23920062,"7017 N 77TH Dr, Glendale, AZ 85303 ",85303,0.5008041113615036,0.9349468946456909,0.46822524874323257,203900,https://www.zillow.com/homedetails/7017-N-77TH-Dr-Glendale-AZ-85303/55260208_zpid/,33.5385,-112.225,6652,2018-03-19
9022171,23888517,"16402 N Orchard Hills Dr, Sun City, AZ 85351 ",85351,0.5190394073724747,0.9020512104034424,0.4682001256674262,199900,https://www.zillow.com/homedetails/16402-N-Orchard-Hills-Dr-Sun-City-AZ-85351/7923378_zpid/,33.6328,-112.257,6622,2018-02-17
410461,23892061,"4815 W Aster Dr, Glendale, AZ 85304 ",85304,0.5190394073724747,0.9019865095615387,0.468166543380788,234000,https://www.zillow.com/homedetails/4815-W-Aster-Dr-Glendale-AZ-85304/7954584_zpid/,33.602,-112.163,6627,2018-02-22
461084,23877712,"2937 N 55th Ave, Phoenix, AZ 85031 ",85031,0.5190394073724747,0.9019519686698914,0.46814861529685725,165000,https://www.zillow.com/homedetails/2937-N-55th-Ave-Phoenix-AZ-85031/7497240_zpid/,33.4819,-112.178,6612,2018-02-07
1472355,23885687,"9834 W Kerry Ln, Peoria, AZ 85382 ",85382,0.5190394073724747,0.9018915295600891,0.4681172450171234,224900,https://www.zillow.com/homedetails/9834-W-Kerry-Ln-Peoria-AZ-85382/7893293_zpid/,33.6592,-112.272,6611,2018-02-06
9021737,23871550,"10136 N 73RD Ave, Peoria, AZ 85345 ",85345,0.5190394073724747,0.9017572402954102,0.4680475435967679,206000,https://www.zillow.com/homedetails/10136-N-73rd-Ave-Peoria-AZ-85345/92353333_zpid/,33.5777,-112.215,6599,2018-01-25
9029873,23905139,"8626 W Willow Ave, Peoria, AZ 85381 ",85381,0.5190394073724747,0.9017251431941986,0.4680308839363767,240000,https://www.zillow.com/homedetails/8626-W-Willow-Ave-Peoria-AZ-85381/7914417_zpid/,33.6053,-112.245,6613,2018-02-08
1354032,23882938,"6345 W Lawrence Rd, Glendale, AZ 85301 ",85301,0.5190394073724747,0.9015036225318909,0.46791590598309174,139500,https://www.zillow.com/homedetails/6345-W-Lawrence-Rd-Glendale-AZ-85301/7707552_zpid/,33.5357,-112.197,6603,2018-01-29
459129,23877807,"5622 W Monterosa St, Phoenix, AZ 85031 ",85031,0.5190394073724747,0.9015033543109894,0.467915766765874,154500,https://www.zillow.com/homedetails/5622-W-Monterosa-St-Phoenix-AZ-85031/7713165_zpid/,33.4969,-112.181,6607,2018-02-02
433721,23877881,"7522 W Mackenzie Dr, Phoenix, AZ 85033 ",85033,0.5190394073724747,0.9014244675636292,0.4678748214352746,208500,https://www.zillow.com/homedetails/7522-W-Mackenzie-Dr-Phoenix-AZ-85033/7482229_zpid/,33.4977,-112.22200000000001,6618,2018-02-13
246157,23890434,"3361 W Phelps Rd, Phoenix, AZ 85053 ",85053,0.5190394073724747,0.9014220237731934,0.46787355301173505,239900,https://www.zillow.com/homedetails/3361-W-Phelps-Rd-Phoenix-AZ-85053/7953482_zpid/,33.6379,-112.131,6626,2018-02-21
7531604,23869413,"2928 N 55TH Ave, Phoenix, AZ 85031 ",85031,0.5190394073724747,0.9014211297035217,0.46787308895434254,164900,https://www.zillow.com/homedetails/2928-N-55th-Ave-Phoenix-AZ-85031/7497676_zpid/,33.4817,-112.178,6593,2018-01-19
561282,23877184,"1050 W Farmdale Ave, Mesa, AZ 85210 ",85210,0.5190394073724747,0.9013969600200653,0.46786054393616494,195000,https://www.zillow.com/homedetails/1050-W-Farmdale-Ave-Mesa-AZ-85210/7598750_zpid/,33.3962,-111.854,6619,2018-02-14
1951814,23890221,"8166 N 90TH Ln, Peoria, AZ 85345 ",85345,0.5190394073724747,0.901367723941803,0.46784536925942977,185000,https://www.zillow.com/homedetails/8166-N-90TH-Ln-Peoria-AZ-85345/7682985_zpid/,33.5549,-112.255,6625,2018-02-20
9029324,23902714,"7007 W Windsor Ave, Phoenix, AZ 85035 ",85035,0.5190394073724747,0.9013045430183411,0.46781257587035885,159900,https://www.zillow.com/homedetails/7007-W-Windsor-Ave-Phoenix-AZ-85035/2091066637_zpid/,33.4782,-112.21,6618,2018-02-13
9030406,23907604,"3814 N 48th Ave, Phoenix, AZ 85031 ",85031,0.5190394073724747,0.9013011753559113,0.46781082792084705,164900,https://www.zillow.com/homedetails/3814-N-48th-Ave-Phoenix-AZ-85031/7508797_zpid/,33.492,-112.163,6606,2018-02-01
9026100,23873397,"8885 W Hollywood Ave, Peoria, AZ 85345 ",85345,0.5190394073724747,0.9012532532215118,0.46778595444460835,239000,https://www.zillow.com/homedetails/8885-W-Hollywood-Ave-Peoria-AZ-85345/95133596_zpid/,33.5895,-112.25,6610,2018-02-05
9030886,23910458,"18650 N 45th Dr, Glendale, AZ 85308 ",85308,0.5190394073724747,0.9012258648872375,0.4677717388198177,214900,https://www.zillow.com/homedetails/18650-N-45th-Dr-Glendale-AZ-85308/7938990_zpid/,33.6559,-112.15799999999999,6619,2018-02-14
416997,23870500,"4640 W Alice Ave, Glendale, AZ 85302 ",85302,0.5190394073724747,0.9012163281440735,0.46776678887429757,249000,https://www.zillow.com/homedetails/4640-W-Alice-Ave-Glendale-AZ-85302/7731430_zpid/,33.5658,-112.16,6598,2018-01-24
523366,23877920,"9026 W Windsor Ave, Phoenix, AZ 85037 ",85037,0.5190394073724747,0.9011498689651489,0.4677322939414541,191000,https://www.zillow.com/homedetails/9026-W-Windsor-Ave-Phoenix-AZ-85037/7474171_zpid/,33.4766,-112.255,6606,2018-02-01
455748,23891008,"4741 N 53RD Ave, Phoenix, AZ 85031 ",85031,0.5190394073724747,0.9011407494544983,0.46772756055605047,186500,https://www.zillow.com/homedetails/4741-N-53rd-Ave-Phoenix-AZ-85031/7712648_zpid/,33.5074,-112.17299999999999,6625,2018-02-20
1122798,23892196,"256 S Dobson Rd, Chandler, AZ 85224 ",85224,0.5190394073724747,0.9011175632476807,0.46771552600100463,199000,https://www.zillow.com/homedetails/256-S-Dobson-Rd-Chandler-AZ-85224/8207976_zpid/,33.2994,-111.87700000000001,6627,2018-02-22
9023070,23870107,"2024 E Villa Theresa Dr, Phoenix, AZ 85022 ",85022,0.5190394073724747,0.9010573029518127,0.46768424853274926,235000,https://www.zillow.com/homedetails/2024-E-Villa-Theresa-Dr-Phoenix-AZ-85022/8000570_zpid/,33.6544,-112.039,6597,2018-01-23
498525,23890285,"6931 W Lewis Ave, Phoenix, AZ 85035 ",85035,0.5190394073724747,0.901014655828476,0.4676621129951264,169888,https://www.zillow.com/homedetails/6931-W-Lewis-Ave-Phoenix-AZ-85035/7475491_zpid/,33.475,-112.209,6626,2018-02-21
385549,23892053,"3552 W Echo Ln, Phoenix, AZ 85051 ",85051,0.5190394073724747,0.9008809030056,0.46759269000920645,189500,https://www.zillow.com/homedetails/3552-W-Echo-Ln-Phoenix-AZ-85051/7754436_zpid/,33.5597,-112.137,6627,2018-02-22
503933,23877682,"2048 N 74th Ln, Phoenix, AZ 85035 ",85035,0.5190394073724747,0.9008280038833618,0.46756523328014943,184000,https://www.zillow.com/homedetails/2048-N-74th-Ln-Phoenix-AZ-85035/7474844_zpid/,33.4711,-112.22,6615,2018-02-10
234328,23881232,"15832 N 23RD Ln, Phoenix, AZ 85023 ",85023,0.5190394073724747,0.9008047878742218,0.46755318325652384,239000,https://www.zillow.com/homedetails/15832-N-23RD-Ln-Phoenix-AZ-85023/7961261_zpid/,33.6306,-112.111,6620,2018-02-15
450091,23876135,"8648 W Turney Ave, Phoenix, AZ 85037 ",85037,0.5190394073724747,0.9007972478866577,0.467549269705847,215900,https://www.zillow.com/homedetails/8648-W-Turney-Ave-Phoenix-AZ-85037/7480550_zpid/,33.4996,-112.24600000000001,6618,2018-02-13
232368,23889344,"17849 N 29th Dr, Phoenix, AZ 85053 ",85053,0.5190394073724747,0.9007653295993805,0.46753270285693427,215000,https://www.zillow.com/homedetails/17849-N-29th-Dr-Phoenix-AZ-85053/7940824_zpid/,33.6491,-112.12200000000001,6624,2018-02-19
351306,23877786,"4119 W Monte Vista Rd, Phoenix, AZ 85009 ",85009,0.5190394073724747,0.9007444083690643,0.46752184391394946,164000,https://www.zillow.com/homedetails/4119-W-Monte-Vista-Rd-Phoenix-AZ-85009/7511620_zpid/,33.4715,-112.148,6619,2018-02-14
343269,23941092,"2230 S 63RD Dr, Phoenix, AZ 85043 ",85043,0.5008041113615036,0.9334242045879364,0.4674626793019798,197000,https://www.zillow.com/homedetails/2230-S-63RD-Dr-Phoenix-AZ-85043/55257493_zpid/,33.4273,-112.196,6654,2018-03-21
392265,23884716,"4144 W Northview Ave, Phoenix, AZ 85051 ",85051,0.5190394073724747,0.9006141424179077,0.4674542307518603,200000,https://www.zillow.com/homedetails/4144-W-Northview-Ave-Phoenix-AZ-85051/7756481_zpid/,33.5444,-112.149,6586,2018-01-12
9028744,23900193,"5752 W Muriel Dr, Glendale, AZ 85308 ",85308,0.5190394073724747,0.9006076753139496,0.4674508740700545,235000,https://www.zillow.com/homedetails/5752-W-Muriel-Dr-Glendale-AZ-85308/8099880_zpid/,33.6455,-112.199,6621,2018-02-16
1409899,23920128,"7018 N 77TH Dr, Glendale, AZ 85303 ",85303,0.5008041113615036,0.9333893954753876,0.4674452467553025,204900,https://www.zillow.com/homedetails/7018-N-77TH-Dr-Glendale-AZ-85303/55260188_zpid/,33.5385,-112.226,6652,2018-03-19
