property_id,transaction_id,address,zipcode,ypred,list,url,lat,long,date_listed,transaction_date
930303,20703245,"24813 W Durango St, Buckeye, AZ 85326 ",85326,0.9291357398033142,52000,http://www.zillow.com/homedetails/24813-W-Durango-St-Buckeye-AZ-85326/8314520_zpid,33.4276,-112.585,2010-07-15,2010-07-15
659521,22684348,"2309 S Ananea, Mesa, AZ 85209 ",85209,0.8066650032997131,225000,https://www.zillow.com/homedetails/2309-S-Ananea-Mesa-AZ-85209/8273238_zpid/,33.3732,-111.67200000000001,2017-09-15,2017-09-15
1190875,22681257,"564 W Orchard Way, Gilbert, AZ 85233 ",85233,0.8036115169525146,222900,https://www.zillow.com/homedetails/564-W-Orchard-Way-Gilbert-AZ-85233/8174530_zpid/,33.3525,-111.802,2017-09-13,2017-09-13
1196579,22726918,"827 W Leah Ln, Gilbert, AZ 85233 ",85233,0.8030316829681396,249900,https://www.zillow.com/homedetails/827-W-Leah-Ln-Gilbert-AZ-85233/8173210_zpid/,33.3719,-111.809,2017-09-27,2017-09-27
565077,22610214,"10030 E Isleta Ave, Mesa, AZ 85209 ",85209,0.8005744218826294,210000,https://www.zillow.com/homedetails/10030-E-Isleta-Ave-Mesa-AZ-85209/71607613_zpid/,33.3855,-111.615,2017-09-01,2017-09-01
63209,22579733,"40701 N Courage Trl, Anthem, AZ 85086 ",85086,0.7952050566673279,239990,https://www.zillow.com/homedetails/40701-N-Courage-Trl-Anthem-AZ-85086/53611232_zpid/,33.854,-112.137,2017-08-25,2017-08-25
679392,22695008,"8503 E Keats Ave, Mesa, AZ 85209 ",85209,0.7937254309654236,245000,https://www.zillow.com/homedetails/8503-E-Keats-Ave-Mesa-AZ-85209/60050816_zpid/,33.3774,-111.65100000000001,2017-09-20,2017-09-20
1094347,22710242,"805 W Nopal Pl, Chandler, AZ 85225 ",85225,0.78505939245224,225000,https://www.zillow.com/homedetails/805-W-Nopal-Pl-Chandler-AZ-85225/8177761_zpid/,33.3419,-111.85600000000001,2017-09-21,2017-09-21
672525,22677334,"7552 E Medina Ave, Mesa, AZ 85209 ",85209,0.7838845252990723,248500,https://www.zillow.com/homedetails/7552-E-Medina-Ave-Mesa-AZ-85209/8273379_zpid/,33.3717,-111.67200000000001,2017-09-13,2017-09-13
89596,22735932,"20896 E Desert Hills Blvd, Queen Creek, AZ 85142 ",85142,0.779116153717041,229900,https://www.zillow.com/homedetails/20896-E-Desert-Hills-Blvd-Queen-Creek-AZ-85142/59260585_zpid/,33.2436,-111.631,2017-09-21,2017-09-21
196517,22710785,"3714 W Burgess Ln, Phoenix, AZ 85041 ",85041,0.7785504460334778,229000,https://www.zillow.com/homedetails/3714-W-Burgess-Ln-Phoenix-AZ-85041/67774286_zpid/,33.3891,-112.139,2017-09-21,2017-09-21
191577,22688185,"1926 W Burgess Ln, Phoenix, AZ 85041 ",85041,0.7767544388771057,236500,https://www.zillow.com/homedetails/1926-W-Burgess-Ln-Phoenix-AZ-85041/67781758_zpid/,33.3897,-112.101,2017-09-13,2017-09-13
658688,22705407,"2223 S Gordon, Mesa, AZ 85209 ",85209,0.7726391553878784,205000,https://www.zillow.com/homedetails/2223-S-Gordon-Mesa-AZ-85209/55279970_zpid/,33.3751,-111.645,2017-09-22,2017-09-22
771912,23796908,"954 N Sinova, Mesa, AZ 85205 ",85205,0.7718262076377869,245000,https://www.zillow.com/homedetails/954-N-Sinova-Mesa-AZ-85205/7673032_zpid/,33.4335,-111.71600000000001,2017-09-28,2017-09-28
195437,22710779,"3202 W Saint Catherine Ave, Phoenix, AZ 85041 ",85041,0.770928144454956,235000,https://www.zillow.com/homedetails/3202-W-Saint-Catherine-Ave-Phoenix-AZ-85041/67764960_zpid/,33.388000000000005,-112.12700000000001,2017-09-21,2017-09-21
928938,22675342,"2404 S 238th Ln, Buckeye, AZ 85326 ",85326,0.7703413367271423,219900,https://www.zillow.com/homedetails/2404-S-238th-Ln-Buckeye-AZ-85326/92354814_zpid/,33.4247,-112.564,2017-09-14,2017-09-14
90843,22656903,"21154 E Via Del Olivos, Queen Creek, AZ 85142 ",85142,0.7699194550514221,233500,https://www.zillow.com/homedetails/21154-E-Via-Del-Olivos-Queen-Creek-AZ-85142/95115047_zpid/,33.2333,-111.62700000000001,2017-09-11,2017-09-11
928773,22692800,"24013 W Twilight Trl, Buckeye, AZ 85326 ",85326,0.7688525915145874,210000,https://www.zillow.com/homedetails/24013-W-Twilight-Trl-Buckeye-AZ-85326/61631333_zpid/,33.4405,-112.568,2017-09-19,2017-09-19
91342,22656906,"21251 E Avenida Del Valle, Queen Creek, AZ 85142 ",85142,0.7687803506851196,235000,https://www.zillow.com/homedetails/21251-E-Avenida-Del-Valle-Queen-Creek-AZ-85142/60050853_zpid/,33.2442,-111.62299999999999,2017-09-10,2017-09-10
63228,22689830,"40707 N Courage Trl, Anthem, AZ 85086 ",85086,0.7670616507530212,249900,https://www.zillow.com/homedetails/40707-N-Courage-Trl-Anthem-AZ-85086/55264648_zpid/,33.8541,-112.137,2017-09-18,2017-09-18
7447911,22576289,"8204 S 6th Ln, Phoenix, AZ 85041 ",85041,0.7664190530776978,236900,https://www.zillow.com/homedetails/8204-S-6th-Ln-Phoenix-AZ-85041/95127702_zpid/,33.372,-112.083,2017-08-23,2017-08-23
7447915,22576292,"8216 S 6th Ln, Phoenix, AZ 85041 ",85041,0.7664190530776978,234900,https://www.zillow.com/homedetails/8216-S-6th-Ln-Phoenix-AZ-85041/95089441_zpid/,33.3716,-112.083,2017-08-23,2017-08-23
7447909,22576290,"8225 S 5th Ln, Phoenix, AZ 85041 ",85041,0.7664190530776978,234900,https://www.zillow.com/homedetails/8225-S-5th-Ln-Phoenix-AZ-85041/95083688_zpid/,33.3714,-112.08200000000001,2017-08-23,2017-08-23
770442,22593845,"6556 E Ivy St, Mesa, AZ 85205 ",85205,0.765850841999054,240000,https://www.zillow.com/homedetails/6556-E-Ivy-St-Mesa-AZ-85205/7676957_zpid/,33.4459,-111.68799999999999,2017-08-28,2017-08-28
84629,22737912,"19083 E Pelican Dr, Queen Creek, AZ 85142 ",85142,0.7655956149101257,242900,https://www.zillow.com/homedetails/19083-E-Pelican-Dr-Queen-Creek-AZ-85142/82242640_zpid/,33.2776,-111.67200000000001,2017-09-29,2017-09-29
937071,22621194,"25858 W Pleasant Ln, Buckeye, AZ 85326 ",85326,0.765199601650238,210000,https://www.zillow.com/homedetails/25858-W-Pleasant-Ln-Buckeye-AZ-85326/71610647_zpid/,33.3914,-112.60700000000001,2017-09-03,2017-09-03
1264136,22731232,"2870 E Megan St, Gilbert, AZ 85295 ",85295,0.7650229930877686,245000,https://www.zillow.com/homedetails/2870-E-Megan-St-Gilbert-AZ-85295/71618739_zpid/,33.3209,-111.728,2017-09-29,2017-09-29
934139,22626862,"25610 W Red Sky Pl, Buckeye, AZ 85326 ",85326,0.763817548751831,218000,https://www.zillow.com/homedetails/25610-W-Red-Sky-Pl-Buckeye-AZ-85326/60997726_zpid/,33.3819,-112.601,2017-09-05,2017-09-05
910573,22706964,"136 S 230th Dr, Buckeye, AZ 85326 ",85326,0.76325523853302,239900,https://www.zillow.com/homedetails/136-S-230th-Dr-Buckeye-AZ-85326/67801665_zpid/,33.446,-112.54700000000001,2017-09-21,2017-09-21
1239329,22731291,"937 N Starling Dr, Gilbert, AZ 85234 ",85234,0.7626479864120483,248000,https://www.zillow.com/homedetails/937-N-Starling-Dr-Gilbert-AZ-85234/8230703_zpid/,33.3681,-111.693,2017-09-30,2017-09-30
192659,23798591,"2235 W Burgess Ln, Phoenix, AZ 85041 ",85041,0.7616864442825317,229900,https://www.zillow.com/homedetails/2235-W-Burgess-Ln-Phoenix-AZ-85041/59269643_zpid/,33.3892,-112.10700000000001,2017-09-25,2017-09-25
9016019,22707065,"83 N 225th Dr, Buckeye, AZ 85326 ",85326,0.7615265846252441,185000,https://www.zillow.com/homedetails/83-N-225th-Dr-Buckeye-AZ-85326/71492945_zpid/,33.4482,-112.536,2017-09-20,2017-09-20
61298,23796856,"34932 N 31st Ave, Phoenix, AZ 85086 ",85086,0.7607003450393677,248880,https://www.zillow.com/homedetails/34932-N-31st-Ave-Phoenix-AZ-85086/60981123_zpid/,33.8022,-112.126,2017-10-05,2017-10-05
1234842,22699575,"4616 E Laurel Ct, Gilbert, AZ 85234 ",85234,0.7606734037399292,238888,https://www.zillow.com/homedetails/4616-E-Laurel-Ct-Gilbert-AZ-85234/67786616_zpid/,33.3609,-111.69200000000001,2017-09-07,2017-09-07
656864,22564338,"2031 S Gordon, Mesa, AZ 85209 ",85209,0.7600013017654419,205000,https://www.zillow.com/homedetails/2031-S-Gordon-Mesa-AZ-85209/52478809_zpid/,33.3783,-111.645,2017-08-22,2017-08-22
193092,23512160,"2336 W Fawn Dr, Phoenix, AZ 85041 ",85041,0.7593697905540466,246900,https://www.zillow.com/homedetails/2336-W-Fawn-Dr-Phoenix-AZ-85041/81997525_zpid/,33.3757,-112.111,2017-09-28,2017-09-28
62818,22680698,"40045 N Cross Timbers Ct, Anthem, AZ 85086 ",85086,0.7587478756904602,215000,https://www.zillow.com/homedetails/40045-N-Cross-Timbers-Ct-Anthem-AZ-85086/60543016_zpid/,33.8485,-112.118,2017-09-13,2017-09-13
308996,22734530,"41252 N Ericson Ln, Anthem, AZ 85086 ",85086,0.7584972381591797,249900,https://www.zillow.com/homedetails/41252-N-Ericson-Ln-Anthem-AZ-85086/60980245_zpid/,33.8591,-112.14,2017-10-03,2017-10-03
308702,22713034,"40812 N Citrus Canyon Trl, Anthem, AZ 85086 ",85086,0.757824718952179,238000,https://www.zillow.com/homedetails/40812-N-Citrus-Canyon-Trl-Anthem-AZ-85086/61209672_zpid/,33.8549,-112.113,2017-09-23,2017-09-23
1235038,22648326,"4646 E Redfield Rd, Gilbert, AZ 85234 ",85234,0.7570146322250366,240000,https://www.zillow.com/homedetails/4646-E-Redfield-Rd-Gilbert-AZ-85234/67794145_zpid/,33.3604,-111.691,2017-09-08,2017-09-08
1211290,22739736,"1149 E Harvard Ave, Gilbert, AZ 85234 ",85234,0.7559981346130371,235000,https://www.zillow.com/homedetails/1149-E-Harvard-Ave-Gilbert-AZ-85234/8247986_zpid/,33.367,-111.766,2017-10-04,2017-10-04
917461,22719030,"22026 W Loma Linda Blvd, Buckeye, AZ 85326 ",85326,0.7555981874465942,235000,https://www.zillow.com/homedetails/22026-W-Loma-Linda-Blvd-Buckeye-AZ-85326/62739176_zpid/,33.4434,-112.524,2017-09-25,2017-09-25
62801,23752298,"40028 N Cross Timbers Ct, Anthem, AZ 85086 ",85086,0.7544108629226685,239000,https://www.zillow.com/homedetails/40028-N-Cross-Timbers-Ct-Anthem-AZ-85086/60255187_zpid/,33.8484,-112.118,2017-10-14,2017-10-14
1223698,22745574,"3009 E Millbrae Ln, Gilbert, AZ 85234 ",85234,0.7541356682777405,240000,https://www.zillow.com/homedetails/3009-E-Millbrae-Ln-Gilbert-AZ-85234/8232721_zpid/,33.375,-111.726,2017-10-08,2017-10-08
1230889,22732877,"4043 E Princeton Ave, Gilbert, AZ 85234 ",85234,0.7536623477935791,249000,https://www.zillow.com/homedetails/4043-E-Princeton-Ave-Gilbert-AZ-85234/8272541_zpid/,33.3655,-111.70299999999999,2017-10-01,2017-10-01
429812,23796734,"10750 W Coolidge St, Phoenix, AZ 85037 ",85037,0.7529783248901367,215000,https://www.zillow.com/homedetails/10750-W-Coolidge-St-Phoenix-AZ-85037/81982882_zpid/,33.5037,-112.292,2017-09-18,2017-09-18
685218,23796909,"9730 E Knowles Ave, Mesa, AZ 85209 ",85209,0.7526162266731262,225000,https://www.zillow.com/homedetails/9730-E-Knowles-Ave-Mesa-AZ-85209/52355197_zpid/,33.3723,-111.62899999999999,2017-10-06,2017-10-06
90845,22738117,"21155 E Aspen Valley Dr, Queen Creek, AZ 85142 ",85142,0.7516179084777832,235000,https://www.zillow.com/homedetails/21155-E-Aspen-Valley-Dr-Queen-Creek-AZ-85142/59260845_zpid/,33.2426,-111.625,2017-10-03,2017-10-03
1273751,22693412,"4533 E Harrison St, Gilbert, AZ 85295 ",85295,0.7515064477920532,225000,https://www.zillow.com/homedetails/4533-E-Harrison-St-Gilbert-AZ-85295/60987720_zpid/,33.3169,-111.693,2017-09-19,2017-09-19
90743,22738107,"21140 E Cherrywood Dr, Queen Creek, AZ 85142 ",85142,0.7512888312339783,235000,https://www.zillow.com/homedetails/21140-E-Cherrywood-Dr-Queen-Creek-AZ-85142/95088035_zpid/,33.2339,-111.62700000000001,2017-10-03,2017-10-03
429776,22703731,"10740 W Taft St, Phoenix, AZ 85037 ",85037,0.7504938244819641,209000,https://www.zillow.com/homedetails/10740-W-Taft-St-Phoenix-AZ-85037/81977416_zpid/,33.5043,-112.292,2017-09-20,2017-09-20
306556,22699181,"3878 W Ashton Dr, Anthem, AZ 85086 ",85086,0.7499857544898987,239000,https://www.zillow.com/homedetails/3878-W-Ashton-Dr-Anthem-AZ-85086/67802475_zpid/,33.8724,-112.14399999999999,2017-09-20,2017-09-20
196550,22714145,"3717 W Nancy Ln, Phoenix, AZ 85041 ",85041,0.7498278617858887,209000,https://www.zillow.com/homedetails/3717-W-Nancy-Ln-Phoenix-AZ-85041/67774261_zpid/,33.3894,-112.139,2017-09-25,2017-09-25
196994,22694497,"3905 W Park St, Phoenix, AZ 85041 ",85041,0.7490687370300293,197000,https://www.zillow.com/homedetails/3905-W-Park-St-Phoenix-AZ-85041/55258381_zpid/,33.3804,-112.14399999999999,2017-09-19,2017-09-19
1239748,22713934,"990 E Princeton Ave, Gilbert, AZ 85234 ",85234,0.7482797503471375,240000,https://www.zillow.com/homedetails/990-E-Princeton-Ave-Gilbert-AZ-85234/8271512_zpid/,33.3658,-111.76700000000001,2017-09-24,2017-09-24
8989698,22507365,"6520 S 38th Dr, Phoenix, AZ 85041 ",85041,0.7482495307922363,245000,https://www.zillow.com/homedetails/6520-S-38th-Dr-Phoenix-AZ-85041/2093117491_zpid/,33.3841,-112.141,2017-08-15,2017-08-15
432087,22704087,"11018 W Elm St, Phoenix, AZ 85037 ",85037,0.7479173541069031,223000,https://www.zillow.com/homedetails/11018-W-Elm-St-Phoenix-AZ-85037/95185302_zpid/,33.5054,-112.29700000000001,2017-09-20,2017-09-20
935516,22675361,"25753 W St Charles Ct, Buckeye, AZ 85326 ",85326,0.7476258873939514,175000,https://www.zillow.com/homedetails/25753-W-St-Charles-Ct-Buckeye-AZ-85326/67787276_zpid/,33.3859,-112.605,2017-09-14,2017-09-14
918528,22632391,"22219 W Desert Bloom St, Buckeye, AZ 85326 ",85326,0.7472735643386841,212900,https://www.zillow.com/homedetails/22219-W-Desert-Bloom-St-Buckeye-AZ-85326/71617590_zpid/,33.4364,-112.529,2017-09-06,2017-09-06
9013150,22688245,"7503 S 12th Ave, Phoenix, AZ 85041 ",85041,0.746944785118103,219525,https://www.zillow.com/homedetails/7503-S-12th-Ave-Phoenix-AZ-85041/95154957_zpid/,33.3785,-112.087,2017-09-15,2017-09-15
8991469,22610872,"940 S 242nd Dr, Buckeye, AZ 85326 ",85326,0.74623042345047,170000,https://www.zillow.com/homedetails/940-S-242nd-Dr-Buckeye-AZ-85326/67797708_zpid/,33.4378,-112.572,2017-08-31,2017-08-31
62626,22734524,"39763 N High Noon Way, Anthem, AZ 85086 ",85086,0.7456464767456055,238990,https://www.zillow.com/homedetails/39763-N-High-Noon-Way-Anthem-AZ-85086/61501922_zpid/,33.846,-112.119,2017-10-02,2017-10-02
9003593,22621199,"6227 S 41ST Dr, Phoenix, AZ 85041 ",85041,0.7448403239250183,219900,https://www.zillow.com/homedetails/6227-S-41ST-Dr-Phoenix-AZ-85041/95071055_zpid/,33.3891,-112.147,2017-09-04,2017-09-04
59064,23796769,"1703 W Kuralt Dr, Anthem, AZ 85086 ",85086,0.7445499897003174,217500,https://www.zillow.com/homedetails/1703-W-Kuralt-Dr-Anthem-AZ-85086/67785794_zpid/,33.8467,-112.096,2017-09-29,2017-09-29
22076,23796735,"10826 W Taft St, Phoenix, AZ 85037 ",85037,0.7442994713783264,219000,https://www.zillow.com/homedetails/10826-W-Taft-St-Phoenix-AZ-85037/81969986_zpid/,33.5046,-112.294,2017-09-21,2017-09-21
1235249,22741613,"4690 E Olney Ave, Gilbert, AZ 85234 ",85234,0.7434964776039124,239900,https://www.zillow.com/homedetails/4690-E-Olney-Ave-Gilbert-AZ-85234/67794179_zpid/,33.3584,-111.69,2017-10-05,2017-10-05
1269476,22738195,"3626 E Larson Ln, Gilbert, AZ 85295 ",85295,0.7434359192848206,245000,https://www.zillow.com/homedetails/3626-E-Larson-Ln-Gilbert-AZ-85295/95160517_zpid/,33.298,-111.712,2017-10-04,2017-10-04
190807,22693975,"1638 W Alta Vista Rd, Phoenix, AZ 85041 ",85041,0.7432397603988647,190000,https://www.zillow.com/homedetails/1638-W-Alta-Vista-Rd-Phoenix-AZ-85041/60554396_zpid/,33.3898,-112.094,2017-09-20,2017-09-20
198200,22613787,"4831 S 4th Ave, Phoenix, AZ 85041 ",85041,0.7431527972221375,219999,https://www.zillow.com/homedetails/4831-S-4th-Ave-Phoenix-AZ-85041/95134932_zpid/,33.402,-112.07799999999999,2017-09-01,2017-09-01
932686,22558940,"253 N 222nd Dr, Buckeye, AZ 85326 ",85326,0.7425224184989929,205000,https://www.zillow.com/homedetails/253-N-222nd-Dr-Buckeye-AZ-85326/60997084_zpid/,33.45,-112.53,2017-08-22,2017-08-22
309099,22732851,"41361 N Miles Ct, Anthem, AZ 85086 ",85086,0.7422947287559509,219000,https://www.zillow.com/homedetails/41361-N-Miles-Ct-Anthem-AZ-85086/71620232_zpid/,33.8609,-112.14,2017-10-01,2017-10-01
92365,22738132,"21474 E Alyssa Rd, Queen Creek, AZ 85142 ",85142,0.742245078086853,242500,https://www.zillow.com/homedetails/21474-E-Alyssa-Rd-Queen-Creek-AZ-85142/81953291_zpid/,33.2576,-111.62100000000001,2017-10-03,2017-10-03
930011,22707015,"24753 W Dove Peak, Buckeye, AZ 85326 ",85326,0.7422347664833069,199000,https://www.zillow.com/homedetails/24753-W-Dove-Peak-Buckeye-AZ-85326/62739649_zpid/,33.3974,-112.583,2017-09-21,2017-09-21
912423,22642199,"1637 S 219th Dr, Buckeye, AZ 85326 ",85326,0.7421421408653259,205000,https://www.zillow.com/homedetails/1637-S-219th-Dr-Buckeye-AZ-85326/67807782_zpid/,33.4319,-112.522,2017-09-08,2017-09-08
916196,22675349,"21732 W Sonora St, Buckeye, AZ 85326 ",85326,0.7421421408653259,204900,https://www.zillow.com/homedetails/21732-W-Sonora-St-Buckeye-AZ-85326/71628983_zpid/,33.4326,-112.51799999999999,2017-09-13,2017-09-13
918443,22706988,"22209 W Hadley St, Buckeye, AZ 85326 ",85326,0.7420791387557983,202000,https://www.zillow.com/homedetails/22209-W-Hadley-St-Buckeye-AZ-85326/81992530_zpid/,33.4379,-112.52799999999999,2017-09-22,2017-09-22
191448,22711813,"1838 W Minton St, Phoenix, AZ 85041 ",85041,0.7420698404312134,229900,https://www.zillow.com/homedetails/1838-W-Minton-St-Phoenix-AZ-85041/121851706_zpid/,33.3812,-112.098,2017-09-20,2017-09-20
307175,22727935,"39629 N Bent Creek Ct, Anthem, AZ 85086 ",85086,0.7418269515037537,229900,https://www.zillow.com/homedetails/39629-N-Bent-Creek-Ct-Anthem-AZ-85086/62730938_zpid/,33.8454,-112.09899999999999,2017-09-29,2017-09-29
9015638,22704145,"8444 W Lewis Ave, Phoenix, AZ 85037 ",85037,0.7415884733200073,176900,https://www.zillow.com/homedetails/8444-W-Lewis-Ave-Phoenix-AZ-85037/82823102_zpid/,33.4743,-112.241,2017-09-21,2017-09-21
926829,22709179,"23761 W La Salle St, Buckeye, AZ 85326 ",85326,0.7415615916252136,175000,https://www.zillow.com/homedetails/23761-W-La-Salle-St-Buckeye-AZ-85326/82828886_zpid/,33.3973,-112.56200000000001,2017-09-22,2017-09-22
921680,22707000,"22775 W Cocopah St, Buckeye, AZ 85326 ",85326,0.7414302825927734,187900,https://www.zillow.com/homedetails/22775-W-Cocopah-St-Buckeye-AZ-85326/60997359_zpid/,33.4324,-112.541,2017-09-21,2017-09-21
918921,22675350,"22264 W Cantilever St, Buckeye, AZ 85326 ",85326,0.7413349151611328,229995,https://www.zillow.com/homedetails/22264-W-Cantilever-St-Buckeye-AZ-85326/60997121_zpid/,33.4473,-112.53,2017-09-14,2017-09-14
930553,22578800,"24857 W Hacienda Ave, Buckeye, AZ 85326 ",85326,0.7405527830123901,189400,https://www.zillow.com/homedetails/24857-W-Hacienda-Ave-Buckeye-AZ-85326/67694664_zpid/,33.4084,-112.586,2017-08-24,2017-08-24
425732,22714385,"10010 W Montecito Ave, Phoenix, AZ 85037 ",85037,0.7405270934104919,215000,https://www.zillow.com/homedetails/10010-W-Montecito-Ave-Phoenix-AZ-85037/7484276_zpid/,33.4997,-112.27600000000001,2017-09-20,2017-09-20
768868,22705444,"6325 E Ivy St, Mesa, AZ 85205 ",85205,0.7404887676239014,224995,https://www.zillow.com/homedetails/6325-E-Ivy-St-Mesa-AZ-85205/7676720_zpid/,33.4461,-111.694,2017-09-21,2017-09-21
928549,22730204,"23982 W Lasso Ln, Buckeye, AZ 85326 ",85326,0.7403056025505066,245000,https://www.zillow.com/homedetails/23982-W-Lasso-Ln-Buckeye-AZ-85326/61631226_zpid/,33.4391,-112.56700000000001,2017-09-29,2017-09-29
1273849,22731224,"4557 E Loma Vista St, Gilbert, AZ 85295 ",85295,0.7401027083396912,239900,https://www.zillow.com/homedetails/4557-E-Loma-Vista-St-Gilbert-AZ-85295/60987796_zpid/,33.3156,-111.69200000000001,2017-09-28,2017-09-28
432066,22706407,"11016 W Pierson St, Phoenix, AZ 85037 ",85037,0.7398221492767334,214900,https://www.zillow.com/homedetails/11016-W-Pierson-St-Phoenix-AZ-85037/95085111_zpid/,33.506,-112.29700000000001,2017-09-22,2017-09-22
910646,22643054,"1363 S 219th Ln, Buckeye, AZ 85326 ",85326,0.7395328879356384,183000,https://www.zillow.com/homedetails/1363-S-219th-Ln-Buckeye-AZ-85326/71626339_zpid/,33.4343,-112.523,2017-09-07,2017-09-07
932854,22675354,"25394 W Darrel Dr, Buckeye, AZ 85326 ",85326,0.7390276789665222,180000,https://www.zillow.com/homedetails/25394-W-Darrel-Dr-Buckeye-AZ-85326/89026843_zpid/,33.3844,-112.59700000000001,2017-09-14,2017-09-14
567748,23649695,"10262 E Isleta Ave, Mesa, AZ 85209 ",85209,0.7389439940452576,224900,https://www.zillow.com/homedetails/10262-E-Isleta-Ave-Mesa-AZ-85209/67792324_zpid/,33.385999999999996,-111.609,2017-10-13,2017-10-13
932920,22684855,"25408 W Clanton Ave, Buckeye, AZ 85326 ",85326,0.7388992309570312,165000,https://www.zillow.com/homedetails/25408-W-Clanton-Ave-Buckeye-AZ-85326/81987237_zpid/,33.3675,-112.59700000000001,2017-09-15,2017-09-15
914287,22706974,"19456 W Washington St, Buckeye, AZ 85326 ",85326,0.7388184070587158,177500,https://www.zillow.com/homedetails/19456-W-Washington-St-Buckeye-AZ-85326/88784612_zpid/,33.4474,-112.478,2017-09-21,2017-09-21
445258,22579487,"4631 N 108th Dr, Phoenix, AZ 85037 ",85037,0.7387023568153381,199900,https://www.zillow.com/homedetails/4631-N-108th-Dr-Phoenix-AZ-85037/82240291_zpid/,33.5036,-112.294,2017-08-25,2017-08-25
911870,22706969,"1585 S 229th Ave, Buckeye, AZ 85326 ",85326,0.7386907339096069,185000,https://www.zillow.com/homedetails/1585-S-229th-Ave-Buckeye-AZ-85326/62739384_zpid/,33.4321,-112.544,2017-09-20,2017-09-20
13624,22644691,"2526 W Beverly Rd, Phoenix, AZ 85041 ",85041,0.7385805249214172,207000,https://www.zillow.com/homedetails/2526-W-Beverly-Rd-Phoenix-AZ-85041/92425316_zpid/,33.3747,-112.11399999999999,2017-09-08,2017-09-08
915929,22662840,"21539 W Hilton Ave, Buckeye, AZ 85326 ",85326,0.7382550239562988,197500,https://www.zillow.com/homedetails/21539-W-Hilton-Ave-Buckeye-AZ-85326/95167457_zpid/,33.4276,-112.529,2017-09-12,2017-09-12
931683,22730194,"25160 W Park Ave, Buckeye, AZ 85326 ",85326,0.7382296919822693,202000,https://www.zillow.com/homedetails/25160-W-Park-Ave-Buckeye-AZ-85326/95120592_zpid/,33.382,-112.59200000000001,2017-09-28,2017-09-28
197525,22710801,"4102 W Carter Rd, Phoenix, AZ 85041 ",85041,0.738224983215332,189000,https://www.zillow.com/homedetails/4102-W-Carter-Rd-Phoenix-AZ-85041/60047540_zpid/,33.3821,-112.147,2017-09-21,2017-09-21
527635,22717844,"9459 W Virginia Ave, Phoenix, AZ 85037 ",85037,0.7379515767097473,200000,https://www.zillow.com/homedetails/9459-W-Virginia-Ave-Phoenix-AZ-85037/62727169_zpid/,33.4764,-112.26299999999999,2017-09-20,2017-09-20
926841,22558953,"23760 W La Salle St, Buckeye, AZ 85326 ",85326,0.7378814220428467,185000,https://www.zillow.com/homedetails/23760-W-La-Salle-St-Buckeye-AZ-85326/82828746_zpid/,33.3973,-112.56200000000001,2017-08-22,2017-08-22
771858,23649831,"929 N Sandal Cir, Mesa, AZ 85205 ",85205,0.737748384475708,249900,https://www.zillow.com/homedetails/929-N-Sandal-Cir-Mesa-AZ-85205/7673272_zpid/,33.4326,-111.70700000000001,2017-10-12,2017-10-12
939292,22707047,"4265 S 247th Dr, Buckeye, AZ 85326 ",85326,0.7373236417770386,212000,https://www.zillow.com/homedetails/4265-S-247th-Dr-Buckeye-AZ-85326/81967685_zpid/,33.4089,-112.583,2017-09-20,2017-09-20
524237,22678362,"9106 W Monte Vista Rd, Phoenix, AZ 85037 ",85037,0.7372151017189026,199000,https://www.zillow.com/homedetails/9106-W-Monte-Vista-Rd-Phoenix-AZ-85037/60047183_zpid/,33.4705,-112.256,2017-09-13,2017-09-13
919867,22649177,"22470 W Woodlands Ave, Buckeye, AZ 85326 ",85326,0.7371301054954529,215000,https://www.zillow.com/homedetails/22470-W-Woodlands-Ave-Buckeye-AZ-85326/67807708_zpid/,33.4499,-112.53399999999999,2017-09-10,2017-09-10
940129,22707055,"5296 S 237th Ln, Buckeye, AZ 85326 ",85326,0.737001895904541,184500,https://www.zillow.com/homedetails/5296-S-237th-Ln-Buckeye-AZ-85326/82828776_zpid/,33.3984,-112.56200000000001,2017-09-22,2017-09-22
656207,23649752,"2021 S Boca Cir, Mesa, AZ 85209 ",85209,0.7369915843009949,248000,https://www.zillow.com/homedetails/2021-S-Boca-Cir-Mesa-AZ-85209/62735520_zpid/,33.3756,-111.611,2017-10-12,2017-10-12
59018,22739844,"1622 W Owens Way, Anthem, AZ 85086 ",85086,0.7367543578147888,235000,https://www.zillow.com/homedetails/1622-W-Owens-Way-Anthem-AZ-85086/67775925_zpid/,33.8503,-112.095,2017-10-05,2017-10-05
431469,22724416,"10929 W Taft St, Phoenix, AZ 85037 ",85037,0.7366538643836975,229000,https://www.zillow.com/homedetails/10929-W-Taft-St-Phoenix-AZ-85037/81974726_zpid/,33.5045,-112.295,2017-09-27,2017-09-27
804758,22601987,"2710 E Carol Ave, Mesa, AZ 85204 ",85204,0.7365409731864929,235000,https://www.zillow.com/homedetails/2710-E-Carol-Ave-Mesa-AZ-85204/55619214_zpid/,33.4055,-111.773,2017-08-31,2017-08-31
935849,22675352,"25779 W Gibson Ln, Buckeye, AZ 85326 ",85326,0.73642897605896,215000,https://www.zillow.com/homedetails/25779-W-Gibson-Ln-Buckeye-AZ-85326/81995939_zpid/,33.4252,-112.605,2017-09-14,2017-09-14
1028837,22710189,"2258 E Palm Beach Dr, Chandler, AZ 85249 ",85249,0.7360612154006958,214900,https://www.zillow.com/homedetails/2258-E-Palm-Beach-Dr-Chandler-AZ-85249/52432553_zpid/,33.2067,-111.802,2017-09-22,2017-09-22
202455,22723275,"8103 S 5th Ave, Phoenix, AZ 85041 ",85041,0.7360539436340332,225000,https://www.zillow.com/homedetails/8103-S-5th-Ave-Phoenix-AZ-85041/95142752_zpid/,33.3731,-112.08,2017-09-26,2017-09-26
8928193,22707057,"721 S 223rd Dr, Buckeye, AZ 85326 ",85326,0.7356254458427429,165000,https://www.zillow.com/homedetails/721-S-223rd-Dr-Buckeye-AZ-85326/67787068_zpid/,33.4404,-112.531,2017-09-22,2017-09-22
200810,22694521,"6826 S 38th Ln, Phoenix, AZ 85041 ",85041,0.7356030344963074,204900,https://www.zillow.com/homedetails/6826-S-38th-Ln-Phoenix-AZ-85041/67789778_zpid/,33.384,-112.14200000000001,2017-09-19,2017-09-19
945073,22707049,"4519 S 237th Ln, Buckeye, AZ 85326 ",85326,0.7353937029838562,177900,https://www.zillow.com/homedetails/4519-S-237th-Ln-Buckeye-AZ-85326/95182545_zpid/,33.4056,-112.561,2017-09-20,2017-09-20
1214233,23526850,"1419 N Thunderbird Ave, Gilbert, AZ 85234 ",85234,0.7349631190299988,235000,https://www.zillow.com/homedetails/1419-N-Thunderbird-Ave-Gilbert-AZ-85234/59731843_zpid/,33.3761,-111.725,2017-10-11,2017-10-11
27401,22723268,"5619 S 16th Dr, Phoenix, AZ 85041 ",85041,0.734816312789917,204998,https://www.zillow.com/homedetails/5619-S-16th-Dr-Phoenix-AZ-85041/68015583_zpid/,33.3952,-112.09299999999999,2017-09-26,2017-09-26
909381,22637989,"119 N 228th Ave, Buckeye, AZ 85326 ",85326,0.7344837784767151,185000,https://www.zillow.com/homedetails/119-N-228th-Ave-Buckeye-AZ-85326/64737340_zpid/,33.4486,-112.541,2017-09-07,2017-09-07
672631,23649851,"7561 E Monte Ave, Mesa, AZ 85209 ",85209,0.7340900301933289,244900,https://www.zillow.com/homedetails/7561-E-Monte-Ave-Mesa-AZ-85209/8273260_zpid/,33.3702,-111.67200000000001,2017-10-13,2017-10-13
95043,23587990,"22358 E Via Del Rancho, Queen Creek, AZ 85142 ",85142,0.733947217464447,239000,http://www.zillow.com/homedetails/22358-E-Via-Del-Rancho-Queen-Creek-AZ-85142/67772153_zpid,33.235,-111.603,2017-10-12,2017-10-12
931551,22707029,"251 S 195th Dr, Buckeye, AZ 85326 ",85326,0.7337091565132141,214000,https://www.zillow.com/homedetails/251-S-195th-Dr-Buckeye-AZ-85326/95145471_zpid/,33.4445,-112.479,2017-09-22,2017-09-22
915752,22713704,"2097 S 215th Dr, Buckeye, AZ 85326 ",85326,0.7334887385368347,185000,https://www.zillow.com/homedetails/2097-S-215th-Dr-Buckeye-AZ-85326/95111018_zpid/,33.4286,-112.514,2017-09-24,2017-09-24
925794,22713529,"23584 W Harrison Dr, Buckeye, AZ 85326 ",85326,0.7332407236099243,179900,https://www.zillow.com/homedetails/23584-W-Harrison-Dr-Buckeye-AZ-85326/95091196_zpid/,33.4308,-112.555,2017-09-24,2017-09-24
940317,22707059,"546 S 223rd Dr, Buckeye, AZ 85326 ",85326,0.7328252196311951,195000,https://www.zillow.com/homedetails/546-S-223rd-Dr-Buckeye-AZ-85326/67787089_zpid/,33.4421,-112.531,2017-09-21,2017-09-21
908274,22684838,"1030 S 223rd Ln, Buckeye, AZ 85326 ",85326,0.7328252196311951,189000,https://www.zillow.com/homedetails/1030-S-223rd-Ln-Buckeye-AZ-85326/67787135_zpid/,33.4373,-112.53200000000001,2017-09-15,2017-09-15
1553554,22699269,"402 W Redwood Dr, Chandler, AZ 85248 ",85248,0.7324772477149963,209000,https://www.zillow.com/homedetails/402-W-Redwood-Dr-Chandler-AZ-85248/8228457_zpid/,33.2498,-111.84700000000001,2017-08-27,2017-08-27
671330,22730281,"7439 E Naranja Ave, Mesa, AZ 85209 ",85209,0.732337236404419,210000,https://www.zillow.com/homedetails/7439-E-Naranja-Ave-Mesa-AZ-85209/8274274_zpid/,33.3654,-111.67399999999999,2017-09-29,2017-09-29
200451,22693966,"6623 S 17th Ave, Phoenix, AZ 85041 ",85041,0.732272207736969,189000,https://www.zillow.com/homedetails/6623-S-17th-Ave-Phoenix-AZ-85041/59272440_zpid/,33.385999999999996,-112.095,2017-09-19,2017-09-19
941834,22675362,"664 S 231st Dr, Buckeye, AZ 85326 ",85326,0.7321438193321228,209900,https://www.zillow.com/homedetails/664-S-231st-Dr-Buckeye-AZ-85326/67769354_zpid/,33.4409,-112.54799999999999,2017-09-14,2017-09-14
678752,23649826,"8421 E Lindner Ave, Mesa, AZ 85209 ",85209,0.7319344878196716,214900,https://www.zillow.com/homedetails/8421-E-Lindner-Ave-Mesa-AZ-85209/67763444_zpid/,33.3757,-111.65299999999999,2017-10-13,2017-10-13
198232,22711838,"4850 S 4th Ave, Phoenix, AZ 85041 ",85041,0.7315875291824341,177000,https://www.zillow.com/homedetails/4850-S-4th-Ave-Phoenix-AZ-85041/95177011_zpid/,33.4015,-112.07799999999999,2017-09-22,2017-09-22
933347,22703128,"25531 W Ripple Rd, Buckeye, AZ 85326 ",85326,0.7311570048332214,194500,https://www.zillow.com/homedetails/25531-W-Ripple-Rd-Buckeye-AZ-85326/71610853_zpid/,33.4232,-112.6,2017-09-21,2017-09-21
59611,22709624,"2364 W Turtle Hill Ct, Anthem, AZ 85086 ",85086,0.7301289439201355,249900,https://www.zillow.com/homedetails/2364-W-Turtle-Hill-Ct-Anthem-AZ-85086/55213390_zpid/,33.8604,-112.111,2017-09-21,2017-09-21
526828,22737450,"9418 W Sheridan St, Phoenix, AZ 85037 ",85037,0.7299984097480774,214500,https://www.zillow.com/homedetails/9418-W-Sheridan-St-Phoenix-AZ-85037/67773035_zpid/,33.475,-112.262,2017-09-28,2017-09-28
9019013,22730232,"898 S 242nd Ln, Buckeye, AZ 85326 ",85326,0.7298427820205688,214900,https://www.zillow.com/homedetails/898-S-242nd-Ln-Buckeye-AZ-85326/67797697_zpid/,33.4382,-112.572,2017-09-28,2017-09-28
444887,22730839,"4607 N 92nd Ln, Phoenix, AZ 85037 ",85037,0.7297480702400208,214900,https://www.zillow.com/homedetails/4607-N-92nd-Ln-Phoenix-AZ-85037/7466411_zpid/,33.5044,-112.259,2017-09-28,2017-09-28
191593,23802511,"1935 W Nancy Ln, Phoenix, AZ 85041 ",85041,0.7297060489654541,219500,https://www.zillow.com/homedetails/1935-W-Nancy-Ln-Phoenix-AZ-85041/63102771_zpid/,33.3901,-112.101,2017-10-06,2017-10-06
432006,22730812,"11007 W College Dr, Phoenix, AZ 85037 ",85037,0.7296924591064453,200000,https://www.zillow.com/homedetails/11007-W-College-Dr-Phoenix-AZ-85037/94638476_zpid/,33.5071,-112.29700000000001,2017-09-28,2017-09-28
1268632,22731181,"3515 E Erie St, Gilbert, AZ 85295 ",85295,0.7295403480529785,220000,https://www.zillow.com/homedetails/3515-E-Erie-St-Gilbert-AZ-85295/95187885_zpid/,33.3092,-111.714,2017-09-30,2017-09-30
926538,22578795,"23701 W Grove St, Buckeye, AZ 85326 ",85326,0.7284217476844788,182500,https://www.zillow.com/homedetails/23701-W-Grove-St-Buckeye-AZ-85326/82777091_zpid/,33.3988,-112.561,2017-08-24,2017-08-24
800354,23799966,"734 S Robin Ln, Mesa, AZ 85204 ",85204,0.727737307548523,229900,https://www.zillow.com/homedetails/734-S-Robin-Ln-Mesa-AZ-85204/7645910_zpid/,33.4028,-111.771,2017-10-03,2017-10-03
933107,22595037,"25455 W Lincoln Ave, Buckeye, AZ 85326 ",85326,0.7276157736778259,158900,https://www.zillow.com/homedetails/25455-W-Lincoln-Ave-Buckeye-AZ-85326/81996412_zpid/,33.368,-112.598,2017-08-28,2017-08-28
63131,22734526,"40549 N Territory Trl, Anthem, AZ 85086 ",85086,0.7272276282310486,229000,https://www.zillow.com/homedetails/40549-N-Territory-Trl-Anthem-AZ-85086/50184030_zpid/,33.8524,-112.13,2017-10-03,2017-10-03
935657,22637994,"25762 W Winslow Ave, Buckeye, AZ 85326 ",85326,0.726837694644928,189900,https://www.zillow.com/homedetails/25762-W-Winslow-Ave-Buckeye-AZ-85326/67797313_zpid/,33.4198,-112.605,2017-09-07,2017-09-07
929811,22610825,"24656 W Mobile Ln, Buckeye, AZ 85326 ",85326,0.7267249226570129,192900,https://www.zillow.com/homedetails/24656-W-Mobile-Ln-Buckeye-AZ-85326/95150098_zpid/,33.4017,-112.581,2017-08-29,2017-08-29
432615,23796740,"11125 W College Dr, Phoenix, AZ 85037 ",85037,0.7265840768814087,209500,https://www.zillow.com/homedetails/11125-W-College-Dr-Phoenix-AZ-85037/81982689_zpid/,33.5069,-112.3,2017-10-01,2017-10-01
916094,22721825,"21699 W Hess Ave, Buckeye, AZ 85326 ",85326,0.7264086604118347,199900,https://www.zillow.com/homedetails/21699-W-Hess-Ave-Buckeye-AZ-85326/95095792_zpid/,33.4269,-112.51700000000001,2017-09-26,2017-09-26
909782,22684847,"1268 S 226th Dr, Buckeye, AZ 85326 ",85326,0.7259270548820496,167500,https://www.zillow.com/homedetails/1268-S-226th-Dr-Buckeye-AZ-85326/62634595_zpid/,33.435,-112.538,2017-09-16,2017-09-16
9019188,22732337,"7507 S 12th Ave, Phoenix, AZ 85041 ",85041,0.7258471250534058,235732,https://www.zillow.com/homedetails/7507-S-12th-Ave-Phoenix-AZ-85041/95161575_zpid/,33.3783,-112.087,2017-09-30,2017-09-30
916666,22721826,"21939 W Papago St, Buckeye, AZ 85326 ",85326,0.7254782319068909,189999,https://www.zillow.com/homedetails/21939-W-Papago-St-Buckeye-AZ-85326/67807787_zpid/,33.4341,-112.522,2017-09-26,2017-09-26
801193,22728255,"921 E Garnet Ave, Mesa, AZ 85204 ",85204,0.7254499197006226,238500,https://www.zillow.com/homedetails/921-E-Garnet-Ave-Mesa-AZ-85204/7629246_zpid/,33.3912,-111.811,2017-09-28,2017-09-28
939572,22712589,"4888 S 245th Dr, Buckeye, AZ 85326 ",85326,0.7248350381851196,169500,https://www.zillow.com/homedetails/4888-S-245th-Dr-Buckeye-AZ-85326/95162677_zpid/,33.4022,-112.579,2017-09-23,2017-09-23
432685,23796738,"11129 W Brittlewood Dr, Phoenix, AZ 85037 ",85037,0.7244197130203247,221998,https://www.zillow.com/homedetails/11129-W-Brittlewood-Dr-Phoenix-AZ-85037/71619323_zpid/,33.5042,-112.29899999999999,2017-10-04,2017-10-04
201407,22732018,"7104 S 31st Dr, Phoenix, AZ 85041 ",85041,0.7243077754974365,203900,https://www.zillow.com/homedetails/7104-S-31st-Dr-Phoenix-AZ-85041/60977326_zpid/,33.3822,-112.125,2017-09-29,2017-09-29
194219,22747286,"2612 W Burgess Ln, Phoenix, AZ 85041 ",85041,0.7240010499954224,228000,https://www.zillow.com/homedetails/2612-W-Burgess-Ln-Phoenix-AZ-85041/62727594_zpid/,33.3897,-112.115,2017-10-03,2017-10-03
916447,22732637,"21845 W Mohave St, Buckeye, AZ 85326 ",85326,0.7234111428260803,179900,https://www.zillow.com/homedetails/21845-W-Mohave-St-Buckeye-AZ-85326/71629089_zpid/,33.4309,-112.52,2017-10-01,2017-10-01
1209912,22725332,"1043 N Sailors Way, Gilbert, AZ 85234 ",85234,0.7229934930801392,245000,https://www.zillow.com/homedetails/1043-N-Sailors-Way-Gilbert-AZ-85234/8248468_zpid/,33.3698,-111.765,2017-09-27,2017-09-27
196217,23527666,"3448 W Apollo Rd, Phoenix, AZ 85041 ",85041,0.7226395010948181,239900,https://www.zillow.com/homedetails/3448-W-Apollo-Rd-Phoenix-AZ-85041/82819918_zpid/,33.3863,-112.133,2017-10-11,2017-10-11
8964635,22733496,"24598 W Sheraton Ln, Buckeye, AZ 85326 ",85326,0.7216963171958923,236900,https://www.zillow.com/homedetails/24598-W-Sheraton-Ln-Buckeye-AZ-85326/95148348_zpid/,33.4007,-112.58,2017-10-03,2017-10-03
908926,22647202,"1118 S 225th Ave, Buckeye, AZ 85326 ",85326,0.7214776873588562,169000,https://www.zillow.com/homedetails/1118-S-225th-Ave-Buckeye-AZ-85326/81972579_zpid/,33.4364,-112.535,2017-09-10,2017-09-10
95070,23585565,"22364 E Via Del Rancho, Queen Creek, AZ 85142 ",85142,0.7204862833023071,209900,http://www.zillow.com/homedetails/22364-E-Via-Del-Rancho-Queen-Creek-AZ-85142/67772150_zpid,33.2347,-111.603,2017-10-11,2017-10-11
939898,23649598,"509 S 9th St, Buckeye, AZ 85326 ",85326,0.7202862501144409,179000,https://www.zillow.com/homedetails/509-S-9th-St-Buckeye-AZ-85326/8287002_zpid/,33.365,-112.57799999999999,2017-10-13,2017-10-13
59189,22730959,"1819 W Owens Way, Anthem, AZ 85086 ",85086,0.7193248271942139,219900,https://www.zillow.com/homedetails/1819-W-Owens-Way-Anthem-AZ-85086/62731088_zpid/,33.8501,-112.098,2017-09-29,2017-09-29
797574,22745148,"3350 E Florian Ave, Mesa, AZ 85204 ",85204,0.7192391157150269,216900,https://www.zillow.com/homedetails/3350-E-Florian-Ave-Mesa-AZ-85204/7648059_zpid/,33.395,-111.759,2017-10-09,2017-10-09
9016379,22710160,"1411 E Gary Dr, Chandler, AZ 85225 ",85225,0.7192283868789673,249900,https://www.zillow.com/homedetails/1411-E-Gary-Dr-Chandler-AZ-85225/8204321_zpid/,33.3214,-111.81700000000001,2017-09-22,2017-09-22
928073,22744933,"23898 W Desert Bloom St, Buckeye, AZ 85326 ",85326,0.7190845012664795,182000,https://www.zillow.com/homedetails/23898-W-Desert-Bloom-St-Buckeye-AZ-85326/61631128_zpid/,33.4362,-112.565,2017-10-07,2017-10-07
8982134,22738473,"1723 W Minton St, Phoenix, AZ 85041 ",85041,0.7187663912773132,224999,https://www.zillow.com/homedetails/1723-W-Minton-St-Phoenix-AZ-85041/121854453_zpid/,33.3807,-112.096,2017-10-04,2017-10-04
936356,22740755,"25814 W Victory St, Buckeye, AZ 85326 ",85326,0.7178633809089661,179900,https://www.zillow.com/homedetails/25814-W-Victory-St-Buckeye-AZ-85326/67796893_zpid/,33.415,-112.60600000000001,2017-10-05,2017-10-05
928729,22730198,"24007 W Twilight Trl, Buckeye, AZ 85326 ",85326,0.7175488471984863,168000,https://www.zillow.com/homedetails/24007-W-Twilight-Trl-Buckeye-AZ-85326/61501874_zpid/,33.4405,-112.56700000000001,2017-09-29,2017-09-29
191774,22933813,"2020 W Hasan Dr, Phoenix, AZ 85041 ",85041,0.7171473503112793,224900,https://www.zillow.com/homedetails/2020-W-Hasan-Dr-Phoenix-AZ-85041/63179338_zpid/,33.3912,-112.102,2017-10-10,2017-10-10
930308,22684850,"24811 W Wayland Dr, Buckeye, AZ 85326 ",85326,0.7169181108474731,168900,https://www.zillow.com/homedetails/24811-W-Wayland-Dr-Buckeye-AZ-85326/82822482_zpid/,33.3954,-112.585,2017-09-16,2017-09-16
922281,22721836,"22845 W Cantilever St, Buckeye, AZ 85326 ",85326,0.7163257002830505,172900,https://www.zillow.com/homedetails/22845-W-Cantilever-St-Buckeye-AZ-85326/64841517_zpid/,33.4476,-112.542,2017-09-26,2017-09-26
933703,22510420,"25559 W Burgess Ln, Buckeye, AZ 85326 ",85326,0.7161865234375,224000,https://www.zillow.com/homedetails/25559-W-Burgess-Ln-Buckeye-AZ-85326/81982923_zpid/,33.3884,-112.601,2017-08-14,2017-08-14
201868,23512324,"7315 S 30th Ave, Phoenix, AZ 85041 ",85041,0.7155579924583435,220000,https://www.zillow.com/homedetails/7315-S-30th-Ave-Phoenix-AZ-85041/60977105_zpid/,33.3795,-112.12299999999999,2017-10-11,2017-10-11
520341,22734448,"8921 W Edgemont Ave, Phoenix, AZ 85037 ",85037,0.7154726386070251,199000,https://www.zillow.com/homedetails/8921-W-Edgemont-Ave-Phoenix-AZ-85037/7487901_zpid/,33.4783,-112.25200000000001,2017-10-02,2017-10-02
916539,22490935,"21877 W Sonora St, Buckeye, AZ 85326 ",85326,0.7154453992843628,210000,https://www.zillow.com/homedetails/21877-W-Sonora-St-Buckeye-AZ-85326/71629036_zpid/,33.4326,-112.521,2017-08-08,2017-08-08
932917,23649586,"25412 W Jackson Ave, Buckeye, AZ 85326 ",85326,0.7152845859527588,185000,https://www.zillow.com/homedetails/25412-W-Jackson-Ave-Buckeye-AZ-85326/81989225_zpid/,33.3688,-112.598,2017-10-13,2017-10-13
8986571,22733499,"24633 W Sheraton Ln, Buckeye, AZ 85326 ",85326,0.7144014835357666,216900,https://www.zillow.com/homedetails/24633-W-Sheraton-Ln-Buckeye-AZ-85326/95120222_zpid/,33.4002,-112.581,2017-10-03,2017-10-03
927832,23649582,"23868 W Tonto St, Buckeye, AZ 85326 ",85326,0.7127104997634888,198850,https://www.zillow.com/homedetails/23868-W-Tonto-St-Buckeye-AZ-85326/61631107_zpid/,33.4372,-112.564,2017-10-13,2017-10-13
193249,22741943,"2406 W Mobile Ln, Phoenix, AZ 85041 ",85041,0.7125184535980225,195000,https://www.zillow.com/homedetails/2406-W-Mobile-Ln-Phoenix-AZ-85041/67774049_zpid/,33.4002,-112.11,2017-10-06,2017-10-06
927077,22730184,"23791 W Hadley St, Buckeye, AZ 85326 ",85326,0.7122858762741089,185500,https://www.zillow.com/homedetails/23791-W-Hadley-St-Buckeye-AZ-85326/61631057_zpid/,33.4377,-112.56299999999999,2017-09-30,2017-09-30
917596,22740734,"22045 W Gardenia Dr, Buckeye, AZ 85326 ",85326,0.7120928764343262,199900,https://www.zillow.com/homedetails/22045-W-Gardenia-Dr-Buckeye-AZ-85326/62739152_zpid/,33.4457,-112.525,2017-10-05,2017-10-05
913783,22733483,"19283 W Washington St, Buckeye, AZ 85326 ",85326,0.7119752168655396,203000,https://www.zillow.com/homedetails/19283-W-Washington-St-Buckeye-AZ-85326/87799788_zpid/,33.4473,-112.47399999999999,2017-10-02,2017-10-02
193310,22933774,"2411 W Melody Dr, Phoenix, AZ 85041 ",85041,0.7111691832542419,238000,https://www.zillow.com/homedetails/2411-W-Melody-Dr-Phoenix-AZ-85041/92348074_zpid/,33.3744,-112.11200000000001,2017-10-10,2017-10-10
1260474,23752184,"2542 E Vermont Dr, Gilbert, AZ 85295 ",85295,0.7095373868942261,249999,https://www.zillow.com/homedetails/2542-E-Vermont-Dr-Gilbert-AZ-85295/95107867_zpid/,33.3037,-111.735,2017-10-12,2017-10-12
1030772,22746080,"2535 E La Costa Dr, Chandler, AZ 85249 ",85249,0.7084556221961975,229999,https://www.zillow.com/homedetails/2535-E-La-Costa-Dr-Chandler-AZ-85249/8216057_zpid/,33.2141,-111.79700000000001,2017-10-07,2017-10-07
9019954,22740798,"836 S 239th Ln, Buckeye, AZ 85326 ",85326,0.708283007144928,174900,https://www.zillow.com/homedetails/836-S-239th-Ln-Buckeye-AZ-85326/61631224_zpid/,33.439,-112.56700000000001,2017-10-05,2017-10-05
919753,22740742,"22418 W Woodlands Ave, Buckeye, AZ 85326 ",85326,0.7076390981674194,214900,https://www.zillow.com/homedetails/22418-W-Woodlands-Ave-Buckeye-AZ-85326/60964573_zpid/,33.4499,-112.53299999999999,2017-10-05,2017-10-05
446210,23650443,"4731 N 94th Ave, Phoenix, AZ 85037 ",85037,0.7070121765136719,218000,https://www.zillow.com/homedetails/4731-N-94th-Ave-Phoenix-AZ-85037/52423670_zpid/,33.5067,-112.26100000000001,2017-10-12,2017-10-12
922906,23526375,"22966 W Solano Dr, Buckeye, AZ 85326 ",85326,0.7065849304199219,179900,https://www.zillow.com/homedetails/22966-W-Solano-Dr-Buckeye-AZ-85326/67799697_zpid/,33.4468,-112.545,2017-10-11,2017-10-11
931037,22643069,"24975 W Dove Mesa Dr, Buckeye, AZ 85326 ",85326,0.7062153220176697,160000,https://www.zillow.com/homedetails/24975-W-Dove-Mesa-Dr-Buckeye-AZ-85326/62739563_zpid/,33.3985,-112.587,2017-09-08,2017-09-08
448988,22734457,"8504 W College Dr, Phoenix, AZ 85037 ",85037,0.7061628699302673,190000,https://www.zillow.com/homedetails/8504-W-College-Dr-Phoenix-AZ-85037/7483600_zpid/,33.5084,-112.243,2017-10-03,2017-10-03
784692,22719644,"1050 E 9th Ave, Mesa, AZ 85204 ",85204,0.7060188055038452,225000,https://www.zillow.com/homedetails/1050-E-9th-Ave-Mesa-AZ-85204/7629874_zpid/,33.399,-111.80799999999999,2017-09-25,2017-09-25
195902,23527658,"3329 W Chanute Pass, Phoenix, AZ 85041 ",85041,0.7059080004692078,225900,https://www.zillow.com/homedetails/3329-W-Chanute-Pass-Phoenix-AZ-85041/71628063_zpid/,33.398,-112.131,2017-10-11,2017-10-11
800131,22717375,"711 S Hall, Mesa, AZ 85204 ",85204,0.7054394483566284,224500,https://www.zillow.com/homedetails/711-S-Hall-Mesa-AZ-85204/7633366_zpid/,33.4023,-111.79299999999999,2017-09-14,2017-09-14
1225676,22738196,"333 E Page Ave, Gilbert, AZ 85234 ",85234,0.7046382427215576,240000,https://www.zillow.com/homedetails/333-E-Page-Ave-Gilbert-AZ-85234/8248534_zpid/,33.3538,-111.78299999999999,2017-10-04,2017-10-04
926491,23649579,"23694 W Chambers St, Buckeye, AZ 85326 ",85326,0.7041718363761902,187500,https://www.zillow.com/homedetails/23694-W-Chambers-St-Buckeye-AZ-85326/82778292_zpid/,33.3982,-112.561,2017-10-13,2017-10-13
916277,22744935,"21764 W Renegade St, Buckeye, AZ 85326 ",85326,0.704062283039093,209900,https://www.zillow.com/homedetails/21764-W-Renegade-St-Buckeye-AZ-85326/71629105_zpid/,33.4296,-112.51899999999999,2017-10-08,2017-10-08
1260641,22745553,"2555 E Bart St, Gilbert, AZ 85295 ",85295,0.7037967443466187,229900,https://www.zillow.com/homedetails/2555-E-Bart-St-Gilbert-AZ-85295/81983627_zpid/,33.3197,-111.735,2017-10-08,2017-10-08
926210,23649573,"23649 W Levi Dr, Buckeye, AZ 85326 ",85326,0.7037298083305359,174900,https://www.zillow.com/homedetails/23649-W-Levi-Dr-Buckeye-AZ-85326/95088267_zpid/,33.4042,-112.56,2017-10-14,2017-10-14
923734,22626869,"23121 W Antelope Trl, Buckeye, AZ 85326 ",85326,0.7036855816841125,209900,https://www.zillow.com/homedetails/23121-W-Antelope-Trl-Buckeye-AZ-85326/60996857_zpid/,33.4385,-112.54799999999999,2017-09-05,2017-09-05
197098,23512231,"3929 W Park St, Phoenix, AZ 85041 ",85041,0.7034718990325928,209650,https://www.zillow.com/homedetails/3929-W-Park-St-Phoenix-AZ-85041/55258375_zpid/,33.3802,-112.14399999999999,2017-10-10,2017-10-10
9002820,22740780,"5111 S 245TH Ln, Buckeye, AZ 85326 ",85326,0.7032566070556641,238900,https://www.zillow.com/homedetails/5111-S-245TH-Ln-Buckeye-AZ-85326/95077384_zpid/,33.4,-112.579,2017-10-06,2017-10-06
916045,23798553,"21663 W Hilton Ave, Buckeye, AZ 85326 ",85326,0.7026164531707764,200000,https://www.zillow.com/homedetails/21663-W-Hilton-Ave-Buckeye-AZ-85326/95109894_zpid/,33.4267,-112.516,2017-10-02,2017-10-02
934842,22740754,"25689 W Morning Dove Ct, Buckeye, AZ 85326 ",85326,0.7025007009506226,179000,https://www.zillow.com/homedetails/25689-W-Morning-Dove-Ct-Buckeye-AZ-85326/60997590_zpid/,33.3834,-112.603,2017-10-06,2017-10-06
917776,22730179,"22080 W Yavapai St, Buckeye, AZ 85326 ",85326,0.7023515701293945,189900,https://www.zillow.com/homedetails/22080-W-Yavapai-St-Buckeye-AZ-85326/67803100_zpid/,33.4351,-112.525,2017-09-29,2017-09-29
527019,22747540,"9424 W Pierson St, Phoenix, AZ 85037 ",85037,0.701326847076416,212000,https://www.zillow.com/homedetails/9424-W-Pierson-St-Phoenix-AZ-85037/52423672_zpid/,33.5071,-112.26299999999999,2017-10-10,2017-10-10
917370,23649562,"22017 W Cantilever St, Buckeye, AZ 85326 ",85326,0.7012221217155457,198000,https://www.zillow.com/homedetails/22017-W-Cantilever-St-Buckeye-AZ-85326/62694813_zpid/,33.4478,-112.524,2017-10-13,2017-10-13
933998,23526366,"25594 W St Charles Ct, Buckeye, AZ 85326 ",85326,0.7011202573776245,187900,https://www.zillow.com/homedetails/25594-W-St-Charles-Ct-Buckeye-AZ-85326/71610715_zpid/,33.3863,-112.601,2017-10-11,2017-10-11
9018184,22723649,"222 S 225th Ave, Buckeye, AZ 85326 ",85326,0.7008000612258911,214999,https://www.zillow.com/homedetails/222-S-225th-Ave-Buckeye-AZ-85326/95074692_zpid/,33.4452,-112.536,2017-09-27,2017-09-27
9020505,23526370,"24498 W Atlanta Ave, Buckeye, AZ 85326 ",85326,0.7007821202278137,239900,https://www.zillow.com/homedetails/24498-W-Atlanta-Ave-Buckeye-AZ-85326/95183261_zpid/,33.3998,-112.56299999999999,2017-10-10,2017-10-10
941112,22733516,"595 S 220th Ln, Buckeye, AZ 85326 ",85326,0.7006699442863464,202000,https://www.zillow.com/homedetails/595-S-220th-Ln-Buckeye-AZ-85326/81998097_zpid/,33.4416,-112.525,2017-10-03,2017-10-03
84445,23653302,"19030 E Seagull Dr, Queen Creek, AZ 85142 ",85142,0.7005723714828491,239999,http://www.zillow.com/homedetails/19030-E-Seagull-Dr-Queen-Creek-AZ-85142/81955463_zpid,33.2772,-111.67200000000001,2017-10-12,2017-10-12
912620,22740718,"1682 S 233rd Ave, Buckeye, AZ 85326 ",85326,0.7001515030860901,200000,https://www.zillow.com/homedetails/1682-S-233rd-Ave-Buckeye-AZ-85326/67710768_zpid/,33.4315,-112.551,2017-10-06,2017-10-06
757234,22645875,"4010 E Decatur St, Mesa, AZ 85205 ",85205,0.6993028521537781,210000,https://www.zillow.com/homedetails/4010-E-Decatur-St-Mesa-AZ-85205/7638161_zpid/,33.4267,-111.744,2017-09-09,2017-09-09
795271,22584123,"2546 E Javelina Ave, Mesa, AZ 85204 ",85204,0.6990221738815308,215000,https://www.zillow.com/homedetails/2546-E-Javelina-Ave-Mesa-AZ-85204/7653128_zpid/,33.3803,-111.777,2017-08-26,2017-08-26
432342,22695619,"11108 W Calle Del Sol, Phoenix, AZ 85037 ",85037,0.6989064812660217,189900,https://www.zillow.com/homedetails/11108-W-Calle-Del-Sol-Phoenix-AZ-85037/7477778_zpid/,33.4966,-112.29799999999999,2017-09-13,2017-09-13
195703,22746425,"3256 W Huntington Dr, Phoenix, AZ 85041 ",85041,0.6988123059272766,217900,https://www.zillow.com/homedetails/3256-W-Huntington-Dr-Phoenix-AZ-85041/71601711_zpid/,33.393,-112.12899999999999,2017-10-06,2017-10-06
795306,23796827,"2548 E Inverness Ave, Mesa, AZ 85204 ",85204,0.6985376477241516,217000,https://www.zillow.com/homedetails/2548-E-Inverness-Ave-Mesa-AZ-85204/7652903_zpid/,33.3824,-111.77600000000001,2017-09-28,2017-09-28
9016015,22740735,"22411 W Loma Linda Blvd, Buckeye, AZ 85326 ",85326,0.6983736157417297,218900,https://www.zillow.com/homedetails/22411-W-Loma-Linda-Blvd-Buckeye-AZ-85326/95078578_zpid/,33.4438,-112.53299999999999,2017-10-04,2017-10-04
8997572,22740740,"22413 W Morning Glory St, Buckeye, AZ 85326 ",85326,0.697447657585144,215900,https://www.zillow.com/homedetails/22413-W-Morning-Glory-St-Buckeye-AZ-85326/95129484_zpid/,33.4445,-112.53299999999999,2017-10-04,2017-10-04
8950797,22681415,"2020 E Chicago St, Chandler, AZ 85225 ",85225,0.696915864944458,185000,https://www.zillow.com/homedetails/2020-E-Chicago-St-Chandler-AZ-85225/8204918_zpid/,33.3012,-111.805,2017-09-15,2017-09-15
919776,23649693,"22448 W Adams St, Buckeye, AZ 85326 ",85326,0.6967427134513855,199999,https://www.zillow.com/homedetails/22448-W-Adams-St-Buckeye-AZ-85326/71626239_zpid/,33.4492,-112.53299999999999,2017-10-13,2017-10-13
450214,22642480,"8705 W Roanoke Ave, Phoenix, AZ 85037 ",85037,0.6966601014137268,210000,https://www.zillow.com/homedetails/8705-W-Roanoke-Ave-Phoenix-AZ-85037/7473636_zpid/,33.4784,-112.24700000000001,2017-09-08,2017-09-08
918705,23649564,"22237 W Solano Dr, Buckeye, AZ 85326 ",85326,0.6960365176200867,206000,https://www.zillow.com/homedetails/22237-W-Solano-Dr-Buckeye-AZ-85326/60997169_zpid/,33.4464,-112.529,2017-10-12,2017-10-12
910792,23649534,"1382 S 228th Dr, Buckeye, AZ 85326 ",85326,0.696001410484314,172000,https://www.zillow.com/homedetails/1382-S-228th-Dr-Buckeye-AZ-85326/60997286_zpid/,33.434,-112.542,2017-10-13,2017-10-13
197321,23752558,"402 W Ellis St, Phoenix, AZ 85041 ",85041,0.6954327821731567,149000,https://www.zillow.com/homedetails/402-W-Ellis-St-Phoenix-AZ-85041/7526605_zpid/,33.3798,-112.079,2017-10-13,2017-10-13
794409,22712213,"2428 E Hampton Ave, Mesa, AZ 85204 ",85204,0.6951069831848145,245000,https://www.zillow.com/homedetails/2428-E-Hampton-Ave-Mesa-AZ-85204/7652354_zpid/,33.3906,-111.779,2017-09-23,2017-09-23
928550,22740748,"23979 W Wayland Dr, Buckeye, AZ 85326 ",85326,0.6948521733283997,155000,https://www.zillow.com/homedetails/23979-W-Wayland-Dr-Buckeye-AZ-85326/82827088_zpid/,33.3946,-112.56700000000001,2017-10-05,2017-10-05
767943,22723927,"6205 E Covina St, Mesa, AZ 85205 ",85205,0.6947157979011536,217000,https://www.zillow.com/homedetails/6205-E-Covina-St-Mesa-AZ-85205/7668203_zpid/,33.4244,-111.697,2017-09-26,2017-09-26
63907,22739848,"41330 N Belfair Way, Anthem, AZ 85086 ",85086,0.694216251373291,229900,https://www.zillow.com/homedetails/41330-N-Belfair-Way-Anthem-AZ-85086/55263958_zpid/,33.8602,-112.10700000000001,2017-10-05,2017-10-05
1050469,22700548,"6990 S Senate St, Chandler, AZ 85249 ",85249,0.6938421130180359,230000,https://www.zillow.com/homedetails/6990-S-Senate-St-Chandler-AZ-85249/55274921_zpid/,33.2046,-111.819,2017-09-02,2017-09-02
788356,23802508,"1923 S Windsor, Mesa, AZ 85204 ",85204,0.6929134130477905,243000,https://www.zillow.com/homedetails/1923-S-Windsor-Mesa-AZ-85204/7653196_zpid/,33.3802,-111.77600000000001,2017-10-03,2017-10-03
927227,23649581,"23814 W Wayland Dr, Buckeye, AZ 85326 ",85326,0.6926743388175964,169900,https://www.zillow.com/homedetails/23814-W-Wayland-Dr-Buckeye-AZ-85326/82827005_zpid/,33.3948,-112.56299999999999,2017-10-13,2017-10-13
909759,23527092,"1263 S 220th Dr, Buckeye, AZ 85326 ",85326,0.6926186680793762,199750,https://www.zillow.com/homedetails/1263-S-220th-Dr-Buckeye-AZ-85326/82822502_zpid/,33.4351,-112.524,2017-10-11,2017-10-11
8950768,22737533,"145 S 224TH Ave, Buckeye, AZ 85326 ",85326,0.6923217177391052,206900,https://www.zillow.com/homedetails/145-S-224TH-Ave-Buckeye-AZ-85326/95173887_zpid/,33.449,-112.53299999999999,2017-10-04,2017-10-04
8906433,22747477,"7235 S 17th Dr, Phoenix, AZ 85041 ",85041,0.6922327876091003,219999,https://www.zillow.com/homedetails/7235-S-17th-Dr-Phoenix-AZ-85041/121852817_zpid/,33.3821,-112.096,2017-10-08,2017-10-08
200562,23753399,"6710 S 37th Ln, Phoenix, AZ 85041 ",85041,0.6919724941253662,232500,https://www.zillow.com/homedetails/6710-S-37th-Ln-Phoenix-AZ-85041/71619498_zpid/,33.385999999999996,-112.14,2017-10-13,2017-10-13
192820,22933851,"2307 W Darrel Rd, Phoenix, AZ 85041 ",85041,0.6918452382087708,224900,https://www.zillow.com/homedetails/2307-W-Darrel-Rd-Phoenix-AZ-85041/59272586_zpid/,33.3842,-112.10799999999999,2017-10-10,2017-10-10
1023131,22710161,"1470 E County Down Dr, Chandler, AZ 85249 ",85249,0.691314160823822,239000,https://www.zillow.com/homedetails/1470-E-County-Down-Dr-Chandler-AZ-85249/8227924_zpid/,33.2083,-111.815,2017-09-22,2017-09-22
8991927,22684349,"236 N 56th Pl, Mesa, AZ 85205 ",85205,0.6911513805389404,196990,https://www.zillow.com/homedetails/236-N-56th-Pl-Mesa-AZ-85205/2093059213_zpid/,33.4228,-111.71,2017-09-11,2017-09-11
8985507,22740741,"22416 W Morning Glory St, Buckeye, AZ 85326 ",85326,0.69105064868927,208900,https://www.zillow.com/homedetails/22416-W-Morning-Glory-St-Buckeye-AZ-85326/95150650_zpid/,33.4449,-112.53299999999999,2017-10-04,2017-10-04
9016016,22740736,"22412 W Loma Linda Blvd, Buckeye, AZ 85326 ",85326,0.69105064868927,210900,https://www.zillow.com/homedetails/22412-W-Loma-Linda-Blvd-Buckeye-AZ-85326/95075181_zpid/,33.4442,-112.53299999999999,2017-10-04,2017-10-04
19763,22735101,"758 S Gentry, Mesa, AZ 85204 ",85204,0.6907039284706116,220000,https://www.zillow.com/homedetails/758-S-Gentry-Mesa-AZ-85204/7647069_zpid/,33.382,-111.785,2017-10-03,2017-10-03
4563,22642496,"10831 W Calle Del Sol, Phoenix, AZ 85037 ",85037,0.6906059384346008,189900,https://www.zillow.com/homedetails/10831-W-Calle-Del-Sol-Phoenix-AZ-85037/7477760_zpid/,33.4955,-112.294,2017-09-08,2017-09-08
908216,23649532,"1020 S 226th Ave, Buckeye, AZ 85326 ",85326,0.68918377161026,199000,https://www.zillow.com/homedetails/1020-S-226th-Ave-Buckeye-AZ-85326/81997907_zpid/,33.4374,-112.537,2017-10-12,2017-10-12
917765,23649558,"22073 W Cantilever St, Buckeye, AZ 85326 ",85326,0.6887338757514954,189900,https://www.zillow.com/homedetails/22073-W-Cantilever-St-Buckeye-AZ-85326/62694805_zpid/,33.4479,-112.52600000000001,2017-10-14,2017-10-14
942737,22744934,"7266 S 254th Dr, Buckeye, AZ 85326 ",85326,0.6878019571304321,199000,https://www.zillow.com/homedetails/7266-S-254th-Dr-Buckeye-AZ-85326/95180709_zpid/,33.3805,-112.59899999999999,2017-10-09,2017-10-09
22933,22734467,"8739 W Fairmount Ave, Phoenix, AZ 85037 ",85037,0.6876015067100525,170000,https://www.zillow.com/homedetails/8739-W-Fairmount-Ave-Phoenix-AZ-85037/7471067_zpid/,33.492,-112.24799999999999,2017-10-03,2017-10-03
427675,22730823,"10313 W Calle Del Oro, Phoenix, AZ 85037 ",85037,0.6873847842216492,181800,https://www.zillow.com/homedetails/10313-W-Calle-Del-Oro-Phoenix-AZ-85037/7465875_zpid/,33.5003,-112.28399999999999,2017-09-29,2017-09-29
94610,23802759,"22256 S 214th St, Queen Creek, AZ 85142 ",85142,0.6873751282691956,245000,https://www.zillow.com/homedetails/22256-S-214th-St-Queen-Creek-AZ-85142/60991187_zpid/,33.2458,-111.62100000000001,2017-10-23,2017-10-23
427508,23796730,"10231 W Hazelwood Ave, Phoenix, AZ 85037 ",85037,0.6865511536598206,230000,https://www.zillow.com/homedetails/10231-W-Hazelwood-Ave-Phoenix-AZ-85037/7483962_zpid/,33.5031,-112.28200000000001,2017-10-05,2017-10-05
1687554,22739829,"13318 W Broken Arrow Dr, Sun City West, AZ 85375 ",85375,0.6862276196479797,249900,https://www.zillow.com/homedetails/13318-W-Broken-Arrow-Dr-Sun-City-West-AZ-85375/8120207_zpid/,33.6694,-112.345,2017-10-04,2017-10-04
801715,22703446,"944 E Hampton Ave, Mesa, AZ 85204 ",85204,0.6859590411186218,214000,https://www.zillow.com/homedetails/944-E-Hampton-Ave-Mesa-AZ-85204/92349034_zpid/,33.3899,-111.811,2017-09-21,2017-09-21
1094399,23807763,"808 E Calle Del Norte, Chandler, AZ 85225 ",85225,0.6856655478477478,238000,https://www.zillow.com/homedetails/808-E-Calle-Del-Norte-Chandler-AZ-85225/8182115_zpid/,33.3294,-111.829,2017-10-10,2017-10-10
932135,23649280,"25227 W Jackson Ave, Buckeye, AZ 85326 ",85326,0.6846711039543152,159000,https://www.zillow.com/homedetails/25227-W-Jackson-Ave-Buckeye-AZ-85326/67767347_zpid/,33.3681,-112.594,2017-10-13,2017-10-13
932765,23649585,"25364 W Ellis Dr, Buckeye, AZ 85326 ",85326,0.6843826174736023,181000,https://www.zillow.com/homedetails/25364-W-Ellis-Dr-Buckeye-AZ-85326/95172497_zpid/,33.3795,-112.59700000000001,2017-10-13,2017-10-13
790406,22730235,"1035 E Millett Ave, Mesa, AZ 85204 ",85204,0.683588445186615,247500,https://www.zillow.com/homedetails/1035-E-Millett-Ave-Mesa-AZ-85204/7629863_zpid/,33.3993,-111.809,2017-09-29,2017-09-29
767712,22741019,"6140 E Inglewood St, Mesa, AZ 85205 ",85205,0.6835658550262451,224000,https://www.zillow.com/homedetails/6140-E-Inglewood-St-Mesa-AZ-85205/7676525_zpid/,33.4481,-111.698,2017-10-06,2017-10-06
676537,22677337,"8034 E Neville Ave, Mesa, AZ 85209 ",85209,0.6831313967704773,245000,https://www.zillow.com/homedetails/8034-E-Neville-Ave-Mesa-AZ-85209/8275055_zpid/,33.3674,-111.66,2017-09-12,2017-09-12
657153,22738983,"2056 S Olivewood, Mesa, AZ 85209 ",85209,0.6829575896263123,239000,https://www.zillow.com/homedetails/2056-S-Olivewood-Mesa-AZ-85209/50196479_zpid/,33.3774,-111.601,2017-10-04,2017-10-04
1691370,22687841,"13730 W Utica Dr, Sun City West, AZ 85375 ",85375,0.6827736496925354,189900,https://www.zillow.com/homedetails/13730-W-Utica-Dr-Sun-City-West-AZ-85375/8114586_zpid/,33.6569,-112.35799999999999,2017-09-15,2017-09-15
912957,23649540,"1828 S 238th Ln, Buckeye, AZ 85326 ",85326,0.6824098825454712,227000,https://www.zillow.com/homedetails/1828-S-238th-Ln-Buckeye-AZ-85326/92348987_zpid/,33.4299,-112.565,2017-10-14,2017-10-14
8971411,23526363,"24624 W Sheraton Ln, Buckeye, AZ 85326 ",85326,0.6821153163909912,218900,https://www.zillow.com/homedetails/24624-W-Sheraton-Ln-Buckeye-AZ-85326/95173149_zpid/,33.4007,-112.581,2017-10-10,2017-10-10
770841,22730283,"6637 E Fox Cir, Mesa, AZ 85205 ",85205,0.6820017099380493,249999,https://www.zillow.com/homedetails/6637-E-Fox-Cir-Mesa-AZ-85205/7677787_zpid/,33.4358,-111.68700000000001,2017-09-29,2017-09-29
922312,23649571,"22849 W Hopi St, Buckeye, AZ 85326 ",85326,0.6815093159675598,224900,https://www.zillow.com/homedetails/22849-W-Hopi-St-Buckeye-AZ-85326/67787159_zpid/,33.4296,-112.544,2017-10-13,2017-10-13
9020503,23526372,"24458 W Atlanta Ave, Buckeye, AZ 85326 ",85326,0.6814978718757629,186900,https://www.zillow.com/homedetails/24458-W-Atlanta-Ave-Buckeye-AZ-85326/95174141_zpid/,33.3998,-112.56299999999999,2017-10-10,2017-10-10
9006473,23649603,"8 N 226th Ln, Buckeye, AZ 85326 ",85326,0.6814894676208496,185000,https://www.zillow.com/homedetails/8-N-226th-Ln-Buckeye-AZ-85326/71626208_zpid/,33.4475,-112.539,2017-10-14,2017-10-14
13631,22747292,"2627 W Novak Way, Phoenix, AZ 85041 ",85041,0.6810812950134277,230000,https://www.zillow.com/homedetails/2627-W-Novak-Way-Phoenix-AZ-85041/62727584_zpid/,33.3888,-112.116,2017-10-09,2017-10-09
1859,23650472,"9128 W Alvarado St, Phoenix, AZ 85037 ",85037,0.6809831857681274,214000,https://www.zillow.com/homedetails/9128-W-Alvarado-St-Phoenix-AZ-85037/60047210_zpid/,33.4712,-112.257,2017-10-12,2017-10-12
9021177,23755425,"206 E Maricopa Rd, Buckeye, AZ 85326 ",85326,0.6807729601860046,57500,https://www.zillow.com/homedetails/206-E-Maricopa-Rd-Buckeye-AZ-85326/2092372167_zpid/,33.3848,-112.58,2017-10-18,2017-10-18
933822,23649587,"25571 W St James Ave, Buckeye, AZ 85326 ",85326,0.680693507194519,192500,https://www.zillow.com/homedetails/25571-W-St-James-Ave-Buckeye-AZ-85326/71610718_zpid/,33.3871,-112.601,2017-10-13,2017-10-13
1703229,22711355,"18622 N Mica Dr, Sun City West, AZ 85375 ",85375,0.6801746487617493,169900,https://www.zillow.com/homedetails/18622-N-Mica-Dr-Sun-City-West-AZ-85375/8109099_zpid/,33.653,-112.351,2017-09-20,2017-09-20
936873,23796842,"25847 W Hilton Ave, Buckeye, AZ 85326 ",85326,0.6799401640892029,235000,https://www.zillow.com/homedetails/25847-W-Hilton-Ave-Buckeye-AZ-85326/81997200_zpid/,33.4264,-112.60700000000001,2017-10-13,2017-10-13
1199585,22731289,"945 W Cantebria Dr, Gilbert, AZ 85233 ",85233,0.679650604724884,249900,https://www.zillow.com/homedetails/945-W-Cantebria-Dr-Gilbert-AZ-85233/8181022_zpid/,33.3336,-111.811,2017-09-28,2017-09-28
435581,22732846,"2207 N 87th Dr, Phoenix, AZ 85037 ",85037,0.6793723702430725,184900,https://www.zillow.com/homedetails/2207-N-87th-Dr-Phoenix-AZ-85037/7487726_zpid/,33.4706,-112.24700000000001,2017-09-30,2017-09-30
911663,22744929,"155 S 229th Dr, Buckeye, AZ 85326 ",85326,0.6791814565658569,199900,https://www.zillow.com/homedetails/155-S-229th-Dr-Buckeye-AZ-85326/67711084_zpid/,33.4459,-112.544,2017-10-09,2017-10-09
942094,23526381,"6929 S 251st Dr, Buckeye, AZ 85326 ",85326,0.6788596510887146,189000,https://www.zillow.com/homedetails/6929-S-251st-Dr-Buckeye-AZ-85326/95093751_zpid/,33.3836,-112.59200000000001,2017-10-10,2017-10-10
918970,22742993,"22271 W Mesquite Dr, Buckeye, AZ 85326 ",85326,0.6788319945335388,170000,https://www.zillow.com/homedetails/22271-W-Mesquite-Dr-Buckeye-AZ-85326/60997008_zpid/,33.4486,-112.53,2017-10-07,2017-10-07
789169,22738955,"1420 E Edgewood Ave, Mesa, AZ 85204 ",85204,0.6783758401870728,229900,https://www.zillow.com/homedetails/1420-E-Edgewood-Ave-Mesa-AZ-85204/7627021_zpid/,33.4002,-111.8,2017-10-05,2017-10-05
933412,23526365,"25535 W Superior Ave, Buckeye, AZ 85326 ",85326,0.677866518497467,187900,https://www.zillow.com/homedetails/25535-W-Superior-Ave-Buckeye-AZ-85326/67787232_zpid/,33.4155,-112.6,2017-10-11,2017-10-11
942415,22692769,"713 E Edison Ave, Buckeye, AZ 85326 ",85326,0.6778233647346497,168500,https://www.zillow.com/homedetails/713-E-Edison-Ave-Buckeye-AZ-85326/8286581_zpid/,33.3723,-112.581,2017-09-19,2017-09-19
9021603,23794761,"20131 W Tonto St, Buckeye, AZ 85326 ",85326,0.6774529218673706,214459,https://www.zillow.com/homedetails/20131-W-Tonto-St-Buckeye-AZ-85326/95179836_zpid/,33.4367,-112.492,2017-10-08,2017-10-08
8986570,23526362,"24580 W Sheraton Ln, Buckeye, AZ 85326 ",85326,0.6762890815734863,208900,https://www.zillow.com/homedetails/24580-W-Sheraton-Ln-Buckeye-AZ-85326/95151159_zpid/,33.4007,-112.58,2017-10-10,2017-10-10
801140,22651109,"920 S Fraser Cir, Mesa, AZ 85204 ",85204,0.6762160062789917,212900,https://www.zillow.com/homedetails/920-S-Fraser-Cir-Mesa-AZ-85204/7629698_zpid/,33.3983,-111.81200000000001,2017-09-06,2017-09-06
95607,23806949,"22646 S 208th St, Queen Creek, AZ 85142 ",85142,0.6759932637214661,219000,https://www.zillow.com/homedetails/22646-S-208th-St-Queen-Creek-AZ-85142/59260574_zpid/,33.2424,-111.632,2017-10-25,2017-10-25
786487,22634118,"1445 E Edgewood Ave, Mesa, AZ 85204 ",85204,0.6753372550010681,235000,https://www.zillow.com/homedetails/1445-E-Edgewood-Ave-Mesa-AZ-85204/7627045_zpid/,33.3998,-111.8,2017-09-04,2017-09-04
923949,23649574,"23168 W Arrow Dr, Buckeye, AZ 85326 ",85326,0.674899697303772,225000,https://www.zillow.com/homedetails/23168-W-Arrow-Dr-Buckeye-AZ-85326/67769393_zpid/,33.4367,-112.54899999999999,2017-10-13,2017-10-13
448364,23512346,"8402 W Fairmount Ave, Phoenix, AZ 85037 ",85037,0.6740401387214661,170000,https://www.zillow.com/homedetails/8402-W-Fairmount-Ave-Phoenix-AZ-85037/7470144_zpid/,33.4902,-112.24,2017-10-10,2017-10-10
940268,22744936,"5418 S 236th Ave, Buckeye, AZ 85326 ",85326,0.6735904216766357,204900,https://www.zillow.com/homedetails/5418-S-236th-Ave-Buckeye-AZ-85326/82828834_zpid/,33.3972,-112.559,2017-10-09,2017-10-09
772780,23796870,"4936 E Halifax St, Mesa, AZ 85205 ",85205,0.6726840734481812,234900,https://www.zillow.com/homedetails/4936-E-Halifax-St-Mesa-AZ-85205/7660011_zpid/,33.4433,-111.72399999999999,2017-10-11,2017-10-11
448906,22738625,"8455 W Devonshire Ave, Phoenix, AZ 85037 ",85037,0.672469973564148,169900,https://www.zillow.com/homedetails/8455-W-Devonshire-Ave-Phoenix-AZ-85037/7466636_zpid/,33.4958,-112.242,2017-09-29,2017-09-29
8962074,23526364,"24635 W Romley Rd, Buckeye, AZ 85326 ",85326,0.671613872051239,206900,https://www.zillow.com/homedetails/24635-W-Romley-Rd-Buckeye-AZ-85326/95098538_zpid/,33.400999999999996,-112.581,2017-10-10,2017-10-10
8945994,23526379,"5096 S 245TH Dr, Buckeye, AZ 85326 ",85326,0.671613872051239,206900,https://www.zillow.com/homedetails/5096-S-245TH-Dr-Buckeye-AZ-85326/95089461_zpid/,33.4002,-112.579,2017-10-10,2017-10-10
941083,23649602,"5933 S 249th Dr, Buckeye, AZ 85326 ",85326,0.6710759997367859,185000,https://www.zillow.com/homedetails/5933-S-249th-Dr-Buckeye-AZ-85326/81984949_zpid/,33.3929,-112.587,2017-10-14,2017-10-14
914054,23526354,"19389 W Monroe St, Buckeye, AZ 85326 ",85326,0.6697908043861389,210000,https://www.zillow.com/homedetails/19389-W-Monroe-St-Buckeye-AZ-85326/88788500_zpid/,33.4488,-112.476,2017-10-09,2017-10-09
95571,23796722,"22624 S 208th St, Queen Creek, AZ 85142 ",85142,0.6675195693969727,223900,http://www.zillow.com/homedetails/22624-S-208th-St-Queen-Creek-AZ-85142/59260575_zpid,33.2426,-111.632,2017-10-16,2017-10-16
806813,22712221,"857 S 33rd Pl, Mesa, AZ 85204 ",85204,0.6667764186859131,229900,https://www.zillow.com/homedetails/857-S-33rd-Pl-Mesa-AZ-85204/7648164_zpid/,33.3994,-111.759,2017-09-23,2017-09-23
450692,23753402,"8742 W Edgemont Ave, Phoenix, AZ 85037 ",85037,0.6664837002754211,190000,https://www.zillow.com/homedetails/8742-W-Edgemont-Ave-Phoenix-AZ-85037/7473770_zpid/,33.4794,-112.249,2017-10-12,2017-10-12
190057,23755307,"1405 W Fremont Rd, Phoenix, AZ 85041 ",85041,0.6661266088485718,195000,https://www.zillow.com/homedetails/1405-W-Fremont-Rd-Phoenix-AZ-85041/64764179_zpid/,33.3811,-112.09,2017-10-17,2017-10-17
430477,22747622,"10841 W Elm St, Phoenix, AZ 85037 ",85037,0.6656993627548218,219900,https://www.zillow.com/homedetails/10841-W-Elm-St-Phoenix-AZ-85037/81988279_zpid/,33.5053,-112.294,2017-10-10,2017-10-10
8996690,23526380,"5095 S 245TH Ln, Buckeye, AZ 85326 ",85326,0.6648364067077637,184900,https://www.zillow.com/homedetails/5095-S-245TH-Ln-Buckeye-AZ-85326/95160824_zpid/,33.4002,-112.579,2017-10-10,2017-10-10
937092,22744807,"25860 W Elizabeth Ave, Buckeye, AZ 85326 ",85326,0.6643763780593872,188500,https://www.zillow.com/homedetails/25860-W-Elizabeth-Ave-Buckeye-AZ-85326/81993372_zpid/,33.4271,-112.60700000000001,2017-10-09,2017-10-09
528633,22730918,"9966 W Monterosa Ave, Phoenix, AZ 85037 ",85037,0.6643694043159485,165000,https://www.zillow.com/homedetails/9966-W-Monterosa-Ave-Phoenix-AZ-85037/7484629_zpid/,33.4961,-112.27600000000001,2017-09-30,2017-09-30
1095696,23807878,"856 W Monterey St, Chandler, AZ 85225 ",85225,0.6616915464401245,243900,https://www.zillow.com/homedetails/856-W-Monterey-St-Chandler-AZ-85225/8186284_zpid/,33.315,-111.85700000000001,2017-10-08,2017-10-08
449920,23756347,"8630 W Osborn Rd, Phoenix, AZ 85037 ",85037,0.6616690158843994,195000,https://www.zillow.com/homedetails/8630-W-Osborn-Rd-Phoenix-AZ-85037/7469964_zpid/,33.4873,-112.245,2017-10-14,2017-10-14
9001852,22740739,"22395 W Loma Linda Cir, Buckeye, AZ 85326 ",85326,0.6608486175537109,186900,https://www.zillow.com/homedetails/22395-W-Loma-Linda-Cir-Buckeye-AZ-85326/95165880_zpid/,33.4438,-112.53200000000001,2017-10-04,2017-10-04
9016013,22737532,"22406 W Loma Linda Blvd, Buckeye, AZ 85326 ",85326,0.6608486175537109,186900,https://www.zillow.com/homedetails/22406-W-Loma-Linda-Blvd-Buckeye-AZ-85326/95073833_zpid/,33.4442,-112.53299999999999,2017-10-04,2017-10-04
137679,23648840,"19847 N Greenview Dr, Sun City West, AZ 85375 ",85375,0.6608288884162903,173000,https://www.zillow.com/homedetails/19847-N-Greenview-Dr-Sun-City-West-AZ-85375/8119696_zpid/,33.6656,-112.36,2017-10-13,2017-10-13
566159,23526514,"10152 E Isleta Ave, Mesa, AZ 85209 ",85209,0.6597339510917664,197000,https://www.zillow.com/homedetails/10152-E-Isleta-Ave-Mesa-AZ-85209/67792287_zpid/,33.3859,-111.61200000000001,2017-10-11,2017-10-11
431638,22678252,"10935 W Montecito Ave, Phoenix, AZ 85037 ",85037,0.6595438718795776,150000,https://www.zillow.com/homedetails/10935-W-Montecito-Ave-Phoenix-AZ-85037/7477548_zpid/,33.4977,-112.296,2017-09-14,2017-09-14
8966382,22740737,"22405 W Morning Glory St, Buckeye, AZ 85326 ",85326,0.6582357883453369,199900,https://www.zillow.com/homedetails/22405-W-Morning-Glory-St-Buckeye-AZ-85326/95076215_zpid/,33.4446,-112.53200000000001,2017-10-04,2017-10-04
9016014,22740738,"22410 W Morning Glory St, Buckeye, AZ 85326 ",85326,0.6582357883453369,199900,https://www.zillow.com/homedetails/22410-W-Morning-Glory-St-Buckeye-AZ-85326/95134990_zpid/,33.4449,-112.53299999999999,2017-10-04,2017-10-04
1710613,22745468,"23200 N Toro Ct, Sun City West, AZ 85375 ",85375,0.6538968086242676,244900,https://www.zillow.com/homedetails/23200-N-Toro-Ct-Sun-City-West-AZ-85375/8121954_zpid/,33.6948,-112.368,2017-10-07,2017-10-07
1679066,22694370,"12326 W Westgate Dr, Sun City West, AZ 85375 ",85375,0.6533592939376831,178000,https://www.zillow.com/homedetails/12326-W-Westgate-Dr-Sun-City-West-AZ-85375/8112139_zpid/,33.6405,-112.32700000000001,2017-09-20,2017-09-20
138821,22592606,"22516 N Twin Buttes Dr, Sun City West, AZ 85375 ",85375,0.6527594923973083,224900,https://www.zillow.com/homedetails/22516-N-Twin-Buttes-Dr-Sun-City-West-AZ-85375/8120540_zpid/,33.6891,-112.355,2017-08-28,2017-08-28
427546,22737778,"10238 W Monterosa St, Phoenix, AZ 85037 ",85037,0.652285635471344,210000,https://www.zillow.com/homedetails/10238-W-Monterosa-St-Phoenix-AZ-85037/7483974_zpid/,33.4953,-112.281,2017-09-30,2017-09-30
62441,23805728,"39523 N Prairie Ln, Anthem, AZ 85086 ",85086,0.6519909501075745,234900,https://www.zillow.com/homedetails/39523-N-Prairie-Ln-Anthem-AZ-85086/64894781_zpid/,33.8439,-112.096,2017-10-24,2017-10-24
1081678,22681699,"265 N Exeter St, Chandler, AZ 85225 ",85225,0.6503084301948547,159900,https://www.zillow.com/homedetails/265-N-Exeter-St-Chandler-AZ-85225/8187706_zpid/,33.3073,-111.835,2017-09-15,2017-09-15
911099,23649541,"1440 S 222nd Ln, Buckeye, AZ 85326 ",85326,0.6502504944801331,198000,https://www.zillow.com/homedetails/1440-S-222nd-Ln-Buckeye-AZ-85326/67799797_zpid/,33.4335,-112.53,2017-10-14,2017-10-14
675025,23794850,"7921 E Hampton Ave, Mesa, AZ 85209 ",85209,0.6500787138938904,219500,https://www.zillow.com/homedetails/7921-E-Hampton-Ave-Mesa-AZ-85209/59267751_zpid/,33.3897,-111.66,2017-10-22,2017-10-22
928164,23756406,"23930 W Lasso Ln, Buckeye, AZ 85326 ",85326,0.6495876312255859,229900,https://www.zillow.com/homedetails/23930-W-Lasso-Ln-Buckeye-AZ-85326/61631234_zpid/,33.4398,-112.566,2017-10-19,2017-10-19
772099,22694976,"149 N 63rd St, Mesa, AZ 85205 ",85205,0.649467945098877,219000,https://www.zillow.com/homedetails/149-N-63rd-St-Mesa-AZ-85205/7666772_zpid/,33.4189,-111.695,2017-09-20,2017-09-20
127586,23752286,"14218 W Territorial Ln, Sun City West, AZ 85375 ",85375,0.6462717652320862,182000,https://www.zillow.com/homedetails/14218-W-Territorial-Ln-Sun-City-West-AZ-85375/8121191_zpid/,33.6883,-112.367,2017-10-14,2017-10-14
1687085,22541200,"13271 W Countryside Dr, Sun City West, AZ 85375 ",85375,0.6454669833183289,165890,https://www.zillow.com/homedetails/13271-W-Countryside-Dr-Sun-City-West-AZ-85375/8119178_zpid/,33.6534,-112.351,2017-08-18,2017-08-18
1697150,23552610,"14724 W Gunsight Dr, Sun City West, AZ 85375 ",85375,0.6445939540863037,218000,https://www.zillow.com/homedetails/14724-W-Gunsight-Dr-Sun-City-West-AZ-85375/8123932_zpid/,33.6872,-112.37799999999999,2017-10-13,2017-10-13
7963,23796725,"10017 E Watford Way, Sun Lakes, AZ 85248 ",85248,0.6437666416168213,242900,https://www.zillow.com/homedetails/10017-E-Watford-Way-Sun-Lakes-AZ-85248/8221796_zpid/,33.2083,-111.865,2017-09-17,2017-09-17
784962,23758228,"1064 S Lazona Dr, Mesa, AZ 85204 ",85204,0.643535315990448,234900,https://www.zillow.com/homedetails/1064-S-Lazona-Dr-Mesa-AZ-85204/7627193_zpid/,33.3953,-111.802,2017-10-20,2017-10-20
192627,22711817,"223 W Harwell Rd, Phoenix, AZ 85041 ",85041,0.6426779627799988,159900,https://www.zillow.com/homedetails/223-W-Harwell-Rd-Phoenix-AZ-85041/8131549_zpid/,33.3763,-112.07799999999999,2017-09-22,2017-09-22
801010,23793874,"901 E Harmony Ave, Mesa, AZ 85204 ",85204,0.6421735882759094,249900,https://www.zillow.com/homedetails/901-E-Harmony-Ave-Mesa-AZ-85204/7629354_zpid/,33.3887,-111.81200000000001,2017-10-15,2017-10-15
449105,22604243,"8515 W College Dr, Phoenix, AZ 85037 ",85037,0.6419908404350281,162950,https://www.zillow.com/homedetails/8515-W-College-Dr-Phoenix-AZ-85037/7483595_zpid/,33.5081,-112.243,2017-09-02,2017-09-02
122436,22687837,"12730 W Allegro Dr, Sun City West, AZ 85375 ",85375,0.6401448845863342,217000,https://www.zillow.com/homedetails/12730-W-Allegro-Dr-Sun-City-West-AZ-85375/8110193_zpid/,33.6626,-112.331,2017-09-14,2017-09-14
795678,23796850,"2647 E Holmes Ave, Mesa, AZ 85204 ",85204,0.6400817632675171,219996,https://www.zillow.com/homedetails/2647-E-Holmes-Ave-Mesa-AZ-85204/7652159_zpid/,33.389,-111.77600000000001,2017-10-16,2017-10-16
756261,22698087,"243 N 58th St, Mesa, AZ 85205 ",85205,0.6388741731643677,230000,https://www.zillow.com/homedetails/243-N-58th-St-Mesa-AZ-85205/7663432_zpid/,33.4204,-111.706,2017-09-14,2017-09-14
1214451,23756808,"1438 E Laurel Ave, Gilbert, AZ 85234 ",85234,0.638861358165741,249000,https://www.zillow.com/homedetails/1438-E-Laurel-Ave-Gilbert-AZ-85234/8235767_zpid/,33.3609,-111.758,2017-10-19,2017-10-19
674373,22686863,"7845 E Lindner Ave, Mesa, AZ 85209 ",85209,0.6374478936195374,217500,https://www.zillow.com/homedetails/7845-E-Lindner-Ave-Mesa-AZ-85209/8229796_zpid/,33.3766,-111.665,2017-09-17,2017-09-17
9020923,23752544,"22 W Harwell Rd, Phoenix, AZ 85041 ",85041,0.6369721293449402,149900,https://www.zillow.com/homedetails/22-W-Harwell-Rd-Phoenix-AZ-85041/8131606_zpid/,33.3765,-112.074,2017-10-12,2017-10-12
308763,23796420,"40919 N Citrus Canyon Trl, Anthem, AZ 85086 ",85086,0.6368719339370728,246999,https://www.zillow.com/homedetails/40919-N-Citrus-Canyon-Trl-Anthem-AZ-85086/61501862_zpid/,33.8562,-112.11200000000001,2017-10-23,2017-10-23
202983,22736991,"9216 S 7th Ave, Phoenix, AZ 85041 ",85041,0.6368376612663269,193750,https://www.zillow.com/homedetails/9216-S-7th-Ave-Phoenix-AZ-85041/8132490_zpid/,33.3626,-112.084,2017-09-05,2017-09-05
803891,22744382,"2131 E Forge Ave, Mesa, AZ 85204 ",85204,0.6367250680923462,219500,https://www.zillow.com/homedetails/2131-E-Forge-Ave-Mesa-AZ-85204/7647589_zpid/,33.3961,-111.785,2017-10-07,2017-10-07
1255101,23757873,"1712 E Los Alamos St, Gilbert, AZ 85295 ",85295,0.6366859674453735,236000,https://www.zillow.com/homedetails/1712-E-Los-Alamos-St-Gilbert-AZ-85295/8243548_zpid/,33.3151,-111.75299999999999,2017-10-19,2017-10-19
451837,22734450,"8819 W Glenrosa Ave, Phoenix, AZ 85037 ",85037,0.6362361311912537,160000,https://www.zillow.com/homedetails/8819-W-Glenrosa-Ave-Phoenix-AZ-85037/7467131_zpid/,33.4979,-112.25,2017-10-02,2017-10-02
1090459,23760160,"631 W Caroline Ln, Chandler, AZ 85225 ",85225,0.636218249797821,234900,https://www.zillow.com/homedetails/631-W-Caroline-Ln-Chandler-AZ-85225/8183658_zpid/,33.3304,-111.851,2017-10-20,2017-10-20
8981869,23796878,"5955 E Colby St, Mesa, AZ 85205 ",85205,0.635891318321228,182500,https://www.zillow.com/homedetails/5955-E-Colby-St-Mesa-AZ-85205/2093297884_zpid/,33.4258,-111.70200000000001,2017-09-29,2017-09-29
671334,22723933,"7441 E Irwin Ave, Mesa, AZ 85209 ",85209,0.6357256174087524,195900,https://www.zillow.com/homedetails/7441-E-Irwin-Ave-Mesa-AZ-85209/8074681_zpid/,33.3836,-111.67200000000001,2017-09-27,2017-09-27
1265373,23759387,"3012 E Megan St, Gilbert, AZ 85295 ",85295,0.6337054371833801,239000,https://www.zillow.com/homedetails/3012-E-Megan-St-Gilbert-AZ-85295/81982561_zpid/,33.3209,-111.725,2017-10-20,2017-10-20
122952,22735732,"12915 W Prospect Dr, Sun City West, AZ 85375 ",85375,0.6334311962127686,179900,https://www.zillow.com/homedetails/12915-W-Prospect-Dr-Sun-City-West-AZ-85375/8109287_zpid/,33.6531,-112.337,2017-09-27,2017-09-27
672294,23805359,"7533 E Nido Ave, Mesa, AZ 85209 ",85209,0.6332443356513977,230000,https://www.zillow.com/homedetails/7533-E-Nido-Ave-Mesa-AZ-85209/8274092_zpid/,33.3691,-111.67200000000001,2017-10-24,2017-10-24
798763,22602017,"461 S Forest, Mesa, AZ 85204 ",85204,0.6332125067710876,185000,https://www.zillow.com/homedetails/461-S-Forest-Mesa-AZ-85204/7626307_zpid/,33.4063,-111.792,2017-08-30,2017-08-30
674996,22746729,"7923 E Kiowa Ave, Mesa, AZ 85209 ",85209,0.6318989396095276,245800,https://www.zillow.com/homedetails/7923-E-Kiowa-Ave-Mesa-AZ-85209/8229814_zpid/,33.3758,-111.663,2017-10-10,2017-10-10
95110,23796720,"22378 E Via Del Palo, Queen Creek, AZ 85142 ",85142,0.6318597793579102,229900,http://www.zillow.com/homedetails/22378-E-Via-Del-Palo-Queen-Creek-AZ-85142/67772116_zpid,33.2347,-111.601,2017-10-15,2017-10-15
913352,23797227,"19020 W Culver St, Buckeye, AZ 85326 ",85326,0.6317363381385803,215000,https://www.zillow.com/homedetails/19020-W-Culver-St-Buckeye-AZ-85326/8308228_zpid/,33.4613,-112.469,2017-09-22,2017-09-22
193415,22698056,"242 W Tamarisk St, Phoenix, AZ 85041 ",85041,0.6307809948921204,200000,https://www.zillow.com/homedetails/242-W-Tamarisk-St-Phoenix-AZ-85041/81981841_zpid/,33.4043,-112.07700000000001,2017-09-19,2017-09-19
191628,23798460,"2002 W Carson Rd, Phoenix, AZ 85041 ",85041,0.6306344270706177,249900,https://www.zillow.com/homedetails/2002-W-Carson-Rd-Phoenix-AZ-85041/67781919_zpid/,33.3828,-112.101,2017-10-19,2017-10-19
197368,23806032,"4025 W Carter Rd, Phoenix, AZ 85041 ",85041,0.6301689743995667,178000,https://www.zillow.com/homedetails/4025-W-Carter-Rd-Phoenix-AZ-85041/55258568_zpid/,33.3818,-112.146,2017-10-25,2017-10-25
1085968,23756230,"361 S Williams Pl, Chandler, AZ 85225 ",85225,0.6292539238929749,238000,https://www.zillow.com/homedetails/361-S-Williams-Pl-Chandler-AZ-85225/8205921_zpid/,33.2985,-111.825,2017-10-17,2017-10-17
191566,23796776,"1919 W Nancy Ln, Phoenix, AZ 85041 ",85041,0.6291705965995789,216900,https://www.zillow.com/homedetails/1919-W-Nancy-Ln-Phoenix-AZ-85041/63158425_zpid/,33.39,-112.1,2017-10-23,2017-10-23
441965,22659382,"4022 N 88th Ln, Phoenix, AZ 85037 ",85037,0.6290518045425415,165000,https://www.zillow.com/homedetails/4022-N-88th-Ln-Phoenix-AZ-85037/7470881_zpid/,33.4932,-112.25,2017-09-09,2017-09-09
1235311,23756862,"4707 E Laurel Ave, Gilbert, AZ 85234 ",85234,0.6282773017883301,199900,https://www.zillow.com/homedetails/4707-E-Laurel-Ave-Gilbert-AZ-85234/71608462_zpid/,33.3608,-111.69,2017-10-19,2017-10-19
441880,23756236,"3901 N 84th Ln, Phoenix, AZ 85037 ",85037,0.6279814839363098,179000,https://www.zillow.com/homedetails/3901-N-84th-Ln-Phoenix-AZ-85037/67081706_zpid/,33.4925,-112.241,2017-10-11,2017-10-11
1681133,23526866,"12615 W Rampart Dr, Sun City West, AZ 85375 ",85375,0.6270664930343628,240000,https://www.zillow.com/homedetails/12615-W-Rampart-Dr-Sun-City-West-AZ-85375/8111814_zpid/,33.6481,-112.333,2017-10-11,2017-10-11
1695693,23526871,"14514 W Las Brizas Ln, Sun City West, AZ 85375 ",85375,0.6266915202140808,197000,https://www.zillow.com/homedetails/14514-W-Las-Brizas-Ln-Sun-City-West-AZ-85375/8121880_zpid/,33.6936,-112.374,2017-10-11,2017-10-11
653764,23758256,"1316 S Providence Cir, Mesa, AZ 85209 ",85209,0.6264540553092957,223900,https://www.zillow.com/homedetails/1316-S-Providence-Cir-Mesa-AZ-85209/59267687_zpid/,33.3912,-111.633,2017-10-20,2017-10-20
199172,22625388,"5647 S 14th Ave, Phoenix, AZ 85041 ",85041,0.6260073781013489,170000,https://www.zillow.com/homedetails/5647-S-14th-Ave-Phoenix-AZ-85041/7504224_zpid/,33.3941,-112.089,2017-09-05,2017-09-05
199963,23796882,"6239 S 21st Dr, Phoenix, AZ 85041 ",85041,0.6259655952453613,222000,https://www.zillow.com/homedetails/6239-S-21st-Dr-Phoenix-AZ-85041/59272617_zpid/,33.3889,-112.104,2017-10-23,2017-10-23
302851,23796617,"2353 W Owens Ct, Anthem, AZ 85086 ",85086,0.6253195405006409,229900,https://www.zillow.com/homedetails/2353-W-Owens-Ct-Anthem-AZ-85086/59424840_zpid/,33.8499,-112.111,2017-10-24,2017-10-24
925288,23756395,"23425 W Harrison Dr, Buckeye, AZ 85326 ",85326,0.6250023245811462,204000,https://www.zillow.com/homedetails/23425-W-Harrison-Dr-Buckeye-AZ-85326/67779718_zpid/,33.4308,-112.555,2017-10-19,2017-10-19
9020044,22741467,"15214 W Sky Hawk Dr, Sun City West, AZ 85375 ",85375,0.624932587146759,239000,https://www.zillow.com/homedetails/15214-W-Sky-Hawk-Dr-Sun-City-West-AZ-85375/8118918_zpid/,33.6731,-112.382,2017-10-06,2017-10-06
676888,23758275,"8111 E Idaho Ave, Mesa, AZ 85209 ",85209,0.6247224807739258,157500,https://www.zillow.com/homedetails/8111-E-Idaho-Ave-Mesa-AZ-85209/8076857_zpid/,33.3848,-111.656,2017-10-20,2017-10-20
1273564,23806482,"4489 E Harrison St, Gilbert, AZ 85295 ",85295,0.6243842244148254,225500,https://www.zillow.com/homedetails/4489-E-Harrison-St-Gilbert-AZ-85295/60987715_zpid/,33.3164,-111.694,2017-10-25,2017-10-25
308654,23759879,"40749 N Citrus Canyon Trl, Anthem, AZ 85086 ",85086,0.624343752861023,222500,https://www.zillow.com/homedetails/40749-N-Citrus-Canyon-Trl-Anthem-AZ-85086/61278849_zpid/,33.8538,-112.113,2017-10-21,2017-10-21
7441168,22821755,"14231 W Summerstar Dr, Sun City West, AZ 85375 ",85375,0.6241335272789001,245000,https://www.zillow.com/homedetails/14231-W-Summerstar-Dr-Sun-City-West-AZ-85375/8115163_zpid/,33.6556,-112.369,2017-10-10,2017-10-10
121501,23551873,"12311 W Firebird Dr, Sun City West, AZ 85375 ",85375,0.6238154768943787,209900,https://www.zillow.com/homedetails/12311-W-Firebird-Dr-Sun-City-West-AZ-85375/8114926_zpid/,33.6769,-112.32700000000001,2017-10-13,2017-10-13
1686468,22725967,"13231 W Pomegranate Dr, Sun City West, AZ 85375 ",85375,0.6237021684646606,184900,https://www.zillow.com/homedetails/13231-W-Pomegranate-Dr-Sun-City-West-AZ-85375/8108146_zpid/,33.6579,-112.34100000000001,2017-09-27,2017-09-27
798291,22546527,"3562 E Pueblo Ave, Mesa, AZ 85204 ",85204,0.6229076981544495,248000,https://www.zillow.com/homedetails/3562-E-Pueblo-Ave-Mesa-AZ-85204/7645501_zpid/,33.4012,-111.75399999999999,2017-08-06,2017-08-06
1548013,22681597,"25254 S Lakeway Dr, Sun Lakes, AZ 85248 ",85248,0.6214814186096191,227900,https://www.zillow.com/homedetails/25254-S-Lakeway-Dr-Sun-Lakes-AZ-85248/8220856_zpid/,33.2165,-111.882,2017-09-15,2017-09-15
195942,23806016,"3334 W Fraktur Rd, Phoenix, AZ 85041 ",85041,0.6209598183631897,219400,https://www.zillow.com/homedetails/3334-W-Fraktur-Rd-Phoenix-AZ-85041/67781582_zpid/,33.3954,-112.13,2017-10-25,2017-10-25
927877,23755437,"23875 W Desert Bloom St, Buckeye, AZ 85326 ",85326,0.620614230632782,185000,https://www.zillow.com/homedetails/23875-W-Desert-Bloom-St-Buckeye-AZ-85326/61631131_zpid/,33.4363,-112.565,2017-10-18,2017-10-18
1199971,23756869,"969 W Hudson Way, Gilbert, AZ 85233 ",85233,0.6204561591148376,225000,https://www.zillow.com/homedetails/969-W-Hudson-Way-Gilbert-AZ-85233/8173130_zpid/,33.3728,-111.81299999999999,2017-10-19,2017-10-19
200543,22747451,"6646 S 5th Ave, Phoenix, AZ 85041 ",85041,0.6203407645225525,179900,https://www.zillow.com/homedetails/6646-S-5th-Ave-Phoenix-AZ-85041/7526025_zpid/,33.3852,-112.08,2017-10-10,2017-10-10
1686562,23555130,"13235 W Kodiak Dr, Sun City West, AZ 85375 ",85375,0.61976158618927,227900,https://www.zillow.com/homedetails/13235-W-Kodiak-Dr-Sun-City-West-AZ-85375/8110933_zpid/,33.6501,-112.346,2017-10-12,2017-10-12
8992031,22722532,"9502 E Fairway Blvd, Sun Lakes, AZ 85248 ",85248,0.6193829774856567,184000,https://www.zillow.com/homedetails/9502-E-Fairway-Blvd-Sun-Lakes-AZ-85248/8220797_zpid/,33.2079,-111.87899999999999,2017-09-26,2017-09-26
9000803,23796894,"755 E 8th Ave, Mesa, AZ 85204 ",85204,0.6180840134620667,179900,https://www.zillow.com/homedetails/755-E-8th-Ave-Mesa-AZ-85204/7630963_zpid/,33.4006,-111.815,2017-10-20,2017-10-20
202681,23800136,"8311 S 23rd Dr, Phoenix, AZ 85041 ",85041,0.617784321308136,207900,https://www.zillow.com/homedetails/8311-S-23rd-Dr-Phoenix-AZ-85041/95111121_zpid/,33.3714,-112.109,2017-10-17,2017-10-17
657701,22746731,"2103 S Primrose, Mesa, AZ 85209 ",85209,0.6175905466079712,199900,https://www.zillow.com/homedetails/2103-S-Primrose-Mesa-AZ-85209/8230007_zpid/,33.3773,-111.656,2017-10-10,2017-10-10
674210,22739114,"7830 E Lindner Ave, Mesa, AZ 85209 ",85209,0.6173837780952454,239900,https://www.zillow.com/homedetails/7830-E-Lindner-Ave-Mesa-AZ-85209/8229774_zpid/,33.376999999999995,-111.665,2017-10-04,2017-10-04
799546,23799665,"558 E Gable Ave, Mesa, AZ 85204 ",85204,0.6171063780784607,199900,https://www.zillow.com/homedetails/558-E-Gable-Ave-Mesa-AZ-85204/7628734_zpid/,33.3925,-111.819,2017-10-16,2017-10-16
921861,23754349,"22797 W Solano Dr, Buckeye, AZ 85326 ",85326,0.6165591478347778,172000,https://www.zillow.com/homedetails/22797-W-Solano-Dr-Buckeye-AZ-85326/67787385_zpid/,33.4466,-112.541,2017-10-16,2017-10-16
769446,22684365,"635 N 55th Pl, Mesa, AZ 85205 ",85205,0.6161859631538391,194700,https://www.zillow.com/homedetails/635-N-55th-Pl-Mesa-AZ-85205/7662439_zpid/,33.4277,-111.711,2017-09-16,2017-09-16
526527,23806419,"9409 W Berkeley Rd, Phoenix, AZ 85037 ",85037,0.6148428916931152,234000,https://www.zillow.com/homedetails/9409-W-Berkeley-Rd-Phoenix-AZ-85037/60047081_zpid/,33.4677,-112.262,2017-10-25,2017-10-25
436097,23756175,"2311 N 91st Gln, Phoenix, AZ 85037 ",85037,0.6148428916931152,226900,https://www.zillow.com/homedetails/2311-N-91st-Gln-Phoenix-AZ-85037/60974969_zpid/,33.4747,-112.257,2017-10-18,2017-10-18
1684326,22723103,"13006 W Jadestone Dr, Sun City West, AZ 85375 ",85375,0.614763617515564,224900,https://www.zillow.com/homedetails/13006-W-Jadestone-Dr-Sun-City-West-AZ-85375/8107722_zpid/,33.6643,-112.335,2017-09-26,2017-09-26
201932,23796533,"7405 S 40th Ave, Phoenix, AZ 85041 ",85041,0.6144993305206299,209900,https://www.zillow.com/homedetails/7405-S-40th-Ave-Phoenix-AZ-85041/55258362_zpid/,33.3797,-112.14399999999999,2017-10-22,2017-10-22
190540,22562285,"1610 W Roeser Rd, Phoenix, AZ 85041 ",85041,0.6142230033874512,95000,https://www.zillow.com/homedetails/1610-W-Roeser-Rd-Phoenix-AZ-85041/7502182_zpid/,33.3996,-112.09299999999999,2017-08-22,2017-08-22
1095623,23796900,"854 E Manor Dr, Chandler, AZ 85225 ",85225,0.614123523235321,228000,https://www.zillow.com/homedetails/854-E-Manor-Dr-Chandler-AZ-85225/8182101_zpid/,33.3287,-111.82700000000001,2017-10-23,2017-10-23
939270,23756422,"4237 S 247th Dr, Buckeye, AZ 85326 ",85326,0.6138561367988586,219000,https://www.zillow.com/homedetails/4237-S-247th-Dr-Buckeye-AZ-85326/71599013_zpid/,33.4093,-112.583,2017-10-19,2017-10-19
789030,23649171,"1264 E 7th Ave, Mesa, AZ 85204 ",85204,0.6135897636413574,230000,https://www.zillow.com/homedetails/1264-E-7th-Ave-Mesa-AZ-85204/63163944_zpid/,33.4027,-111.803,2017-10-13,2017-10-13
195351,22439583,"3139 W Pecan Rd, Phoenix, AZ 85041 ",85041,0.6133239269256592,204000,https://www.zillow.com/homedetails/3139-W-Pecan-Rd-Phoenix-AZ-85041/67781646_zpid/,33.3949,-112.12700000000001,2017-07-30,2017-07-30
196746,22710799,"3738 W Roeser Rd, Phoenix, AZ 85041 ",85041,0.6130123138427734,149000,https://www.zillow.com/homedetails/3738-W-Roeser-Rd-Phoenix-AZ-85041/7503405_zpid/,33.3996,-112.139,2017-09-21,2017-09-21
1221859,23800500,"244 E Park Ave, Gilbert, AZ 85234 ",85234,0.6127941608428955,205000,https://www.zillow.com/homedetails/244-E-Park-Ave-Gilbert-AZ-85234/8234599_zpid/,33.353,-111.785,2017-10-24,2017-10-24
15264,22740536,"611 N Sunland Dr, Chandler, AZ 85225 ",85225,0.612715482711792,210000,https://www.zillow.com/homedetails/611-N-Sunland-Dr-Chandler-AZ-85225/8187200_zpid/,33.3142,-111.844,2017-10-04,2017-10-04
930534,23756402,"24854 W Rancho Vista Dr, Buckeye, AZ 85326 ",85326,0.6125462651252747,214000,https://www.zillow.com/homedetails/24854-W-Rancho-Vista-Dr-Buckeye-AZ-85326/71598996_zpid/,33.4104,-112.586,2017-10-19,2017-10-19
306104,23753243,"37910 N Pagoda Ln, Phoenix, AZ 85086 ",85086,0.6124462485313416,225000,https://www.zillow.com/homedetails/37910-N-Pagoda-Ln-Phoenix-AZ-85086/81987480_zpid/,33.8286,-112.14299999999999,2017-10-15,2017-10-15
194512,23757358,"2740 W La Salle St, Phoenix, AZ 85041 ",85041,0.6120618581771851,190000,https://www.zillow.com/homedetails/2740-W-La-Salle-St-Phoenix-AZ-85041/95145763_zpid/,33.3975,-112.118,2017-10-18,2017-10-18
61514,23753680,"3536 W Steinbeck Ct, Anthem, AZ 85086 ",85086,0.6120488047599792,245000,https://www.zillow.com/homedetails/3536-W-Steinbeck-Ct-Anthem-AZ-85086/55264626_zpid/,33.8552,-112.13600000000001,2017-10-16,2017-10-16
926498,23806214,"23692 W Grove St, Buckeye, AZ 85326 ",85326,0.6117715835571289,194900,https://www.zillow.com/homedetails/23692-W-Grove-St-Buckeye-AZ-85326/82779451_zpid/,33.399,-112.56,2017-10-25,2017-10-25
527753,23797429,"9509 W Elm St, Phoenix, AZ 85037 ",85037,0.6116224527359009,205000,https://www.zillow.com/homedetails/9509-W-Elm-St-Phoenix-AZ-85037/55256235_zpid/,33.5056,-112.265,2017-10-24,2017-10-24
932730,22490999,"25328 W Carter Ct, Buckeye, AZ 85326 ",85326,0.6108739972114563,189900,https://www.zillow.com/homedetails/25328-W-Carter-Ct-Buckeye-AZ-85326/82384684_zpid/,33.384,-112.59700000000001,2017-08-04,2017-08-04
986759,23760108,"1207 S Emmett Dr, Chandler, AZ 85286 ",85286,0.6106293201446533,229900,https://www.zillow.com/homedetails/1207-S-Emmett-Dr-Chandler-AZ-85286/62733321_zpid/,33.2889,-111.79799999999999,2017-10-20,2017-10-20
1091540,23758032,"691 E Stottler Pl, Chandler, AZ 85225 ",85225,0.6105971932411194,240000,https://www.zillow.com/homedetails/691-E-Stottler-Pl-Chandler-AZ-85225/8181866_zpid/,33.3326,-111.83,2017-10-19,2017-10-19
129528,22821816,"14629 W Blackgold Ln, Sun City West, AZ 85375 ",85375,0.6102381944656372,249500,https://www.zillow.com/homedetails/14629-W-Blackgold-Ln-Sun-City-West-AZ-85375/8121780_zpid/,33.6905,-112.37700000000001,2017-10-10,2017-10-10
194609,23753317,"2826 W Grenadine Rd, Phoenix, AZ 85041 ",85041,0.610144853591919,229900,https://www.zillow.com/homedetails/2826-W-Grenadine-Rd-Phoenix-AZ-85041/71605174_zpid/,33.399,-112.12,2017-10-16,2017-10-16
763457,23526528,"5317 E Des Moines St, Mesa, AZ 85205 ",85205,0.6100738644599915,179000,https://www.zillow.com/homedetails/5317-E-Des-Moines-St-Mesa-AZ-85205/7662680_zpid/,33.4275,-111.71600000000001,2017-10-11,2017-10-11
926556,23796814,"23710 W Chambers St, Buckeye, AZ 85326 ",85326,0.6097254157066345,175000,https://www.zillow.com/homedetails/23710-W-Chambers-St-Buckeye-AZ-85326/82777472_zpid/,33.3983,-112.561,2017-10-17,2017-10-17
1069157,23757142,"1193 E Butler Dr, Chandler, AZ 85225 ",85225,0.6095842123031616,248000,https://www.zillow.com/homedetails/1193-E-Butler-Dr-Chandler-AZ-85225/8223077_zpid/,33.3017,-111.806,2017-10-19,2017-10-19
939779,23756410,"5033 S 236th Dr, Buckeye, AZ 85326 ",85326,0.6085877418518066,184000,https://www.zillow.com/homedetails/5033-S-236th-Dr-Buckeye-AZ-85326/95088026_zpid/,33.4009,-112.56,2017-10-19,2017-10-19
1071953,23527782,"15 W Galveston St, Chandler, AZ 85225 ",85225,0.6084985136985779,219000,https://www.zillow.com/homedetails/15-W-Galveston-St-Chandler-AZ-85225/8187338_zpid/,33.3134,-111.84200000000001,2017-10-11,2017-10-11
660650,23796811,"2345 S Joslyn, Mesa, AZ 85209 ",85209,0.6084582805633545,234000,https://www.zillow.com/homedetails/2345-S-Joslyn-Mesa-AZ-85209/55275141_zpid/,33.3728,-111.65,2017-10-19,2017-10-19
918472,23796258,"22213 W Devin Dr, Buckeye, AZ 85326 ",85326,0.6081184148788452,217500,https://www.zillow.com/homedetails/22213-W-Devin-Dr-Buckeye-AZ-85326/81985291_zpid/,33.4398,-112.52799999999999,2017-10-23,2017-10-23
9017533,23649600,"713 E Eason Ave, Buckeye, AZ 85326 ",85326,0.607984721660614,199000,https://www.zillow.com/homedetails/713-E-Eason-Ave-Buckeye-AZ-85326/8286521_zpid/,33.3729,-112.581,2017-10-14,2017-10-14
775954,23757831,"6523 E Ingram St, Mesa, AZ 85205 ",85205,0.6078892946243286,219777,https://www.zillow.com/homedetails/6523-E-Ingram-St-Mesa-AZ-85205/7676924_zpid/,33.4472,-111.69,2017-10-19,2017-10-19
1680964,23752284,"12607 W Seneca Dr, Sun City West, AZ 85375 ",85375,0.6077755689620972,169500,https://www.zillow.com/homedetails/12607-W-Seneca-Dr-Sun-City-West-AZ-85375/8109467_zpid/,33.6497,-112.33200000000001,2017-10-13,2017-10-13
924893,23805306,"23357 W Pima St, Buckeye, AZ 85326 ",85326,0.6072921752929688,182900,https://www.zillow.com/homedetails/23357-W-Pima-St-Buckeye-AZ-85326/62739727_zpid/,33.433,-112.553,2017-10-24,2017-10-24
200324,23755316,"6603 S 18th Ln, Phoenix, AZ 85041 ",85041,0.6067984104156494,195000,https://www.zillow.com/homedetails/6603-S-18th-Ln-Phoenix-AZ-85041/60047513_zpid/,33.3866,-112.098,2017-10-17,2017-10-17
193406,23757651,"2419 W Melody Dr, Phoenix, AZ 85041 ",85041,0.6066861748695374,219900,https://www.zillow.com/homedetails/2419-W-Melody-Dr-Phoenix-AZ-85041/89026486_zpid/,33.3745,-112.11200000000001,2017-10-19,2017-10-19
195185,23803267,"3121 W Dunbar Dr, Phoenix, AZ 85041 ",85041,0.6064539551734924,218650,https://www.zillow.com/homedetails/3121-W-Dunbar-Dr-Phoenix-AZ-85041/71598495_zpid/,33.3791,-112.126,2017-10-24,2017-10-24
2802,23801824,"132 S 223rd Ave, Buckeye, AZ 85326 ",85326,0.606277346611023,202900,https://www.zillow.com/homedetails/132-S-223rd-Ave-Buckeye-AZ-85326/60962622_zpid/,33.4461,-112.53,2017-10-24,2017-10-24
1075269,23796771,"1803 N Cheri Lynn Dr, Chandler, AZ 85225 ",85225,0.6061199307441711,239900,https://www.zillow.com/homedetails/1803-N-Cheri-Lynn-Dr-Chandler-AZ-85225/8183501_zpid/,33.3321,-111.853,2017-10-19,2017-10-19
918716,23797228,"22238 W Devin Dr, Buckeye, AZ 85326 ",85326,0.6058472394943237,176000,https://www.zillow.com/homedetails/22238-W-Devin-Dr-Buckeye-AZ-85326/81996671_zpid/,33.4402,-112.529,2017-10-24,2017-10-24
923337,23796263,"23018 W Mohave St, Buckeye, AZ 85326 ",85326,0.6049660444259644,182900,https://www.zillow.com/homedetails/23018-W-Mohave-St-Buckeye-AZ-85326/62739410_zpid/,33.4321,-112.546,2017-10-23,2017-10-23
524898,23796905,"9134 W Cypress St, Phoenix, AZ 85037 ",85037,0.6049538850784302,215000,https://www.zillow.com/homedetails/9134-W-Cypress-St-Phoenix-AZ-85037/67762994_zpid/,33.4719,-112.257,2017-10-23,2017-10-23
196054,23757366,"3411 W Shumway Farm Rd, Phoenix, AZ 85041 ",85041,0.6048316359519958,182000,https://www.zillow.com/homedetails/3411-W-Shumway-Farm-Rd-Phoenix-AZ-85041/60976989_zpid/,33.3834,-112.132,2017-10-17,2017-10-17
1702819,22723105,"18247 N 125th Ave, Sun City West, AZ 85375 ",85375,0.6047970056533813,219900,https://www.zillow.com/homedetails/18247-N-125th-Ave-Sun-City-West-AZ-85375/8109837_zpid/,33.6512,-112.329,2017-09-25,2017-09-25
203073,23757669,"926 W Piedmont Rd, Phoenix, AZ 85041 ",85041,0.6045368909835815,169999,https://www.zillow.com/homedetails/926-W-Piedmont-Rd-Phoenix-AZ-85041/66655970_zpid/,33.3598,-112.087,2017-10-19,2017-10-19
908196,23755944,"1017 S 221st Dr, Buckeye, AZ 85326 ",85326,0.6041597723960876,199500,https://www.zillow.com/homedetails/1017-S-221st-Dr-Buckeye-AZ-85326/71626287_zpid/,33.4376,-112.527,2017-10-18,2017-10-18
916069,23757750,"21681 W Durango St, Buckeye, AZ 85326 ",85326,0.6041532754898071,239900,https://www.zillow.com/homedetails/21681-W-Durango-St-Buckeye-AZ-85326/88786715_zpid/,33.4288,-112.51700000000001,2017-10-20,2017-10-20
786952,23796761,"1555 E Mahoney Ave, Mesa, AZ 85204 ",85204,0.604060173034668,208000,https://www.zillow.com/homedetails/1555-E-Mahoney-Ave-Mesa-AZ-85204/7624020_zpid/,33.4139,-111.79700000000001,2017-10-02,2017-10-02
925439,22374414,"23451 W Cocopah St, Buckeye, AZ 85326 ",85326,0.6039522886276245,225000,https://www.zillow.com/homedetails/23451-W-Cocopah-St-Buckeye-AZ-85326/62739697_zpid/,33.4321,-112.555,2017-07-24,2017-07-24
1072092,23756133,"150 S Dakota St, Chandler, AZ 85225 ",85225,0.6038205027580261,150000,https://www.zillow.com/homedetails/150-S-Dakota-St-Chandler-AZ-85225/8205645_zpid/,33.3013,-111.846,2017-10-12,2017-10-12
1266794,23796434,"3258 E Franklin Ave, Gilbert, AZ 85295 ",85295,0.6036394238471985,242000,https://www.zillow.com/homedetails/3258-E-Franklin-Ave-Gilbert-AZ-85295/82825046_zpid/,33.3191,-111.72,2017-10-23,2017-10-23
939161,23799330,"4160 S 249th Dr, Buckeye, AZ 85326 ",85326,0.6036065220832825,187000,https://www.zillow.com/homedetails/4160-S-249th-Dr-Buckeye-AZ-85326/71598959_zpid/,33.4109,-112.587,2017-10-17,2017-10-17
939187,23755240,"4167 S 250th Ave, Buckeye, AZ 85326 ",85326,0.6029987335205078,220000,https://www.zillow.com/homedetails/4167-S-250th-Ave-Buckeye-AZ-85326/71598948_zpid/,33.4108,-112.588,2017-10-18,2017-10-18
202013,23757459,"7417 S 30th Ave, Phoenix, AZ 85041 ",85041,0.6028443574905396,212000,https://www.zillow.com/homedetails/7417-S-30th-Ave-Phoenix-AZ-85041/67764839_zpid/,33.3785,-112.12299999999999,2017-10-19,2017-10-19
922120,23796566,"22829 W Solano Dr, Buckeye, AZ 85326 ",85326,0.602820873260498,201800,https://www.zillow.com/homedetails/22829-W-Solano-Dr-Buckeye-AZ-85326/67787390_zpid/,33.4468,-112.542,2017-10-23,2017-10-23
1686447,22732869,"13231 W Jubilee Dr, Sun City West, AZ 85375 ",85375,0.6028155088424683,228500,https://www.zillow.com/homedetails/13231-W-Jubilee-Dr-Sun-City-West-AZ-85375/8115628_zpid/,33.644,-112.34299999999999,2017-10-01,2017-10-01
940965,23754668,"588 S 222nd Ln, Buckeye, AZ 85326 ",85326,0.6026670932769775,204990,https://www.zillow.com/homedetails/588-S-222nd-Ln-Buckeye-AZ-85326/82385966_zpid/,33.4417,-112.53,2017-10-17,2017-10-17
921334,23756778,"22657 W Cocopah St, Buckeye, AZ 85326 ",85326,0.6024996638298035,173000,https://www.zillow.com/homedetails/22657-W-Cocopah-St-Buckeye-AZ-85326/62694871_zpid/,33.4323,-112.538,2017-10-19,2017-10-19
8982670,23753363,"1934 N Iowa St, Chandler, AZ 85225 ",85225,0.6024668216705322,215500,https://www.zillow.com/homedetails/1934-N-Iowa-St-Chandler-AZ-85225/8182675_zpid/,33.3331,-111.85,2017-10-13,2017-10-13
9020499,23526326,"9336 E Fairway Blvd, Sun Lakes, AZ 85248 ",85248,0.6023056507110596,235000,https://www.zillow.com/homedetails/9336-E-Fairway-Blvd-Sun-Lakes-AZ-85248/92350449_zpid/,33.2128,-111.882,2017-10-09,2017-10-09
449589,23796595,"8551 W Sheridan St, Phoenix, AZ 85037 ",85037,0.6022543907165527,220000,https://www.zillow.com/homedetails/8551-W-Sheridan-St-Phoenix-AZ-85037/7487376_zpid/,33.4745,-112.245,2017-10-23,2017-10-23
1031677,23757178,"2660 E Bellerive Dr, Chandler, AZ 85249 ",85249,0.6018335223197937,231000,https://www.zillow.com/homedetails/2660-E-Bellerive-Dr-Chandler-AZ-85249/8215802_zpid/,33.2163,-111.795,2017-10-19,2017-10-19
929877,23755942,"24719 W Dove Rdg, Buckeye, AZ 85326 ",85326,0.6017138957977295,189900,https://www.zillow.com/homedetails/24719-W-Dove-Rdg-Buckeye-AZ-85326/62739657_zpid/,33.3967,-112.583,2017-10-18,2017-10-18
202179,23796895,"7707 S 25th Ave, Phoenix, AZ 85041 ",85041,0.6011307835578918,229900,https://www.zillow.com/homedetails/7707-S-25th-Ave-Phoenix-AZ-85041/81984354_zpid/,33.3768,-112.113,2017-10-19,2017-10-19
930665,23756399,"24876 W Vista Norte Ct, Buckeye, AZ 85326 ",85326,0.6010888814926147,199000,https://www.zillow.com/homedetails/24876-W-Vista-Norte-Ct-Buckeye-AZ-85326/81995320_zpid/,33.4117,-112.586,2017-10-19,2017-10-19
939863,22707051,"507 E Clanton Ave, Buckeye, AZ 85326 ",85326,0.6004982590675354,95000,https://www.zillow.com/homedetails/507-E-Clanton-Ave-Buckeye-AZ-85326/81987074_zpid/,33.3677,-112.584,2017-09-21,2017-09-21
922717,23759689,"22942 W Cantilever St, Buckeye, AZ 85326 ",85326,0.6004686951637268,178900,https://www.zillow.com/homedetails/22942-W-Cantilever-St-Buckeye-AZ-85326/67799720_zpid/,33.4477,-112.544,2017-10-20,2017-10-20
122604,22735731,"12811 W Ashwood Dr, Sun City West, AZ 85375 ",85375,0.6003499031066895,194900,https://www.zillow.com/homedetails/12811-W-Ashwood-Dr-Sun-City-West-AZ-85375/8109387_zpid/,33.6549,-112.333,2017-09-28,2017-09-28
915933,22490934,"21541 W Durango St, Buckeye, AZ 85326 ",85326,0.6002328395843506,209000,https://www.zillow.com/homedetails/21541-W-Durango-St-Buckeye-AZ-85326/95143338_zpid/,33.4286,-112.516,2017-08-04,2017-08-04
927346,23794764,"23826 W Yavapai St, Buckeye, AZ 85326 ",85326,0.5999458432197571,169900,https://www.zillow.com/homedetails/23826-W-Yavapai-St-Buckeye-AZ-85326/92350132_zpid/,33.4353,-112.56299999999999,2017-10-22,2017-10-22
1703443,22711351,"18814 N Zinnia Ct, Sun City West, AZ 85375 ",85375,0.599413275718689,244900,https://www.zillow.com/homedetails/18814-N-Zinnia-Ct-Sun-City-West-AZ-85375/8110465_zpid/,33.6563,-112.32799999999999,2017-09-22,2017-09-22
771602,23804615,"727 N Bermuda, Mesa, AZ 85205 ",85205,0.5993450284004211,244900,https://www.zillow.com/homedetails/727-N-Bermuda-Mesa-AZ-85205/7637684_zpid/,33.4289,-111.75200000000001,2017-10-21,2017-10-21
923756,23806210,"23124 W Papago St, Buckeye, AZ 85326 ",85326,0.5989707708358765,205000,https://www.zillow.com/homedetails/23124-W-Papago-St-Buckeye-AZ-85326/60997473_zpid/,33.4345,-112.54799999999999,2017-10-25,2017-10-25
