property_id,transaction_id,address,zipcode,ypred,list,url,lat,long
8962076,21975250,"25741 W Watkins St, Buckeye, AZ 85326 ",85326,0.5704118013381958,232950,https://www.zillow.com/homedetails/25741-W-Watkins-St-Buckeye-AZ-85326/2093889774_zpid/,33.4266,-112.556
8968767,22267743,"2558 N Beverly Pl, Buckeye, AZ 85396 ",85396,0.5682934522628784,394290,https://www.zillow.com/homedetails/2558-N-Beverly-Pl-Buckeye-AZ-85396/125143240_zpid/,33.4752,-112.499
8944927,21974537,"24640 W Sheraton Ln, Buckeye, AZ 85326 ",85326,0.567463219165802,178900,https://www.zillow.com/homedetails/24640-W-Sheraton-Ln-Buckeye-AZ-85326/95186732_zpid/,33.4007,-112.581
7563175,22089860,"27264 N Skipping Rock Rd, Peoria, AZ 85383 ",85383,0.5670650005340576,329000,https://www.zillow.com/homedetails/27264-N-Skipping-Rock-Rd-Peoria-AZ-85383/2094544487_zpid/,33.7327,-112.28
8962077,21975249,"25748 W Watkins St, Buckeye, AZ 85326 ",85326,0.5670005679130554,212900,https://www.zillow.com/homedetails/25748-W-Watkins-St-Buckeye-AZ-85326/2093772852_zpid/,33.4266,-112.556
511629,20693197,"12027 W Desert Sun Ln, Peoria, AZ 85383 ",85383,0.5657972693443298,270000,http://www.zillow.com/homedetails/12027-W-Desert-Sun-Ln-Peoria-AZ-85383/2099076529_zpid,33.7242,-112.319
8952461,21974494,"24617 W Sheraton Ln, Buckeye, AZ 85326 ",85326,0.5656493306159973,191900,https://www.zillow.com/homedetails/24617-W-Sheraton-Ln-Buckeye-AZ-85326/95127725_zpid/,33.4002,-112.58
8957471,21975281,"25756 W Watkins St, Buckeye, AZ 85326 ",85326,0.5648841261863708,229456,https://www.zillow.com/homedetails/25756-W-Watkins-St-Buckeye-AZ-85326/2093960925_zpid/,33.4266,-112.556
8959479,21975342,"25773 W Watkins St, Buckeye, AZ 85326 ",85326,0.564213752746582,222025,https://www.zillow.com/homedetails/25773-W-Watkins-St-Buckeye-AZ-85326/2093889466_zpid/,33.4266,-112.556
7447964,22061356,"20560 W Nelson Pl, Buckeye, AZ 85396 ",85396,0.5631358623504639,254930,https://www.zillow.com/homedetails/20560-W-Nelson-Pl-Buckeye-AZ-85396/125123775_zpid/,33.4689,-112.501
8957018,21840057,"3535 N Carlton St, Buckeye, AZ 85396 ",85396,0.5618066191673279,333544,https://www.zillow.com/homedetails/3535-N-Carlton-St-Buckeye-AZ-85396/95086371_zpid/,33.4869,-112.506
8959480,21975350,"25811 W Watkins St, Buckeye, AZ 85326 ",85326,0.5601797103881836,234900,https://www.zillow.com/homedetails/25811-W-Watkins-St-Buckeye-AZ-85326/2093856636_zpid/,33.4246,-112.60600000000001
5218084,22102301,"10417 E Sebring Ave, Mesa, AZ 85212 ",85212,0.5600786805152893,324900,https://www.zillow.com/homedetails/10417-E-Sebring-Ave-Mesa-AZ-85212/125119313_zpid/,33.3327,-111.59899999999999
8959467,22239251,"20566 W Valley View Dr, Buckeye, AZ 85396 ",85396,0.559982419013977,326990,https://www.zillow.com/homedetails/20566-W-Valley-View-Dr-Buckeye-AZ-85396/125123497_zpid/,33.3657,-112.605
7478654,21975344,"25780 W Watkins St, Buckeye, AZ 85326 ",85326,0.5595076680183411,204898,https://www.zillow.com/homedetails/25780-W-Watkins-St-Buckeye-AZ-85326/2094788129_zpid/,33.4245,-112.60600000000001
915987,21972605,"21607 W Durango St, Buckeye, AZ 85326 ",85326,0.5584469437599182,209000,https://www.zillow.com/homedetails/21607-W-Durango-St-Buckeye-AZ-85326/95136061_zpid/,33.4286,-112.516
8957538,22079654,"30927 N 138th Ave, Peoria, AZ 85383 ",85383,0.5584019422531128,374999,https://www.zillow.com/homedetails/30927-N-138th-Ave-Peoria-AZ-85383/121566180_zpid/,33.7631,-112.359
927136,21973950,"23802 W Chipman Rd, Buckeye, AZ 85326 ",85326,0.5580090284347534,219900,https://www.zillow.com/homedetails/23802-W-Chipman-Rd-Buckeye-AZ-85326/95158921_zpid/,33.4021,-112.559
8952005,17960839,"12330 W Cactus Blossom Trl, Peoria, AZ 85383 ",85383,0.5579517483711243,259732,https://www.zillow.com/homedetails/12330-W-Cactus-Blossom-Trl-Peoria-AZ-85383/2094171832_zpid/,33.7487,-112.32600000000001
8952012,22113621,"26880 N 99th Dr, Peoria, AZ 85383 ",85383,0.5564941763877869,320000,https://www.zillow.com/homedetails/26880-N-99th-Dr-Peoria-AZ-85383/122586230_zpid/,33.7276,-112.274
7420579,21763648,"9949 W Andrea Dr, Peoria, AZ 85383 ",85383,0.5551662445068359,328888,https://www.zillow.com/homedetails/9949-W-Andrea-Dr-Peoria-AZ-85383/121710969_zpid/,33.7229,-112.25
912985,22286715,"1842 S 222nd Ln, Buckeye, AZ 85326 ",85326,0.5548913478851318,235900,https://www.zillow.com/homedetails/1842-S-222nd-Ln-Buckeye-AZ-85326/71615713_zpid/,33.4299,-112.53
8947789,17960840,"12334 W Cactus Blossom Trl, Peoria, AZ 85383 ",85383,0.5548639297485352,246087,https://www.zillow.com/homedetails/12334-W-Cactus-Blossom-Trl-Peoria-AZ-85383/2094266970_zpid/,33.7487,-112.32600000000001
8947790,17960838,"12326 W Cactus Blossom Trl, Peoria, AZ 85383 ",85383,0.5548639297485352,255617,https://www.zillow.com/homedetails/12326-W-Cactus-Blossom-Trl-Peoria-AZ-85383/2094264842_zpid/,33.7487,-112.32600000000001
7471728,21901687,"2623 S 172nd Dr, Goodyear, AZ 85338 ",85338,0.5547997951507568,259000,https://www.zillow.com/homedetails/2623-S-172nd-Dr-Goodyear-AZ-85338/95150127_zpid/,33.423,-112.43
7429809,20720562,"13128 W Calle De Baca, Peoria, AZ 85383 ",85383,0.5546802282333374,385000,https://www.zillow.com/homedetails/13128-W-Calle-De-Baca-Peoria-AZ-85383/113978015_zpid/,33.7708,-112.34200000000001
8952027,22080415,"7936 W Molly Dr, Peoria, AZ 85383 ",85383,0.5546737313270569,384900,https://www.zillow.com/homedetails/7936-W-Molly-Dr-Peoria-AZ-85383/95103187_zpid/,33.7279,-112.23299999999999
8077,21961314,"7584 W Andrea Dr, Peoria, AZ 85383 ",85383,0.5544865131378174,295000,https://www.zillow.com/homedetails/7584-W-Andrea-Dr-Peoria-AZ-85383/95148499_zpid/,33.7272,-112.223
7520915,22080301,"7429 W Crabapple Dr, Peoria, AZ 85383 ",85383,0.5543316006660461,365000,https://www.zillow.com/homedetails/7429-W-Crabapple-Dr-Peoria-AZ-85383/109549846_zpid/,33.7113,-112.219
2043003,22101262,"1163 W Argon St, Mesa, AZ 85201 ",85201,0.5541298389434814,238900,http://www.zillow.com/homedetails/1163-W-Argon-St-Mesa-AZ-85201/95176902_zpid/,33.433,-111.845
2078287,21892826,"18570 W Acacia Dr Goodyear, AZ 85338 ",85338,0.5536149740219116,314071,http://www.zillow.com/homedetails/18570-W-Acacia-Dr-Goodyear-AZ-85338/125133802_zpid/,33.3366,-112.44
2078288,21892828,"18552 W Acacia Dr Goodyear, AZ 85338 ",85338,0.5536149740219116,305378,http://www.zillow.com/homedetails/18552-W-Acacia-Dr-Goodyear-AZ-85338/125154247_zpid/,33.3366,-112.44
8959584,21818515,"7602 W Redbird Rd, Peoria, AZ 85383 ",85383,0.5533750653266907,339900,https://www.zillow.com/homedetails/7602-W-Redbird-Rd-Peoria-AZ-85383/95105298_zpid/,33.7287,-112.223
7445433,21957646,"4052 W Milada Dr, Laveen, AZ 85339 ",85339,0.5530146956443787,279990,https://www.zillow.com/homedetails/4052-W-Milada-Dr-Laveen-AZ-85339/95121806_zpid/,33.3635,-112.147
5331372,21921930,"13360 N 149th Ave Surprise, AZ 85379 ",85379,0.5528293251991272,304386,http://www.zillow.com/homedetails/13360-N-149th-Ave-Surprise-AZ-85379/95121209_zpid/,33.6054,-112.381
934976,22270988,"25702 W Forest Grove Ave, Buckeye, AZ 85326 ",85326,0.5527355670928955,219000,https://www.zillow.com/homedetails/25702-W-Forest-Grove-Ave-Buckeye-AZ-85326/67796951_zpid/,33.4147,-112.604
7433027,22243221,"10352 W Devonshire Ave, Phoenix, AZ 85037 ",85037,0.5526867508888245,192500,https://www.zillow.com/homedetails/10352-W-Devonshire-Ave-Phoenix-AZ-85037/95131190_zpid/,33.4955,-112.28299999999999
8963876,22236728,"443 N 63rd Ln, Phoenix, AZ 85043 ",85043,0.55157071352005,179900,https://www.zillow.com/homedetails/443-N-63rd-Ln-Phoenix-AZ-85043/2093759310_zpid/,33.4515,-112.195
7389333,22056416,"26242 N 68th Dr, Peoria, AZ 85383 ",85383,0.551489531993866,294995,https://www.zillow.com/homedetails/26242-N-68th-Dr-Peoria-AZ-85383/25776340_zpid/,33.7233,-112.20700000000001
15417,22214151,"1461 N Balboa, Mesa, AZ 85205 ",85205,0.5514816641807556,255000,https://www.zillow.com/homedetails/1461-N-Balboa-Mesa-AZ-85205/2095271592_zpid/,33.4301,-111.72
8959561,22230033,"21945 N 97th Dr, Peoria, AZ 85383 ",85383,0.5513478517532349,359000,https://www.zillow.com/homedetails/21945-N-97th-Dr-Peoria-AZ-85383/123951706_zpid/,33.683,-112.26899999999999
7438093,21926987,"14345 W Wethersfield Rd Surprise, AZ 85379 ",85379,0.5511510968208313,288839,https://www.zillow.com/homedetails/14345-W-Wethersfield-Rd-Surprise-AZ-85379/2095080848_zpid/,33.5954,-112.367
1431074,21966254,"6911 W Via Del Sol Dr, Glendale, AZ 85310 ",85310,0.5511048436164856,240000,http://www.zillow.com/homedetails/6911-W-Via-Del-Sol-Dr-Glendale-AZ-85310/7880849_zpid,33.6825,-112.208
935720,22168028,"25768 W Pleasant Ln, Buckeye, AZ 85326 ",85326,0.5507473349571228,159900,https://www.zillow.com/homedetails/25768-W-Pleasant-Ln-Buckeye-AZ-85326/81994172_zpid/,33.3912,-112.605
1941614,22102218,"8624 E Fairbrook St Mesa, AZ 85207 ",85207,0.5500116348266602,259950,http://www.zillow.com/homedetails/8624-E-Fairbrook-St-Mesa-AZ-85207/2097273131_zpid/,33.4364,-111.645
887293,22029307,"29642 W Columbus Ave, Buckeye, AZ 85396 ",85396,0.5497894287109375,255000,https://www.zillow.com/homedetails/29642-W-Columbus-Ave-Buckeye-AZ-85396/71625955_zpid/,33.4889,-112.689
889057,22029538,"30206 W Cheery Lynn Rd, Buckeye, AZ 85396 ",85396,0.5497894287109375,229999,https://www.zillow.com/homedetails/30206-W-Cheery-Lynn-Rd-Buckeye-AZ-85396/81983777_zpid/,33.4841,-112.70200000000001
1847885,21923883,"11437 W St John Rd Surprise, AZ 85378 ",85378,0.5497345328330994,227479,https://www.zillow.com/homedetails/11437-W-St-John-Rd-Surprise-AZ-85378/95141806_zpid/,33.644,-112.305
8956658,22081383,"29206 N 70th Ave, Peoria, AZ 85383 ",85383,0.5495604872703552,339900,https://www.zillow.com/homedetails/29206-N-70th-Ave-Peoria-AZ-85383/95185833_zpid/,33.749,-112.21
920747,22270980,"22593 W Solano Dr, Buckeye, AZ 85326 ",85326,0.549272894859314,180000,https://www.zillow.com/homedetails/22593-W-Solano-Dr-Buckeye-AZ-85326/71492592_zpid/,33.4472,-112.537
7460564,22102268,"10229 E Starion Ave, Mesa, AZ 85212 ",85212,0.5491769313812256,278990,https://www.zillow.com/homedetails/10229-E-Starion-Ave-Mesa-AZ-85212/121423476_zpid/,33.3258,-111.61399999999999
581640,22192840,"10721 E Vivid Ave, Mesa, AZ 85212 ",85212,0.5491769313812256,354900,https://www.zillow.com/homedetails/10721-E-Vivid-Ave-Mesa-AZ-85212/121424361_zpid/,33.3256,-111.602
8945436,22185595,"17631 Cavedale Dr, Surprise, AZ 85387 ",85387,0.5490640997886658,224900,https://www.zillow.com/homedetails/17631-Cavedale-Dr-Surprise-AZ-85387/71631259_zpid/,33.7266,-112.441
1426345,22183092,"3813 W Cielo Grande, Glendale, AZ 85310 ",85310,0.5489247441291809,234900,https://www.zillow.com/homedetails/3813-W-Cielo-Grande-Glendale-AZ-85310/7929833_zpid/,33.7021,-112.141
7404832,22102796,"163 N Sandal, Mesa, AZ 85205 ",85205,0.548674464225769,245805,https://www.zillow.com/homedetails/163-N-Sandal-Mesa-AZ-85205/2095404501_zpid/,33.4475,-111.706
8954659,21982207,"4251 E Erie St, Gilbert, AZ 85295 ",85295,0.5484567284584045,284500,https://www.zillow.com/homedetails/4251-E-Erie-St-Gilbert-AZ-85295/2094205835_zpid/,33.3103,-111.699
1426652,22031396,"3952 W Camino Del Rio, Glendale, AZ 85310 ",85310,0.5476029515266418,210000,https://www.zillow.com/homedetails/3952-W-Camino-Del-Rio-Glendale-AZ-85310/7931312_zpid/,33.7001,-112.14399999999999
940340,21986309,"5461 S Dove Hl, Buckeye, AZ 85326 ",85326,0.547493577003479,184900,https://www.zillow.com/homedetails/5461-S-Dove-Hl-Buckeye-AZ-85326/62739577_zpid/,33.3974,-112.587
938511,21978651,"3487 S 257th Ln, Buckeye, AZ 85326 ",85326,0.5474927425384521,215000,https://www.zillow.com/homedetails/3487-S-257th-Ln-Buckeye-AZ-85326/67787172_zpid/,33.4147,-112.605
5333,21932167,"29669 N 69th Ave, Peoria, AZ 85383 ",85383,0.5472809076309204,349900,https://www.zillow.com/homedetails/29669-N-69th-Ave-Peoria-AZ-85383/71606222_zpid/,33.7552,-112.209
885739,21839347,"27044 W Escuda Dr, Buckeye, AZ 85396 ",85396,0.5471414923667908,185000,https://www.zillow.com/homedetails/27044-W-Escuda-Dr-Buckeye-AZ-85396/89137010_zpid/,33.6675,-112.633
8952667,22079611,"28039 N 90th Ln, Peoria, AZ 85383 ",85383,0.5471311211585999,389000,https://www.zillow.com/homedetails/28039-N-90th-Ln-Peoria-AZ-85383/71613114_zpid/,33.7382,-112.255
8947477,22054970,"16456 W Honeysuckle Dr, Surprise, AZ 85387 ",85387,0.5470641851425171,225000,https://www.zillow.com/homedetails/16456-W-Honeysuckle-Dr-Surprise-AZ-85387/81972899_zpid/,33.7195,-112.415
1269421,22183091,"3615 E Larson Ln, Gilbert, AZ 85295 ",85295,0.5467755794525146,279900,https://www.zillow.com/homedetails/3615-E-Larson-Ln-Gilbert-AZ-85295/95075938_zpid/,33.2976,-111.712
934897,22127865,"25694 W Victory St, Buckeye, AZ 85326 ",85326,0.5466644167900085,226900,https://www.zillow.com/homedetails/25694-W-Victory-St-Buckeye-AZ-85326/67796928_zpid/,33.4156,-112.604
876777,21837764,"20751 W Carlton Mnr, Buckeye, AZ 85396 ",85396,0.5463725328445435,275000,https://www.zillow.com/homedetails/20751-W-Carlton-Mnr-Buckeye-AZ-85396/95095261_zpid/,33.4699,-112.506
916454,21972705,"21849 W Pima St, Buckeye, AZ 85326 ",85326,0.5459086894989014,205000,https://www.zillow.com/homedetails/21849-W-Pima-St-Buckeye-AZ-85326/71631306_zpid/,33.4333,-112.521
1009141,21986611,"564 W Thompson Pl, Chandler, AZ 85286 ",85286,0.5458946228027344,374999,https://www.zillow.com/homedetails/564-W-Thompson-Pl-Chandler-AZ-85286/52430982_zpid/,,
1951363,22102015,"22914 E Desert Hills Dr, Queen Creek, AZ 85142 ",85142,0.5458932518959045,361298,http://www.zillow.com/homedetails/22914-E-Desert-Hills-Dr-Queen-Creek-AZ-85142/2097159292_zpid/,33.2434,-111.62899999999999
1466642,21930148,"17471 N 91st Dr, Peoria, AZ 85382 ",85382,0.5457775592803955,264900,https://www.zillow.com/homedetails/17471-N-91st-Dr-Peoria-AZ-85382/95156135_zpid/,33.6425,-112.255
7445015,22102548,"1311 W Pollack St, Phoenix, AZ 85041 ",85041,0.5457582473754883,213601,https://www.zillow.com/homedetails/1311-W-Pollack-St-Phoenix-AZ-85041/95146044_zpid/,33.3795,-112.089
7448500,21942476,"10432 W Chickasaw St Tolleson, AZ 85353 ",85353,0.5457314848899841,260844,https://www.zillow.com/homedetails/10432-W-Chickasaw-St-Tolleson-AZ-85353/2095005880_zpid/,33.4299,-112.24600000000001
930591,21974705,"24862 W Rancho Vista Dr, Buckeye, AZ 85326 ",85326,0.5456629991531372,199000,https://www.zillow.com/homedetails/24862-W-Rancho-Vista-Dr-Buckeye-AZ-85326/71598995_zpid/,33.4104,-112.586
1022711,21813236,"1432 E Mead Dr, Chandler, AZ 85249 ",85249,0.5456602573394775,400000,https://www.zillow.com/homedetails/1432-E-Mead-Dr-Chandler-AZ-85249/8212876_zpid/,,
1051251,22130022,"763 E Lynx Pl, Chandler, AZ 85249 ",85249,0.5456602573394775,385000,https://www.zillow.com/homedetails/763-E-Lynx-Pl-Chandler-AZ-85249/60986025_zpid/,,
1049847,22039965,"692 E Torrey Pines Pl, Chandler, AZ 85249 ",85249,0.5456602573394775,399900,https://www.zillow.com/homedetails/692-E-Torrey-Pines-Pl-Chandler-AZ-85249/60986439_zpid/,,
8959171,21814273,"25812 N 165th Ln, Surprise, AZ 85387 ",85387,0.5454678535461426,199000,https://www.zillow.com/homedetails/25812-N-165th-Ln-Surprise-AZ-85387/81967120_zpid/,33.7197,-112.416
927870,21974002,"23870 W Twilight Trl, Buckeye, AZ 85326 ",85326,0.5452985763549805,174000,https://www.zillow.com/homedetails/23870-W-Twilight-Trl-Buckeye-AZ-85326/61631270_zpid/,33.4404,-112.564
7422515,22228396,"25753 N Sandstone Way, Surprise, AZ 85387 ",85387,0.5451786518096924,235900,https://www.zillow.com/homedetails/25753-N-Sandstone-Way-Surprise-AZ-85387/81975994_zpid/,33.7188,-112.417
931199,21974722,"25005 W Illini St, Buckeye, AZ 85326 ",85326,0.5446972846984863,180000,https://www.zillow.com/homedetails/25005-W-Illini-St-Buckeye-AZ-85326/67769470_zpid/,33.4121,-112.589
8952007,22106699,"13708 W Chaparosa Way, Peoria, AZ 85383 ",85383,0.5446497797966003,299900,https://www.zillow.com/homedetails/13708-W-Chaparosa-Way-Peoria-AZ-85383/89136833_zpid/,33.7658,-112.35600000000001
8945102,22185698,"6797 W Rowel Rd, Peoria, AZ 85383 ",85383,0.5446388125419617,325000,https://www.zillow.com/homedetails/6797-W-Rowel-Rd-Peoria-AZ-85383/7925487_zpid/,33.7244,-112.206
1149237,22286181,"12552 W Mauna Loa Ln, El Mirage, AZ 85335 ",85335,0.5443823337554932,179900,https://www.zillow.com/homedetails/12552-W-Mauna-Loa-Ln-El-Mirage-AZ-85335/61680062_zpid/,33.6194,-112.335
7482468,22125606,"8457 W Quail Track Dr, Peoria, AZ 85383 ",85383,0.5443346500396729,263000,https://www.zillow.com/homedetails/8457-W-Quail-Track-Dr-Peoria-AZ-85383/60980026_zpid/,33.7306,-112.243
1024299,22068987,"1640 E Yellowstone Pl, Chandler, AZ 85249 ",85249,0.5442709922790527,392000,https://www.zillow.com/homedetails/1640-E-Yellowstone-Pl-Chandler-AZ-85249/60987249_zpid/,,
8970449,22291038,"14530 S Tuthill Rd, Buckeye, AZ 85326 ",85326,0.5442545413970947,203990,https://www.zillow.com/homedetails/14530-S-Tuthill-Rd-Buckeye-AZ-85326/2093580904_zpid/,33.3143,-112.48700000000001
1308199,21974943,"2544 E Plum St, Gilbert, AZ 85298 ",85298,0.5440802574157715,379900,https://www.zillow.com/homedetails/2544-E-Plum-St-Gilbert-AZ-85298/95095999_zpid/,33.2472,-111.735
928709,21974127,"24005 W Chambers St, Buckeye, AZ 85326 ",85326,0.5440182089805603,166000,https://www.zillow.com/homedetails/24005-W-Chambers-St-Buckeye-AZ-85326/82827236_zpid/,33.398,-112.56700000000001
926566,21973917,"23712 W La Salle St, Buckeye, AZ 85326 ",85326,0.5440182089805603,163000,https://www.zillow.com/homedetails/23712-W-La-Salle-St-Buckeye-AZ-85326/82828752_zpid/,33.3975,-112.561
8959477,21838638,"2379 N Riley Rd, Buckeye, AZ 85396 ",85396,0.5438854694366455,305529,https://www.zillow.com/homedetails/2379-N-Riley-Rd-Buckeye-AZ-85396/95071720_zpid/,33.473,-112.507
584531,22101206,"11115 E Shepperd Ave, Mesa, AZ 85212 ",85212,0.5436728596687317,252900,http://www.zillow.com/homedetails/11115-E-Shepperd-Ave-Mesa-AZ-85212/95161400_zpid/,33.334,-111.594
73446,21981580,"4149 S Ellesmere St, Gilbert, AZ 85297 ",85297,0.5434397459030151,394999,https://www.zillow.com/homedetails/4149-S-Ellesmere-St-Gilbert-AZ-85297/121566564_zpid/,33.2746,-111.765
940741,21987084,"5764 S 236th Dr, Buckeye, AZ 85326 ",85326,0.5433573722839355,183900,https://www.zillow.com/homedetails/5764-S-236th-Dr-Buckeye-AZ-85326/82826956_zpid/,33.3942,-112.56
926082,21973871,"23629 W Tamarisk Ave, Buckeye, AZ 85326 ",85326,0.5433573722839355,185000,https://www.zillow.com/homedetails/23629-W-Tamarisk-Ave-Buckeye-AZ-85326/88785570_zpid/,33.4037,-112.559
8956729,22080642,"9197 W Black Hill Rd, Peoria, AZ 85383 ",85383,0.5433149337768555,295000,https://www.zillow.com/homedetails/9197-W-Black-Hill-Rd-Peoria-AZ-85383/81952701_zpid/,33.7355,-112.258
956291,22133091,"220 S Rush Cir E, Chandler, AZ 85226 ",85226,0.5432978272438049,285000,https://www.zillow.com/homedetails/220-S-Rush-Cir-E-Chandler-AZ-85226/8166120_zpid/,,
928970,21974256,"24051 W Antelope Trl, Buckeye, AZ 85326 ",85326,0.5431795716285706,189000,https://www.zillow.com/homedetails/24051-W-Antelope-Trl-Buckeye-AZ-85326/61631293_zpid/,33.4394,-112.568
8949433,21999273,"26162 N 67th Dr, Peoria, AZ 85383 ",85383,0.5429255962371826,306500,https://www.zillow.com/homedetails/26162-N-67th-Dr-Peoria-AZ-85383/50185145_zpid/,33.7224,-112.204
8959571,21818451,"29930 N 128th Ave, Peoria, AZ 85383 ",85383,0.5428860783576965,319900,https://www.zillow.com/homedetails/29930-N-128th-Ave-Peoria-AZ-85383/67784059_zpid/,33.7542,-112.336
8952688,22081385,"30899 N 125th Dr, Peoria, AZ 85383 ",85383,0.5428860783576965,284900,https://www.zillow.com/homedetails/30899-N-125th-Dr-Peoria-AZ-85383/71616055_zpid/,33.7622,-112.33
8957534,22230032,"26065 N 71st Dr, Peoria, AZ 85383 ",85383,0.5426796078681946,374000,https://www.zillow.com/homedetails/26065-N-71st-Dr-Peoria-AZ-85383/51174188_zpid/,33.7209,-112.213
7458416,22185618,"24000 N 165th Dr, Surprise, AZ 85387 ",85387,0.5426515936851501,344990,https://www.zillow.com/homedetails/24000-N-165th-Dr-Surprise-AZ-85387/95154372_zpid/,33.7203,-112.415
501545,22080380,"7823 W Palm Ln, Phoenix, AZ 85035 ",85035,0.54262775182724,165000,https://www.zillow.com/homedetails/7823-W-Palm-Ln-Phoenix-AZ-85035/95136297_zpid/,33.4685,-112.228
513590,21924494,"12403 W Palo Brea Ln, Peoria, AZ 85383 ",85383,0.5425150394439697,340000,https://www.zillow.com/homedetails/12403-W-Palo-Brea-Ln-Peoria-AZ-85383/82799723_zpid/,33.7604,-112.32799999999999
921192,21973306,"22639 W Tonto St, Buckeye, AZ 85326 ",85326,0.5424700379371643,155000,https://www.zillow.com/homedetails/22639-W-Tonto-St-Buckeye-AZ-85326/81990995_zpid/,33.4369,-112.56200000000001
8955733,21840482,"4001 N 294th Ln, Buckeye, AZ 85396 ",85396,0.5424354076385498,214900,https://www.zillow.com/homedetails/4001-N-294th-Ln-Buckeye-AZ-85396/71625872_zpid/,33.4925,-112.684
1423929,21706459,"22410 N 67th Dr, Glendale, AZ 85310 ",85310,0.5423784852027893,349900,http://www.zillow.com/homedetails/22410-N-67th-Dr-Glendale-AZ-85310/7880745_zpid/,33.6869,-112.204
235985,22054764,"15435 S 37th St, Phoenix, AZ 85044 ",85044,0.5421765446662903,299900,https://www.zillow.com/homedetails/15435-S-37th-St-Phoenix-AZ-85044/8161463_zpid/,33.3062,-112.006
7492954,22166902,"8350 W Antelope Dr, Peoria, AZ 85383 ",85383,0.54191654920578,323500,https://www.zillow.com/homedetails/8350-W-Antelope-Dr-Peoria-AZ-85383/59268358_zpid/,33.7183,-112.24
1320925,21986417,"5541 S Joshua Tree Ln, Gilbert, AZ 85298 ",85298,0.5416699051856995,324900,https://www.zillow.com/homedetails/5541-S-Joshua-Tree-Ln-Gilbert-AZ-85298/121422374_zpid/,33.2496,-111.704
8948028,21991393,"845 S Reber Ave, Gilbert, AZ 85296 ",85296,0.5414549112319946,274900,https://www.zillow.com/homedetails/845-S-Reber-Ave-Gilbert-AZ-85296/95164965_zpid/,33.3352,-111.709
1271328,22246281,"4050 E Loma Vista St, Gilbert, AZ 85295 ",85295,0.54144686460495,399000,http://www.zillow.com/homedetails/4050-E-Loma-Vista-St-Gilbert-AZ-85295/55199388_zpid,33.315,-111.70299999999999
7455687,22039851,"6821 W El Cortez Pl, Peoria, AZ 85383 ",85383,0.5413913130760193,375000,https://www.zillow.com/homedetails/6821-W-El-Cortez-Pl-Peoria-AZ-85383/50184389_zpid/,33.7187,-112.20700000000001
508295,21923448,"10311 W Foothill Dr, Peoria, AZ 85383 ",85383,0.5411623120307922,299900,https://www.zillow.com/homedetails/10311-W-Foothill-Dr-Peoria-AZ-85383/67790505_zpid/,33.687,-112.281
8964815,22100956,"13309 S 176th Dr, Goodyear, AZ 85338 ",85338,0.541074812412262,255000,https://www.zillow.com/homedetails/13309-S-176th-Dr-Goodyear-AZ-85338/60991923_zpid/,33.3259,-112.429
8945079,21923664,"10605 W Melinda Ln, Peoria, AZ 85382 ",85382,0.5410656332969666,359900,https://www.zillow.com/homedetails/10605-W-Melinda-Ln-Peoria-AZ-85382/55261905_zpid/,33.6804,-112.288
922631,21973474,"22933 W Arrow Dr, Buckeye, AZ 85326 ",85326,0.5410539507865906,169000,https://www.zillow.com/homedetails/22933-W-Arrow-Dr-Buckeye-AZ-85326/71599362_zpid/,33.4367,-112.544
1258975,21972807,"2204 S Quartz Ct, Gilbert, AZ 85295 ",85295,0.5409640073776245,339900,https://www.zillow.com/homedetails/2204-S-Quartz-Ct-Gilbert-AZ-85295/8278778_zpid/,33.3099,-111.76100000000001
7540223,22027261,"17542 W Wind Drift Ct, Goodyear, AZ 85338 ",85338,0.540842592716217,259000,https://www.zillow.com/homedetails/17542-W-Wind-Drift-Ct-Goodyear-AZ-85338/54274650_zpid/,33.3384,-112.427
585793,22243018,"11225 E Sylvan Ave, Mesa, AZ 85212 ",85212,0.5407779216766357,329999,https://www.zillow.com/homedetails/11225-E-Sylvan-Ave-Mesa-AZ-85212/71623105_zpid/,33.3314,-111.59100000000001
8951911,21972867,"22124 W Cantilever Ct, Buckeye, AZ 85326 ",85326,0.5407508611679077,230000,https://www.zillow.com/homedetails/22124-W-Cantilever-Ct-Buckeye-AZ-85326/2094185244_zpid/,33.4483,-112.52600000000001
1603217,21949374,"18468 W Carol Ave, Waddell, AZ 85355 ",85355,0.5406975150108337,240000,https://www.zillow.com/homedetails/18468-W-Carol-Ave-Waddell-AZ-85355/95117522_zpid/,33.5711,-112.45700000000001
5336327,21895061,"10128 S 186th Ln, Goodyear, AZ 85338 ",85338,0.5403192043304443,270000,https://www.zillow.com/homedetails/10128-S-186th-Ln-Goodyear-AZ-85338/8288505_zpid/,33.3545,-112.45200000000001
8947525,21898227,"17172 W Ashley Dr, Goodyear, AZ 85338 ",85338,0.5401801466941833,220000,https://www.zillow.com/homedetails/17172-W-Ashley-Dr-Goodyear-AZ-85338/55287573_zpid/,33.4259,-112.429
875646,22182001,"20553 W Maiden Ln, Buckeye, AZ 85396 ",85396,0.5400736331939697,215000,https://www.zillow.com/homedetails/20553-W-Maiden-Ln-Buckeye-AZ-85396/81996209_zpid/,33.4793,-112.50200000000001
924256,21973629,"23221 W Lasso Ln, Buckeye, AZ 85326 ",85326,0.5400736331939697,225000,https://www.zillow.com/homedetails/23221-W-Lasso-Ln-Buckeye-AZ-85326/60996833_zpid/,33.4386,-112.55
1603312,21957498,"18516 W Turquoise Ave, Waddell, AZ 85355 ",85355,0.5400328636169434,315000,https://www.zillow.com/homedetails/18516-W-Turquoise-Ave-Waddell-AZ-85355/95113716_zpid/,33.5742,-112.458
563846,19987931,"10166 E Starion Ave, Mesa, AZ 85212 ",85212,0.5398717522621155,279990,https://www.zillow.com/homedetails/10166-E-Starion-Ave-Mesa-AZ-85212/119920137_zpid/,33.3256,-111.61399999999999
7448554,21929983,"16325 N 73rd Dr, Peoria, AZ 85382 ",85382,0.5394681692123413,289900,https://www.zillow.com/homedetails/16325-N-73rd-Dr-Peoria-AZ-85382/95167141_zpid/,33.6335,-112.21600000000001
273453,22113217,"2530 W Mark Ln, Phoenix, AZ 85085 ",85085,0.5394609570503235,314900,https://www.zillow.com/homedetails/2530-W-Mark-Ln-Phoenix-AZ-85085/71552275_zpid/,33.7445,-112.11399999999999
8962073,21877309,"2374 N Delaney Dr, Buckeye, AZ 85396 ",85396,0.5393885970115662,270494,https://www.zillow.com/homedetails/2374-N-Delaney-Dr-Buckeye-AZ-85396/95126652_zpid/,33.4727,-112.509
8962363,22252724,"327 N 169th Ave, Goodyear, AZ 85338 ",85338,0.5392646193504333,140000,https://www.zillow.com/homedetails/327-N-169th-Ave-Goodyear-AZ-85338/88788226_zpid/,33.4507,-112.42200000000001
8959315,21815717,"727 E Boca Raton Rd, Phoenix, AZ 85022 ",85022,0.5390803217887878,300000,https://www.zillow.com/homedetails/727-E-Boca-Raton-Rd-Phoenix-AZ-85022/2093845994_zpid/,33.6117,-112.065
876433,22061360,"20704 W Hamilton St, Buckeye, AZ 85396 ",85396,0.5389848351478577,273000,https://www.zillow.com/homedetails/20704-W-Hamilton-St-Buckeye-AZ-85396/95174669_zpid/,33.4813,-112.50399999999999
940479,21986526,"555 S 219th Dr, Buckeye, AZ 85326 ",85326,0.538918673992157,299870,https://www.zillow.com/homedetails/555-S-219th-Dr-Buckeye-AZ-85326/71626302_zpid/,33.442,-112.522
8959157,22105051,"16423 W Cielo Grande Ave, Surprise, AZ 85387 ",85387,0.5387890934944153,259900,https://www.zillow.com/homedetails/16423-W-Cielo-Grande-Ave-Surprise-AZ-85387/95070231_zpid/,33.7018,-112.412
7550962,22091787,"349 N 88th St, Mesa, AZ 85207 ",85207,0.5387471318244934,145900,https://www.zillow.com/homedetails/349-N-88th-St-Mesa-AZ-85207/8071420_zpid/,33.4219,-111.641
920808,21973257,"22602 W Ashleigh Marie Dr, Buckeye, AZ 85326 ",85326,0.5387101769447327,284900,https://www.zillow.com/homedetails/22602-W-Ashleigh-Marie-Dr-Buckeye-AZ-85326/67796824_zpid/,33.4306,-112.537
1471235,21963477,"9035 W Alex Ave, Peoria, AZ 85382 ",85382,0.5386528372764587,339000,https://www.zillow.com/homedetails/9035-W-Alex-Ave-Peoria-AZ-85382/7885619_zpid/,33.6811,-112.25399999999999
1264723,21976614,"2949 S Larkspur St, Gilbert, AZ 85295 ",85295,0.5385854840278625,399500,https://www.zillow.com/homedetails/2949-S-Larkspur-St-Gilbert-AZ-85295/52433699_zpid/,33.2966,-111.78200000000001
914282,21971463,"1945 S 235th Dr, Buckeye, AZ 85326 ",85326,0.5385782122612,237000,https://www.zillow.com/homedetails/1945-S-235th-Dr-Buckeye-AZ-85326/88788916_zpid/,33.4289,-112.557
1266934,21977834,"3271 E Canyon Creek Dr, Gilbert, AZ 85295 ",85295,0.5385511517524719,314900,https://www.zillow.com/homedetails/3271-E-Canyon-Creek-Dr-Gilbert-AZ-85295/55276704_zpid/,33.3035,-111.72
1269043,21978876,"3546 E Bridgeport Pkwy, Gilbert, AZ 85295 ",85295,0.5385511517524719,324900,https://www.zillow.com/homedetails/3546-E-Bridgeport-Pkwy-Gilbert-AZ-85295/55276815_zpid/,33.3013,-111.713
1272234,21981977,"4228 E Del Rio St, Gilbert, AZ 85295 ",85295,0.5384692549705505,289000,https://www.zillow.com/homedetails/4228-E-Del-Rio-St-Gilbert-AZ-85295/55275919_zpid/,33.3159,-111.698
1158809,21897068,"14812 N El Frio St, El Mirage, AZ 85335 ",85335,0.5383294224739075,174900,https://www.zillow.com/homedetails/14812-N-El-Frio-St-El-Mirage-AZ-85335/71609102_zpid/,33.6193,-112.31700000000001
8951488,21899311,"2026 S 172nd Ln, Goodyear, AZ 85338 ",85338,0.5382996201515198,174900,https://www.zillow.com/homedetails/2026-S-172nd-Ln-Goodyear-AZ-85338/55287385_zpid/,33.4278,-112.431
129774,22127763,"14716 W Via Manana, Sun City West, AZ 85375 ",85375,0.5380719304084778,215000,https://www.zillow.com/homedetails/14716-W-Via-Manana-Sun-City-West-AZ-85375/8124166_zpid/,33.6865,-112.37799999999999
8952445,21929795,"16050 W Jenan Dr, Surprise, AZ 85379 ",85379,0.5380629897117615,373900,https://www.zillow.com/homedetails/16050-W-Jenan-Dr-Surprise-AZ-85379/95098994_zpid/,33.5914,-112.405
1156466,21896799,"13030 W Larkspur Rd, El Mirage, AZ 85335 ",85335,0.5379881262779236,200000,https://www.zillow.com/homedetails/13030-W-Larkspur-Rd-El-Mirage-AZ-85335/59252331_zpid/,33.5973,-112.34100000000001
7563930,21978307,"3419 E Amber Ln, Gilbert, AZ 85296 ",85296,0.5379787087440491,307750,https://www.zillow.com/homedetails/3419-E-Amber-Ln-Gilbert-AZ-85296/95121913_zpid/,33.3451,-111.71700000000001
7457133,21947001,"15907 W Lundberg St, Surprise, AZ 85374 ",85374,0.5378876328468323,204900,https://www.zillow.com/homedetails/15907-W-Lundberg-St-Surprise-AZ-85374/8302390_zpid/,33.6367,-112.40100000000001
1130436,21813670,"715 N Yucca St, Chandler, AZ 85224 ",85224,0.5378864407539368,385000,https://www.zillow.com/homedetails/715-N-Yucca-St-Chandler-AZ-85224/8189818_zpid/,,
11827,21941634,"23205 N 117th Dr, Sun City, AZ 85373 ",85373,0.537879467010498,210000,http://www.zillow.com/homedetails/23205-N-117th-Dr-Sun-City-AZ-85373/71610369_zpid,33.6955,-112.31299999999999
594902,22069277,"2056 N 89th Pl, Mesa, AZ 85207 ",85207,0.5378522872924805,390000,https://www.zillow.com/homedetails/2056-N-89th-Pl-Mesa-AZ-85207/123846977_zpid/,33.453,-111.639
1271136,22127942,"3944 E Fairview St, Gilbert, AZ 85295 ",85295,0.5377782583236694,299000,https://www.zillow.com/homedetails/3944-E-Fairview-St-Gilbert-AZ-85295/67801310_zpid/,33.2961,-111.705
933684,21975036,"25557 W St Kateri Dr, Buckeye, AZ 85326 ",85326,0.5376440286636353,239000,https://www.zillow.com/homedetails/25557-W-St-Kateri-Dr-Buckeye-AZ-85326/81998195_zpid/,33.3855,-112.601
880316,21838294,"21171 W Court St, Buckeye, AZ 85396 ",85396,0.5376424789428711,284888,https://www.zillow.com/homedetails/21171-W-Court-St-Buckeye-AZ-85396/67779410_zpid/,33.4924,-112.515
1096818,22286140,"887 W Ivanhoe St, Chandler, AZ 85225 ",85225,0.5375380516052246,230000,https://www.zillow.com/homedetails/887-W-Ivanhoe-St-Chandler-AZ-85225/52149691_zpid/,33.3172,-111.85700000000001
8948692,21898010,"16781 W Watkins St, Goodyear, AZ 85338 ",85338,0.5375050902366638,354900,https://www.zillow.com/homedetails/16781-W-Watkins-St-Goodyear-AZ-85338/95138466_zpid/,33.4248,-112.42
1425630,21978774,"3528 W Mariposa Grande, Glendale, AZ 85310 ",85310,0.5374466180801392,271900,https://www.zillow.com/homedetails/3528-W-Mariposa-Grande-Glendale-AZ-85310/7932313_zpid/,33.7028,-112.13600000000001
7567285,21901833,"2768 S 155th Ln, Goodyear, AZ 85338 ",85338,0.5374030470848083,225000,https://www.zillow.com/homedetails/2768-S-155th-Ln-Goodyear-AZ-85338/67778363_zpid/,33.4215,-112.39399999999999
7435912,22103058,"2112 N 88th St, Mesa, AZ 85207 ",85207,0.5371676087379456,362000,https://www.zillow.com/homedetails/2112-N-88th-St-Mesa-AZ-85207/125143247_zpid/,,
7444087,21898201,"17131 S 174th Dr, Goodyear, AZ 85338 ",85338,0.5370314121246338,229900,https://www.zillow.com/homedetails/17131-S-174th-Dr-Goodyear-AZ-85338/95102746_zpid/,33.2915,-112.425
564819,22214906,"10512 E Obispo Ave, Mesa, AZ 85212 ",85212,0.5370250940322876,335000,https://www.zillow.com/homedetails/10512-E-Obispo-Ave-Mesa-AZ-85212/14094820_zpid/,33.3625,-111.60799999999999
1148998,21896115,"12528 W Saint Moritz Ln, El Mirage, AZ 85335 ",85335,0.5370045900344849,185000,https://www.zillow.com/homedetails/12528-W-Saint-Moritz-Ln-El-Mirage-AZ-85335/62740696_zpid/,33.618,-112.334
1848463,21929661,"15911 W Cameron Dr, Surprise, AZ 85379 ",85379,0.5369832515716553,348950,https://www.zillow.com/homedetails/15911-W-Cameron-Dr-Surprise-AZ-85379/95123308_zpid/,33.5881,-112.402
1852740,21254438,"4003 W Kirkland Ave, Queen Creek, AZ 85142 ",85142,0.5369483232498169,239500,http://www.zillow.com/homedetails/4003-W-Kirkland-Ave-Queen-Creek-AZ-85142/124170942_zpid/,33.181999999999995,-111.609
1147980,21956913,"12477 W Via Camille, El Mirage, AZ 85335 ",85335,0.5368524789810181,169000,https://www.zillow.com/homedetails/12477-W-Via-Camille-El-Mirage-AZ-85335/60999747_zpid/,33.6161,-112.329
8958113,22270075,"1187 S Rebecca Ct, Gilbert, AZ 85296 ",85296,0.5368524789810181,285000,https://www.zillow.com/homedetails/1187-S-Rebecca-Ct-Gilbert-AZ-85296/8243054_zpid/,33.329,-111.73200000000001
7540228,21898609,"17825 W Lincoln St, Goodyear, AZ 85338 ",85338,0.5368130803108215,234900,https://www.zillow.com/homedetails/17825-W-Lincoln-St-Goodyear-AZ-85338/89221054_zpid/,33.4409,-112.44200000000001
1268315,21978492,"3471 E Ivanhoe St, Gilbert, AZ 85295 ",85295,0.5367960929870605,376000,https://www.zillow.com/homedetails/3471-E-Ivanhoe-St-Gilbert-AZ-85295/95095650_zpid/,33.3176,-111.715
582162,22106103,"10849 E Stanton Ave, Mesa, AZ 85212 ",85212,0.5366532206535339,299000,https://www.zillow.com/homedetails/10849-E-Stanton-Ave-Mesa-AZ-85212/81987813_zpid/,33.3265,-111.59899999999999
125760,21945208,"13537 W Nogales Dr, Sun City West, AZ 85375 ",85375,0.5366019606590271,330000,https://www.zillow.com/homedetails/13537-W-Nogales-Dr-Sun-City-West-AZ-85375/68520584_zpid/,33.6949,-112.352
1050614,21831904,"709 E Prescott Dr, Chandler, AZ 85249 ",85249,0.536600649356842,399000,https://www.zillow.com/homedetails/709-E-Prescott-Dr-Chandler-AZ-85249/60986104_zpid/,,
1254731,21969862,"1689 S Parkcrest St, Gilbert, AZ 85295 ",85295,0.5365679264068604,324000,https://www.zillow.com/homedetails/1689-S-Parkcrest-St-Gilbert-AZ-85295/81984914_zpid/,33.3191,-111.73299999999999
8799151,21958021,"5107 W Glass Ln, Laveen, AZ 85339 ",85339,0.5365639328956604,205000,https://www.zillow.com/homedetails/5107-W-Glass-Ln-Laveen-AZ-85339/67789279_zpid/,33.3843,-112.169
49405,22028147,"16671 S 24th Pl, Phoenix, AZ 85048 ",85048,0.5363667011260986,340000,https://www.zillow.com/homedetails/16671-S-24th-Pl-Phoenix-AZ-85048/8257012_zpid/,33.2947,-112.031
1199763,22045774,"954 W Redondo Dr, Gilbert, AZ 85233 ",85233,0.5363173484802246,189000,https://www.zillow.com/homedetails/954-W-Redondo-Dr-Gilbert-AZ-85233/8181100_zpid/,33.335,-111.81200000000001
7563911,22240731,"1238 W Sea Crest Dr, Gilbert, AZ 85233 ",85233,0.5361341238021851,297500,https://www.zillow.com/homedetails/1238-W-Sea-Crest-Dr-Gilbert-AZ-85233/8202865_zpid/,33.3421,-111.81700000000001
8956709,21931432,"21514 N 82nd Ln, Peoria, AZ 85382 ",85382,0.5360546112060547,295000,https://www.zillow.com/homedetails/21514-N-82nd-Ln-Peoria-AZ-85382/7886610_zpid/,33.6797,-112.23700000000001
1272307,21982003,"4235 E Loma Vista St, Gilbert, AZ 85295 ",85295,0.5358497500419617,340000,https://www.zillow.com/homedetails/4235-E-Loma-Vista-St-Gilbert-AZ-85295/55199268_zpid/,33.3147,-111.698
1257148,21971066,"1902 E Dublin St, Gilbert, AZ 85295 ",85295,0.5358497500419617,330000,https://www.zillow.com/homedetails/1902-E-Dublin-St-Gilbert-AZ-85295/54487639_zpid/,33.3194,-111.749
1932187,21965491,"9960 W Ross Ave, Peoria, AZ 85382 ",85382,0.5358349680900574,270000,https://www.zillow.com/homedetails/9960-W-Ross-Ave-Peoria-AZ-85382/7884366_zpid/,33.6743,-112.274
1252915,22183007,"139 E Chelsea Ln, Gilbert, AZ 85295 ",85295,0.535833477973938,349900,https://www.zillow.com/homedetails/139-E-Chelsea-Ln-Gilbert-AZ-85295/121423182_zpid/,33.3025,-111.785
8956728,22128116,"9567 W Sunnyslope Ln, Peoria, AZ 85345 ",85345,0.535602331161499,178000,https://www.zillow.com/homedetails/9567-W-Sunnyslope-Ln-Peoria-AZ-85345/7697874_zpid/,33.5693,-112.266
1154648,21896677,"12926 W Laurel Ln, El Mirage, AZ 85335 ",85335,0.5355092287063599,155000,https://www.zillow.com/homedetails/12926-W-Laurel-Ln-El-Mirage-AZ-85335/52932591_zpid/,33.5932,-112.339
1154232,21896624,"12917 W Columbine Dr, El Mirage, AZ 85335 ",85335,0.5355092287063599,169900,https://www.zillow.com/homedetails/12917-W-Columbine-Dr-El-Mirage-AZ-85335/58477866_zpid/,33.5965,-112.338
1271179,21980707,"3951 E Yeager Dr, Gilbert, AZ 85295 ",85295,0.5355052351951599,370000,https://www.zillow.com/homedetails/3951-E-Yeager-Dr-Gilbert-AZ-85295/71608350_zpid/,33.2986,-111.705
308825,22243781,"41025 N Iron Horse Way, Anthem, AZ 85086 ",85086,0.5355005264282227,324700,https://www.zillow.com/homedetails/41025-N-Iron-Horse-Way-Anthem-AZ-85086/55264170_zpid/,33.8576,-112.115
881091,22182019,"2256 N Alsap Rd, Buckeye, AZ 85396 ",85396,0.5354686379432678,277000,https://www.zillow.com/homedetails/2256-N-Alsap-Rd-Buckeye-AZ-85396/95172453_zpid/,33.4716,-112.508
911299,21968395,"148 N 227th Ln, Buckeye, AZ 85326 ",85326,0.5354686379432678,209900,https://www.zillow.com/homedetails/148-N-227th-Ln-Buckeye-AZ-85326/68960954_zpid/,33.4489,-112.541
610526,22016741,"10448 E Medina Ave, Mesa, AZ 85209 ",85209,0.5354102253913879,294900,https://www.zillow.com/homedetails/10448-E-Medina-Ave-Mesa-AZ-85209/62735737_zpid/,33.3756,-111.611
7887198,21897174,"15275 W Jefferson St, Goodyear, AZ 85338 ",85338,0.5353602170944214,214799,https://www.zillow.com/homedetails/15275-W-Jefferson-St-Goodyear-AZ-85338/59255331_zpid/,33.4464,-112.38799999999999
66572,21972157,"2075 E Stottler Ct, Gilbert, AZ 85296 ",85296,0.5353422164916992,235000,https://www.zillow.com/homedetails/2075-E-Stottler-Ct-Gilbert-AZ-85296/8242188_zpid/,33.3321,-111.745
1097058,22133191,"897 E Baylor Ln, Chandler, AZ 85225 ",85225,0.5353422164916992,263500,https://www.zillow.com/homedetails/897-E-Baylor-Ln-Chandler-AZ-85225/8182639_zpid/,33.324,-111.82700000000001
29517,21984919,"5022 W Tonto Rd, Glendale, AZ 85308 ",85308,0.5351328253746033,244000,https://www.zillow.com/homedetails/5022-W-Tonto-Rd-Glendale-AZ-85308/7937994_zpid/,33.6652,-112.16799999999999
447369,22075810,"8308 W Sheridan St, Phoenix, AZ 85037 ",85037,0.5351306796073914,176000,https://www.zillow.com/homedetails/8308-W-Sheridan-St-Phoenix-AZ-85037/81967429_zpid/,33.4752,-112.238
1485090,22027283,"20051 N Coyote Lakes Pkwy, Surprise, AZ 85378 ",85378,0.5350680351257324,165000,https://www.zillow.com/homedetails/20051-N-Coyote-Lakes-Pkwy-Surprise-AZ-85378/8318853_zpid/,33.6658,-112.30799999999999
8962323,21906914,"15926 W Pima St, Goodyear, AZ 85338 ",85338,0.5349699258804321,250000,https://www.zillow.com/homedetails/15926-W-Pima-St-Goodyear-AZ-85338/71628722_zpid/,33.4317,-112.40100000000001
1477275,22253015,"11354 W Austin Thomas Dr, Surprise, AZ 85378 ",85378,0.5349028706550598,244900,https://www.zillow.com/homedetails/11354-W-Austin-Thomas-Dr-Surprise-AZ-85378/52426007_zpid/,33.6487,-112.303
445968,22251225,"2921 N 113th Ln, Avondale, AZ 85392 ",85392,0.5349028706550598,274500,https://www.zillow.com/homedetails/2921-N-113th-Ln-Avondale-AZ-85392/7486674_zpid/,33.48,-112.303
968287,22133163,"5138 W Jupiter Way, Chandler, AZ 85226 ",85226,0.5348965525627136,218000,https://www.zillow.com/homedetails/5138-W-Jupiter-Way-Chandler-AZ-85226/8165981_zpid/,,
669240,22246782,"7251 E Monte Ave, Mesa, AZ 85209 ",85209,0.5348702073097229,245000,https://www.zillow.com/homedetails/7251-E-Monte-Ave-Mesa-AZ-85209/8273160_zpid/,33.3698,-111.677
7554115,21976640,"2944 E Melrose St, Gilbert, AZ 85297 ",85297,0.5348437428474426,359000,https://www.zillow.com/homedetails/2944-E-Melrose-St-Gilbert-AZ-85297/95129662_zpid/,33.2809,-111.726
1031926,22133125,"2684 E Birchwood Pl, Chandler, AZ 85249 ",85249,0.5347036123275757,380000,https://www.zillow.com/homedetails/2684-E-Birchwood-Pl-Chandler-AZ-85249/55274351_zpid/,33.2275,-111.794
1212444,22068688,"1248 E Linda Ln, Gilbert, AZ 85234 ",85234,0.5347036123275757,339000,https://www.zillow.com/homedetails/1248-E-Linda-Ln-Gilbert-AZ-85234/8269729_zpid/,33.3523,-111.762
1310771,21977324,"3101 E Muirfield St, Gilbert, AZ 85298 ",85298,0.5346692800521851,365000,https://www.zillow.com/homedetails/3101-E-Muirfield-St-Gilbert-AZ-85298/62734145_zpid/,33.2249,-111.723
1431003,21455751,"6817 W Williams Dr, Glendale, AZ 85310 ",85310,0.5346468687057495,359900,http://www.zillow.com/homedetails/6817-W-Williams-Dr-Glendale-AZ-85310/7880739_zpid,33.6882,-112.205
884137,22020141,"26310 W Mohawk Ln, Buckeye, AZ 85396 ",85396,0.5346422791481018,263800,https://www.zillow.com/homedetails/26310-W-Mohawk-Ln-Buckeye-AZ-85396/81994763_zpid/,33.6712,-112.617
8962799,22186363,"9937 E Empress Ave, Mesa, AZ 85208 ",85208,0.5345687866210938,207900,https://www.zillow.com/homedetails/9937-E-Empress-Ave-Mesa-AZ-85208/71621505_zpid/,33.3996,-111.616
76885,21992030,"934 E Rojo Way, Gilbert, AZ 85297 ",85297,0.5344947576522827,385000,https://www.zillow.com/homedetails/934-E-Rojo-Way-Gilbert-AZ-85297/95172627_zpid/,33.2654,-111.77
1374690,21991813,"8967 W Northview Ave, Glendale, AZ 85305 ",85305,0.5343366265296936,229850,https://www.zillow.com/homedetails/8967-W-Northview-Ave-Glendale-AZ-85305/95137725_zpid/,33.542,-112.25200000000001
181400,22131435,"1409 W Windsong Dr, Phoenix, AZ 85045 ",85045,0.534304141998291,339900,https://www.zillow.com/homedetails/1409-W-Windsong-Dr-Phoenix-AZ-85045/8284665_zpid/,33.2928,-112.09
1482966,21922446,"17775 N 114th Dr Surprise, AZ 85378 ",85378,0.5342772603034973,286950,http://www.zillow.com/homedetails/17775-N-114th-Dr-Surprise-AZ-85378/95180038_zpid/,33.6452,-112.304
1482991,21930249,"17783 N 114th Dr Surprise, AZ 85378 ",85378,0.5342772603034973,256950,https://www.zillow.com/homedetails/17783-N-114th-Dr-Surprise-AZ-85378/95101905_zpid/,33.6452,-112.305
1052288,21832994,"854 E Torrey Pines Pl, Chandler, AZ 85249 ",85249,0.5342198014259338,374000,https://www.zillow.com/homedetails/854-E-Torrey-Pines-Pl-Chandler-AZ-85249/60986467_zpid/,33.218,-111.82799999999999
1272323,21982032,"4236 E Carla Vista Dr, Gilbert, AZ 85295 ",85295,0.5342113971710205,234900,https://www.zillow.com/homedetails/4236-E-Carla-Vista-Dr-Gilbert-AZ-85295/81994361_zpid/,33.3119,-111.699
8955871,21959396,"6929 W Sophie Ln, Laveen, AZ 85339 ",85339,0.5341302156448364,249800,https://www.zillow.com/homedetails/6929-W-Sophie-Ln-Laveen-AZ-85339/81981174_zpid/,33.3765,-112.20700000000001
8954624,21968115,"1438 E Cheyenne St, Gilbert, AZ 85296 ",85296,0.5339870452880859,299999,https://www.zillow.com/homedetails/1438-E-Cheyenne-St-Gilbert-AZ-85296/8238716_zpid/,33.3466,-111.759
8959069,22252976,"1310 N Brentwood Pl, Chandler, AZ 85224 ",85224,0.5339848399162292,395000,https://www.zillow.com/homedetails/1310-N-Brentwood-Pl-Chandler-AZ-85224/8203287_zpid/,33.3261,-111.87100000000001
28888,21810962,"2506 W Red Fox Rd, Phoenix, AZ 85085 ",85085,0.533977210521698,269500,https://www.zillow.com/homedetails/2506-W-Red-Fox-Rd-Phoenix-AZ-85085/62730471_zpid/,33.7399,-112.113
8957711,22182829,"14467 N 147th Dr, Surprise, AZ 85379 ",85379,0.5339593291282654,219900,https://www.zillow.com/homedetails/14467-N-147th-Dr-Surprise-AZ-85379/60051190_zpid/,33.6152,-112.37700000000001
564892,21992620,"10521 E Pantera Ave, Mesa, AZ 85212 ",85212,0.5339245200157166,329000,https://www.zillow.com/homedetails/10521-E-Pantera-Ave-Mesa-AZ-85212/50199512_zpid/,33.3587,-111.60600000000001
8962795,21938686,"7753 E Boise St, Mesa, AZ 85207 ",85207,0.533859372138977,265000,https://www.zillow.com/homedetails/7753-E-Boise-St-Mesa-AZ-85207/60982442_zpid/,33.42,-111.664
1259273,21973393,"2290 S Boulder St, Gilbert, AZ 85295 ",85295,0.5338306427001953,400000,https://www.zillow.com/homedetails/2290-S-Boulder-St-Gilbert-AZ-85295/50197677_zpid/,33.3089,-111.759
7485224,21957925,"4830 W Donner Dr, Laveen, AZ 85339 ",85339,0.5338265299797058,224900,https://www.zillow.com/homedetails/4830-W-Donner-Dr-Laveen-AZ-85339/81954212_zpid/,33.3781,-112.163
1257398,21971065,"1902 S Tucana Ln, Gilbert, AZ 85295 ",85295,0.5338060259819031,318900,https://www.zillow.com/homedetails/1902-S-Tucana-Ln-Gilbert-AZ-85295/81953635_zpid/,33.3161,-111.728
7385512,21896172,"12577 S 176th Ave, Goodyear, AZ 85338 ",85338,0.5336905717849731,302900,https://www.zillow.com/homedetails/12577-S-176th-Ave-Goodyear-AZ-85338/55281722_zpid/,33.3325,-112.427
22526,22102174,"28736 N 20th Ln, Phoenix, AZ 85085 ",85085,0.5336865782737732,265000,http://www.zillow.com/homedetails/28736-N-20th-Ln-Phoenix-AZ-85085/82823608_zpid/,33.7456,-112.104
1265678,21977157,"3059 E Parkview Dr, Gilbert, AZ 85295 ",85295,0.533461332321167,399000,https://www.zillow.com/homedetails/3059-E-Parkview-Dr-Gilbert-AZ-85295/55276449_zpid/,33.3011,-111.72399999999999
8952673,21959891,"7211 W Dreyfus Dr, Peoria, AZ 85381 ",85381,0.5334206819534302,299900,https://www.zillow.com/homedetails/7211-W-Dreyfus-Dr-Peoria-AZ-85381/7924857_zpid/,33.6037,-112.215
52401,22184422,"2974 E Glenhaven Dr, Phoenix, AZ 85048 ",85048,0.5333724617958069,355000,http://www.zillow.com/homedetails/2974-E-Glenhaven-Dr-Phoenix-AZ-85048/119919979_zpid/,33.2952,-112.021
1431985,21484188,"7423 W Robin Ln, Glendale, AZ 85310 ",85310,0.5332024097442627,320000,http://www.zillow.com/homedetails/7423-W-Robin-Ln-Glendale-AZ-85310/7881299_zpid,33.6867,-112.21799999999999
8962791,21938665,"325 S Aaron, Mesa, AZ 85208 ",85208,0.5331807136535645,190000,https://www.zillow.com/homedetails/325-S-Aaron-Mesa-AZ-85208/81989888_zpid/,33.4092,-111.625
7438465,22127892,"28621 N Bush St, Wittmann, AZ 85361 ",85361,0.5330356955528259,345735,https://www.zillow.com/homedetails/28621-N-Bush-St-Wittmann-AZ-85361/95176699_zpid/,33.7427,-112.53200000000001
755638,22086306,"1719 N Sinova, Mesa, AZ 85205 ",85205,0.5330116152763367,244000,https://www.zillow.com/homedetails/1719-N-Sinova-Mesa-AZ-85205/52424748_zpid/,33.4472,-111.71600000000001
998555,21972744,"2180 S Navajo Way, Chandler, AZ 85286 ",85286,0.5329540371894836,255000,https://www.zillow.com/homedetails/2180-S-Navajo-Way-Chandler-AZ-85286/8227237_zpid/,33.2738,-111.86399999999999
19637,22261254,"9810 S 44th Dr, Laveen, AZ 85339 ",85339,0.5329267978668213,309000,https://www.zillow.com/homedetails/9810-S-44th-Dr-Laveen-AZ-85339/67771621_zpid/,33.3573,-112.155
1271446,22180478,"4071 E Vest Ave, Gilbert, AZ 85295 ",85295,0.5328671336174011,249900,http://www.zillow.com/homedetails/4071-E-Vest-Ave-Gilbert-AZ-85295/82385889_zpid,33.3105,-111.70200000000001
1257688,21971448,"1950 S Falcon Dr, Gilbert, AZ 85295 ",85295,0.5328671336174011,230000,https://www.zillow.com/homedetails/1950-S-Falcon-Dr-Gilbert-AZ-85295/60987879_zpid/,33.3151,-111.695
8955388,22182832,"14830 W Jenan Dr, Surprise, AZ 85379 ",85379,0.5328497886657715,235000,https://www.zillow.com/homedetails/14830-W-Jenan-Dr-Surprise-AZ-85379/60999898_zpid/,33.591,-112.38
1547071,22056220,"2471 W Indigo Dr, Chandler, AZ 85248 ",85248,0.5328254103660583,289900,https://www.zillow.com/homedetails/2471-W-Indigo-Dr-Chandler-AZ-85248/8211329_zpid/,33.254,-111.883
1319353,21984699,"4986 S Harvest Ct, Gilbert, AZ 85298 ",85298,0.5328254103660583,298000,https://www.zillow.com/homedetails/4986-S-Harvest-Ct-Gilbert-AZ-85298/25776640_zpid/,33.2606,-111.70100000000001
8957267,22214933,"14312 W Country Gables Dr, Surprise, AZ 85379 ",85379,0.5327528715133667,375000,https://www.zillow.com/homedetails/14312-W-Country-Gables-Dr-Surprise-AZ-85379/62740648_zpid/,33.62,-112.368
1223925,22029444,"3051 E Millbrae Ln, Gilbert, AZ 85234 ",85234,0.5327528715133667,320000,https://www.zillow.com/homedetails/3051-E-Millbrae-Ln-Gilbert-AZ-85234/8232714_zpid/,33.375,-111.726
7453793,22104579,"9861 E Lindner Ave, Mesa, AZ 85209 ",85209,0.5327528715133667,337900,https://www.zillow.com/homedetails/9861-E-Lindner-Ave-Mesa-AZ-85209/55205633_zpid/,33.3774,-111.635
1497273,22069105,"17748 W Gelding Dr, Surprise, AZ 85388 ",85388,0.5327528715133667,324000,https://www.zillow.com/homedetails/17748-W-Gelding-Dr-Surprise-AZ-85388/60996415_zpid/,33.6154,-112.44
7419446,22103860,"472 W Myrtle Dr, Chandler, AZ 85248 ",85248,0.5326838493347168,362400,https://www.zillow.com/homedetails/472-W-Myrtle-Dr-Chandler-AZ-85248/2095244792_zpid/,33.2503,-111.848
8956713,22299452,"7908 W Rose Garden Ln, Peoria, AZ 85382 ",85382,0.5325174927711487,325000,https://www.zillow.com/homedetails/7908-W-Rose-Garden-Ln-Peoria-AZ-85382/7886242_zpid/,33.6725,-112.23
1498604,22214951,"17808 W Voltaire St, Surprise, AZ 85388 ",85388,0.5325174927711487,272000,https://www.zillow.com/homedetails/17808-W-Voltaire-St-Surprise-AZ-85388/82386267_zpid/,33.6089,-112.44200000000001
738949,22017106,"2163 N 28th Pl, Mesa, AZ 85213 ",85213,0.5324991941452026,205000,https://www.zillow.com/homedetails/2163-N-28th-Pl-Mesa-AZ-85213/7658374_zpid/,33.4553,-111.76899999999999
359944,21957620,"3215 S 89th Ave, Tolleson, AZ 85353 ",85353,0.5324822664260864,215000,https://www.zillow.com/homedetails/3215-S-89th-Ave-Tolleson-AZ-85353/95170020_zpid/,33.4177,-112.251
8966221,22246883,"2740 W Glenhaven Dr, Phoenix, AZ 85045 ",85045,0.5322863459587097,375000,https://www.zillow.com/homedetails/2740-W-Glenhaven-Dr-Phoenix-AZ-85045/59265486_zpid/,33.2951,-112.12100000000001
203254,22232484,"9616 S 26th Ln, Phoenix, AZ 85041 ",85041,0.5322863459587097,339900,https://www.zillow.com/homedetails/9616-S-26th-Ln-Phoenix-AZ-85041/60984097_zpid/,33.3583,-112.117
806294,22078685,"619 S 27th Pl, Mesa, AZ 85204 ",85204,0.532281219959259,279900,http://www.zillow.com/homedetails/619-S-27th-Pl-Mesa-AZ-85204/59270175_zpid/,33.4045,-111.772
967937,22071382,"5076 W Boston Way, Chandler, AZ 85226 ",85226,0.5322401523590088,225000,https://www.zillow.com/homedetails/5076-W-Boston-Way-Chandler-AZ-85226/8165956_zpid/,,
8894104,22218627,"10430 E Nido Ave, Mesa, AZ 85209 ",85209,0.5322098731994629,329900,https://www.zillow.com/homedetails/10430-E-Nido-Ave-Mesa-AZ-85209/124427350_zpid/,,
1371853,21879519,"8370 W Luke Ave, Glendale, AZ 85305 ",85305,0.532152533531189,373500,http://www.zillow.com/homedetails/8370-W-Luke-Ave-Glendale-AZ-85305/60166653_zpid/,33.5171,-112.24
1094836,21813744,"821 E Kesler Ln, Chandler, AZ 85225 ",85225,0.5321062803268433,297900,https://www.zillow.com/homedetails/821-E-Kesler-Ln-Chandler-AZ-85225/8206262_zpid/,33.2924,-111.82799999999999
7451521,22102756,"15826 S 32nd Pl, Phoenix, AZ 85048 ",85048,0.5321062803268433,334900,https://www.zillow.com/homedetails/15826-S-32nd-Pl-Phoenix-AZ-85048/8257387_zpid/,33.3022,-112.014
565089,22016727,"10032 E Isleta Ave, Mesa, AZ 85209 ",85209,0.5320693850517273,195500,https://www.zillow.com/homedetails/10032-E-Isleta-Ave-Mesa-AZ-85209/71551707_zpid/,33.3855,-111.61399999999999
194207,22232418,"2611 W Buist Ave, Phoenix, AZ 85041 ",85041,0.5320509672164917,343900,https://www.zillow.com/homedetails/2611-W-Buist-Ave-Phoenix-AZ-85041/60984064_zpid/,33.3586,-112.116
7461103,21928271,"15054 W Riviera Dr, Surprise, AZ 85379 ",85379,0.5320358872413635,289900,https://www.zillow.com/homedetails/15054-W-Riviera-Dr-Surprise-AZ-85379/61000014_zpid/,33.5928,-112.384
135377,21948208,"17343 N 169th Dr, Surprise, AZ 85374 ",85374,0.5320358872413635,239000,https://www.zillow.com/homedetails/17343-N-169th-Dr-Surprise-AZ-85374/67785976_zpid/,33.641999999999996,-112.42299999999999
7459442,21957558,"21675 N 91st Dr, Peoria, AZ 85382 ",85382,0.5318853259086609,284000,https://www.zillow.com/homedetails/21675-N-91st-Dr-Peoria-AZ-85382/52429863_zpid/,33.6776,-112.256
26685,22125543,"8462 W Lewis Ave, Phoenix, AZ 85037 ",85037,0.531863808631897,159999,https://www.zillow.com/homedetails/8462-W-Lewis-Ave-Phoenix-AZ-85037/82823097_zpid/,33.4739,-112.242
8948022,21973460,"230 E Gail Ct, Gilbert, AZ 85296 ",85296,0.5318365097045898,349900,https://www.zillow.com/homedetails/230-E-Gail-Ct-Gilbert-AZ-85296/8240636_zpid/,33.3241,-111.785
1502426,21995589,"18409 W Port Au Prince Ln, Surprise, AZ 85388 ",85388,0.5318269729614258,299900,https://www.zillow.com/homedetails/18409-W-Port-Au-Prince-Ln-Surprise-AZ-85388/67779038_zpid/,33.6226,-112.455
1212940,22235601,"1310 N Blue Marlin Dr, Gilbert, AZ 85234 ",85234,0.531798243522644,374900,https://www.zillow.com/homedetails/1310-N-Blue-Marlin-Dr-Gilbert-AZ-85234/8248172_zpid/,33.3743,-111.76299999999999
1042644,22235671,"4824 E Bellerive Dr, Chandler, AZ 85249 ",85249,0.5317201018333435,254900,https://www.zillow.com/homedetails/4824-E-Bellerive-Dr-Chandler-AZ-85249/58595643_zpid/,33.2165,-111.76
1050243,22040124,"6960 S Turquoise Pl, Chandler, AZ 85249 ",85249,0.5317201018333435,284500,https://www.zillow.com/homedetails/6960-S-Turquoise-Pl-Chandler-AZ-85249/67777737_zpid/,33.2054,-111.765
518940,21925255,"13061 W Eagle Talon Trl, Peoria, AZ 85383 ",85383,0.531611442565918,305000,https://www.zillow.com/homedetails/13061-W-Eagle-Talon-Trl-Peoria-AZ-85383/81960673_zpid/,33.7372,-112.34200000000001
527835,22217632,"9514 W Monte Vista Rd, Phoenix, AZ 85037 ",85037,0.5316112041473389,179900,https://www.zillow.com/homedetails/9514-W-Monte-Vista-Rd-Phoenix-AZ-85037/60975027_zpid/,33.4702,-112.265
1190809,22072401,"558 N Jackson St, Gilbert, AZ 85233 ",85233,0.5316011309623718,325000,https://www.zillow.com/homedetails/558-N-Jackson-St-Gilbert-AZ-85233/8175500_zpid/,33.3597,-111.82799999999999
1555122,22094981,"5101 S Mcclelland Dr, Chandler, AZ 85248 ",85248,0.5314806699752808,349900,https://www.zillow.com/homedetails/5101-S-Mcclelland-Dr-Chandler-AZ-85248/8225434_zpid/,33.2314,-111.85600000000001
1052770,21833216,"883 E Gemini Pl, Chandler, AZ 85249 ",85249,0.5314806699752808,324000,https://www.zillow.com/homedetails/883-E-Gemini-Pl-Chandler-AZ-85249/55725593_zpid/,33.2202,-111.82700000000001
69340,21978523,"3485 S Seneca Way, Gilbert, AZ 85297 ",85297,0.5313239693641663,265000,https://www.zillow.com/homedetails/3485-S-Seneca-Way-Gilbert-AZ-85297/95085895_zpid/,33.2877,-111.691
7498975,21963340,"9009 S 57th Dr, Laveen, AZ 85339 ",85339,0.5312477946281433,245000,https://www.zillow.com/homedetails/9009-S-57th-Dr-Laveen-AZ-85339/82800929_zpid/,33.3646,-112.182
8954671,21835119,"12014 W Granada Rd, Avondale, AZ 85392 ",85392,0.531201183795929,189900,https://www.zillow.com/homedetails/12014-W-Granada-Rd-Avondale-AZ-85392/8300968_zpid/,33.4673,-112.318
874837,22183204,"923 E Randy St, Avondale, AZ 85323 ",85323,0.5311760306358337,199900,https://www.zillow.com/homedetails/923-E-Randy-St-Avondale-AZ-85323/81996826_zpid/,33.4285,-112.339
1476206,22214916,"11125 W Ashley Chantil Dr, Surprise, AZ 85378 ",85378,0.5311760306358337,220000,https://www.zillow.com/homedetails/11125-W-Ashley-Chantil-Dr-Surprise-AZ-85378/52426075_zpid/,33.6473,-112.3
1209707,21940303,"1024 E Vaughn Ave, Gilbert, AZ 85234 ",85234,0.5311171412467957,320000,https://www.zillow.com/homedetails/1024-E-Vaughn-Ave-Gilbert-AZ-85234/8269119_zpid/,33.3561,-111.76799999999999
187724,22115724,"3339 E Windsong Dr, Phoenix, AZ 85048 ",85048,0.5311171412467957,334900,https://www.zillow.com/homedetails/3339-E-Windsong-Dr-Phoenix-AZ-85048/8255869_zpid/,33.295,-112.01100000000001
53932,22116712,"3801 E Tanglewood Dr, Phoenix, AZ 85048 ",85048,0.5311171412467957,349900,https://www.zillow.com/homedetails/3801-E-Tanglewood-Dr-Phoenix-AZ-85048/8255643_zpid/,33.2988,-112.00200000000001
7416354,22076145,"856 E Geronimo Ct, Chandler, AZ 85225 ",85225,0.5310992002487183,333000,https://www.zillow.com/homedetails/856-E-Geronimo-Ct-Chandler-AZ-85225/8206129_zpid/,33.2937,-111.82799999999999
75239,21982996,"4512 E Santa Fe Ln, Gilbert, AZ 85297 ",85297,0.5310726761817932,272000,https://www.zillow.com/homedetails/4512-E-Santa-Fe-Ln-Gilbert-AZ-85297/71623848_zpid/,33.2798,-111.69200000000001
8958678,22240727,"11035 E Wier Ave, Mesa, AZ 85208 ",85208,0.5310459136962891,209900,https://www.zillow.com/homedetails/11035-E-Wier-Ave-Mesa-AZ-85208/50192777_zpid/,33.4042,-111.59299999999999
8950769,22240919,"30419 W Mckinley St, Buckeye, AZ 85396 ",85396,0.5309101343154907,269000,https://www.zillow.com/homedetails/30419-W-Mckinley-St-Buckeye-AZ-85396/95142660_zpid/,33.4554,-112.70700000000001
1990167,22218444,"519 W Port Royale Ln, Phoenix, AZ 85023 ",85023,0.5308902263641357,344900,https://www.zillow.com/homedetails/519-W-Port-Royale-Ln-Phoenix-AZ-85023/7964968_zpid/,33.6225,-112.08
801091,22143391,"916 E Gable Ave, Mesa, AZ 85204 ",85204,0.5308876633644104,189900,https://www.zillow.com/homedetails/916-E-Gable-Ave-Mesa-AZ-85204/7629201_zpid/,33.3923,-111.811
987137,22127744,"1242 S Bridger Dr, Chandler, AZ 85286 ",85286,0.5308856964111328,220999,https://www.zillow.com/homedetails/1242-S-Bridger-Dr-Chandler-AZ-85286/8209270_zpid/,33.288000000000004,-111.831
1252547,21967412,"1328 E Frances Ln, Gilbert, AZ 85295 ",85295,0.5308218002319336,245000,https://www.zillow.com/homedetails/1328-E-Frances-Ln-Gilbert-AZ-85295/67793070_zpid/,33.2942,-111.762
990686,21968400,"1489 E Iris Dr, Chandler, AZ 85286 ",85286,0.5308148264884949,360000,https://www.zillow.com/homedetails/1489-E-Iris-Dr-Chandler-AZ-85286/60049671_zpid/,,
1145331,22260940,"12229 W Larkspur Rd, El Mirage, AZ 85335 ",85335,0.530754804611206,150000,https://www.zillow.com/homedetails/12229-W-Larkspur-Rd-El-Mirage-AZ-85335/29618318_zpid/,33.5965,-112.323
7495330,21959283,"6814 W Gary Way, Laveen, AZ 85339 ",85339,0.5307119488716125,195000,https://www.zillow.com/homedetails/6814-W-Gary-Way-Laveen-AZ-85339/67782782_zpid/,33.3717,-112.204
505728,22118935,"4439 W Magellan Dr, Phoenix, AZ 85087 ",85087,0.5306676626205444,279000,https://www.zillow.com/homedetails/4439-W-Magellan-Dr-Phoenix-AZ-85087/71601978_zpid/,33.8765,-112.156
8958121,21982102,"4242 E Gail Dr, Gilbert, AZ 85296 ",85296,0.5305717587471008,242000,https://www.zillow.com/homedetails/4242-E-Gail-Dr-Gilbert-AZ-85296/59209408_zpid/,33.3241,-111.699
1108480,22016787,"1137 N Apollo Dr, Chandler, AZ 85224 ",85224,0.5305717587471008,295000,https://www.zillow.com/homedetails/1137-N-Apollo-Dr-Chandler-AZ-85224/8203765_zpid/,33.3232,-111.874
7420504,22320081,"4321 W St Kateri Dr, Laveen, AZ 85339 ",85339,0.5304936170578003,190400,https://www.zillow.com/homedetails/4321-W-St-Kateri-Dr-Laveen-AZ-85339/67773750_zpid/,33.3851,-112.152
8963799,22320066,"4930 W Shumway Farm Rd, Laveen, AZ 85339 ",85339,0.5304936170578003,219000,https://www.zillow.com/homedetails/4930-W-Shumway-Farm-Rd-Laveen-AZ-85339/71599775_zpid/,33.3837,-112.166
8965862,22217760,"5312 W Glass Ln, Laveen, AZ 85339 ",85339,0.5304936170578003,220000,https://www.zillow.com/homedetails/5312-W-Glass-Ln-Laveen-AZ-85339/67789160_zpid/,33.3842,-112.17299999999999
8966236,22232707,"6920 S 54th Ln, Laveen, AZ 85339 ",85339,0.5304936170578003,220000,https://www.zillow.com/homedetails/6920-S-54th-Ln-Laveen-AZ-85339/71619413_zpid/,33.3835,-112.176
8947233,22428495,"7254 W St Charles Ave, Laveen, AZ 85339 ",85339,0.5304936170578003,219900,https://www.zillow.com/homedetails/7254-W-St-Charles-Ave-Laveen-AZ-85339/71605024_zpid/,33.3865,-112.215
8968956,22269816,"5370 W Pecan Rd, Laveen, AZ 85339 ",85339,0.5304936170578003,200000,https://www.zillow.com/homedetails/5370-W-Pecan-Rd-Laveen-AZ-85339/55258106_zpid/,33.3939,-112.175
7490986,22128098,"9036 W Banff Ln, Peoria, AZ 85381 ",85381,0.5304692387580872,284900,https://www.zillow.com/homedetails/9036-W-Banff-Ln-Peoria-AZ-85381/2133373143_zpid/,33.6188,-112.25299999999999
1604606,21957480,"18173 W Ruth Ave, Waddell, AZ 85355 ",85355,0.5304629802703857,385000,https://www.zillow.com/homedetails/18173-W-Ruth-Ave-Waddell-AZ-85355/88062150_zpid/,33.5622,-112.45
8959362,21956929,"12593 S 176th Ave, Goodyear, AZ 85338 ",85338,0.530366837978363,307500,https://www.zillow.com/homedetails/12593-S-176th-Ave-Goodyear-AZ-85338/55281723_zpid/,33.3323,-112.427
7551363,22100886,"9637 E Baltimore St, Mesa, AZ 85207 ",85207,0.5303565263748169,200000,https://www.zillow.com/homedetails/9637-E-Baltimore-St-Mesa-AZ-85207/59264505_zpid/,33.4218,-111.62299999999999
8947813,21965465,"9966 W Runion Dr, Peoria, AZ 85382 ",85382,0.5303426384925842,324900,https://www.zillow.com/homedetails/9966-W-Runion-Dr-Peoria-AZ-85382/7884277_zpid/,33.6699,-112.274
1496728,22079326,"17729 W Mandalay Ln, Surprise, AZ 85388 ",85388,0.530246913433075,187500,https://www.zillow.com/homedetails/17729-W-Mandalay-Ln-Surprise-AZ-85388/81985109_zpid/,33.6171,-112.44
199079,22240825,"5621 S 5th Dr, Phoenix, AZ 85041 ",85041,0.5301843285560608,169000,https://www.zillow.com/homedetails/5621-S-5th-Dr-Phoenix-AZ-85041/55333628_zpid/,33.395,-112.08
122989,22214924,"12919 W Chapala Dr, Sun City West, AZ 85375 ",85375,0.5301564335823059,225000,https://www.zillow.com/homedetails/12919-W-Chapala-Dr-Sun-City-West-AZ-85375/67802964_zpid/,33.6888,-112.339
518743,21925260,"13046 W Mayberry Trl, Peoria, AZ 85383 ",85383,0.530148446559906,299000,https://www.zillow.com/homedetails/13046-W-Mayberry-Trl-Peoria-AZ-85383/88785983_zpid/,33.7509,-112.34200000000001
1492957,21994968,"17523 W Ventura St, Surprise, AZ 85388 ",85388,0.530094563961029,175000,https://www.zillow.com/homedetails/17523-W-Ventura-St-Surprise-AZ-85388/60995928_zpid/,33.6123,-112.436
924090,21973586,"23199 W Mohave St, Buckeye, AZ 85326 ",85326,0.5300812125205994,210000,https://www.zillow.com/homedetails/23199-W-Mohave-St-Buckeye-AZ-85326/67779856_zpid/,33.4315,-112.554
584744,22430761,"11125 E Sorpresa Ave, Mesa, AZ 85212 ",85212,0.5300137996673584,284900,https://www.zillow.com/homedetails/11125-E-Sorpresa-Ave-Mesa-AZ-85212/82824953_zpid/,33.3263,-111.595
1116473,22237097,"1804 W Temple St, Chandler, AZ 85224 ",85224,0.5299870371818542,275000,https://www.zillow.com/homedetails/1804-W-Temple-St-Chandler-AZ-85224/8193865_zpid/,33.3332,-111.87299999999999
8953556,21947115,"15942 W Post Dr, Surprise, AZ 85374 ",85374,0.5299361348152161,210000,https://www.zillow.com/homedetails/15942-W-Post-Dr-Surprise-AZ-85374/8302565_zpid/,33.6341,-112.40299999999999
43008,22074428,"7218 W Getty Dr, Phoenix, AZ 85043 ",85043,0.5298953056335449,227500,https://www.zillow.com/homedetails/7218-W-Getty-Dr-Phoenix-AZ-85043/89026358_zpid/,33.4102,-112.21600000000001
2028177,21961574,"8223 W Salter Dr, Peoria, AZ 85382 ",85382,0.5298842787742615,319950,https://www.zillow.com/homedetails/8223-W-Salter-Dr-Peoria-AZ-85382/7886604_zpid/,33.6792,-112.23700000000001
661283,22164561,"4653 S Romano, Mesa, AZ 85212 ",85212,0.5298720598220825,269900,https://www.zillow.com/homedetails/4653-S-Romano-Mesa-AZ-85212/88792137_zpid/,33.3303,-111.59700000000001
449810,22125794,"8620 W Campbell Ave, Phoenix, AZ 85037 ",85037,0.5298553109169006,189950,https://www.zillow.com/homedetails/8620-W-Campbell-Ave-Phoenix-AZ-85037/7480870_zpid/,33.5021,-112.245
964196,22164482,"4585 W Dublin St, Chandler, AZ 85226 ",85226,0.5298545360565186,279800,https://www.zillow.com/homedetails/4585-W-Dublin-St-Chandler-AZ-85226/8156450_zpid/,33.3188,-111.921
925466,22168031,"23458 W Mohave St, Buckeye, AZ 85326 ",85326,0.5298526883125305,225000,https://www.zillow.com/homedetails/23458-W-Mohave-St-Buckeye-AZ-85326/67779766_zpid/,33.4315,-112.555
875882,22105119,"20589 N 260th Ln, Buckeye, AZ 85396 ",85396,0.5298476815223694,186000,https://www.zillow.com/homedetails/20589-N-260th-Ln-Buckeye-AZ-85396/82777182_zpid/,33.6713,-112.61200000000001
7554883,21967348,"1318 S Owl Dr, Gilbert, AZ 85296 ",85296,0.5298410654067993,184900,https://www.zillow.com/homedetails/1318-S-Owl-Dr-Gilbert-AZ-85296/2131442074_zpid/,33.3266,-111.697
1050104,21831798,"6946 S Kimberlee Way, Chandler, AZ 85249 ",85249,0.5298152565956116,395000,https://www.zillow.com/homedetails/6946-S-Kimberlee-Way-Chandler-AZ-85249/59263289_zpid/,33.2061,-111.794
1226586,22030398,"3467 E Gary Way, Gilbert, AZ 85234 ",85234,0.5297678112983704,303990,https://www.zillow.com/homedetails/3467-E-Gary-Way-Gilbert-AZ-85234/88794684_zpid/,33.3748,-111.71700000000001
8944758,21971683,"20020 N 43rd Dr, Glendale, AZ 85308 ",85308,0.5297645330429077,264900,https://www.zillow.com/homedetails/20020-N-43rd-Dr-Glendale-AZ-85308/7938453_zpid/,33.6681,-112.15299999999999
959596,22070044,"3751 W Linda Ln, Chandler, AZ 85226 ",85226,0.5297605395317078,329900,https://www.zillow.com/homedetails/3751-W-Linda-Ln-Chandler-AZ-85226/8265071_zpid/,33.3169,-111.906
7400498,20722066,"707 E Boca Raton Rd, Phoenix, AZ 85022 ",85022,0.5296977162361145,270900,https://www.zillow.com/homedetails/707-E-Boca-Raton-Rd-Phoenix-AZ-85022/2095443776_zpid/,33.6117,-112.065
422010,21988907,"6457 W Diana Ave, Glendale, AZ 85302 ",85302,0.5296861529350281,219000,https://www.zillow.com/homedetails/6457-W-Diana-Ave-Glendale-AZ-85302/67790210_zpid/,33.562,-112.198
1483892,21930376,"18065 N 113th Ave, Surprise, AZ 85378 ",85378,0.5296773314476013,216900,https://www.zillow.com/homedetails/18065-N-113th-Ave-Surprise-AZ-85378/52426025_zpid/,33.6513,-112.302
1144167,21895616,"12061 W Dreyfus Dr, El Mirage, AZ 85335 ",85335,0.5296773314476013,200000,https://www.zillow.com/homedetails/12061-W-Dreyfus-Dr-El-Mirage-AZ-85335/61000229_zpid/,33.6034,-112.321
1848353,21929232,"15491 W Maui Ln, Surprise, AZ 85379 ",85379,0.5296531319618225,175000,https://www.zillow.com/homedetails/15491-W-Maui-Ln-Surprise-AZ-85379/55286216_zpid/,33.6209,-112.39299999999999
1372195,21991448,"8501 W Nicolet Ave, Glendale, AZ 85305 ",85305,0.5296487808227539,329000,https://www.zillow.com/homedetails/8501-W-Nicolet-Ave-Glendale-AZ-85305/61627790_zpid/,33.5417,-112.245
351686,21921581,"1953 E Wagoner Rd, Phoenix, AZ 85022 ",85022,0.5296487808227539,274450,https://www.zillow.com/homedetails/1953-E-Wagoner-Rd-Phoenix-AZ-85022/8000506_zpid/,33.6531,-112.04
908211,22468173,"1018 S 222nd Ln, Buckeye, AZ 85326 ",85326,0.5296436548233032,199500,https://www.zillow.com/homedetails/1018-S-222nd-Ln-Buckeye-AZ-85326/71617613_zpid/,33.4375,-112.53
1485868,22240512,"16731 N 172nd Ave, Surprise, AZ 85388 ",85388,0.5296436548233032,215000,https://www.zillow.com/homedetails/16731-N-172nd-Ave-Surprise-AZ-85388/67768326_zpid/,33.6365,-112.43
917655,22213574,"22055 W Hadley St, Buckeye, AZ 85326 ",85326,0.5296436548233032,220000,https://www.zillow.com/homedetails/22055-W-Hadley-St-Buckeye-AZ-85326/82385937_zpid/,33.4377,-112.525
928145,22213580,"23927 W Tonto St, Buckeye, AZ 85326 ",85326,0.5296436548233032,199000,https://www.zillow.com/homedetails/23927-W-Tonto-St-Buckeye-AZ-85326/61631152_zpid/,33.437,-112.566
910662,22468176,"1366 S 221st Ln, Buckeye, AZ 85326 ",85326,0.5296436548233032,209900,https://www.zillow.com/homedetails/1366-S-221st-Ln-Buckeye-AZ-85326/67799869_zpid/,33.4341,-112.52799999999999
932494,22449840,"25269 W Darrel Dr, Buckeye, AZ 85326 ",85326,0.5296436548233032,219900,https://www.zillow.com/homedetails/25269-W-Darrel-Dr-Buckeye-AZ-85326/81997456_zpid/,33.3839,-112.595
1489434,22229912,"16987 W Young St, Surprise, AZ 85388 ",85388,0.5296436548233032,219900,https://www.zillow.com/homedetails/16987-W-Young-St-Surprise-AZ-85388/55283757_zpid/,33.6357,-112.42399999999999
919018,22319904,"22279 W Desert Bloom St, Buckeye, AZ 85326 ",85326,0.5296436548233032,199900,https://www.zillow.com/homedetails/22279-W-Desert-Bloom-St-Buckeye-AZ-85326/81992274_zpid/,33.4363,-112.53
883347,22061372,"26182 W Via Del Sol Dr, Buckeye, AZ 85396 ",85396,0.5295688509941101,215900,https://www.zillow.com/homedetails/26182-W-Via-Del-Sol-Dr-Buckeye-AZ-85396/95178908_zpid/,33.6826,-112.615
1603789,21949441,"18551 W Sunnyslope Ln, Waddell, AZ 85355 ",85355,0.5295365452766418,242777,https://www.zillow.com/homedetails/18551-W-Sunnyslope-Ln-Waddell-AZ-85355/71624880_zpid/,33.5692,-112.459
1256908,21970848,"1872 S Racine Ln, Gilbert, AZ 85295 ",85295,0.5294812321662903,305000,https://www.zillow.com/homedetails/1872-S-Racine-Ln-Gilbert-AZ-85295/95134884_zpid/,33.3165,-111.728
8954660,21982309,"4313 E Toledo St, Gilbert, AZ 85295 ",85295,0.5294812321662903,285993,https://www.zillow.com/homedetails/4313-E-Toledo-St-Gilbert-AZ-85295/2094172647_zpid/,33.3098,-111.698
73327,22215158,"4129 S Ponderosa Dr, Gilbert, AZ 85297 ",85297,0.5294363498687744,259900,https://www.zillow.com/homedetails/4129-S-Ponderosa-Dr-Gilbert-AZ-85297/67777467_zpid/,33.2756,-111.71
1006569,21978096,"3336 E Kingbird Pl, Chandler, AZ 85286 ",85286,0.5294173955917358,398000,https://www.zillow.com/homedetails/3336-E-Kingbird-Pl-Chandler-AZ-85286/60988486_zpid/,33.2734,-111.78399999999999
7427735,21981420,"4143 E Dubois Ave, Gilbert, AZ 85298 ",85298,0.5294173955917358,368000,https://www.zillow.com/homedetails/4143-E-Dubois-Ave-Gilbert-AZ-85298/81994948_zpid/,33.2228,-111.7
74649,21982550,"4353 S Hemet St, Gilbert, AZ 85297 ",85297,0.5293518900871277,245000,https://www.zillow.com/homedetails/4353-S-Hemet-St-Gilbert-AZ-85297/62736035_zpid/,33.2714,-111.711
16223,21943299,"10974 W Royal Palm Rd, Peoria, AZ 85345 ",85345,0.5293447375297546,225000,https://www.zillow.com/homedetails/10974-W-Royal-Palm-Rd-Peoria-AZ-85345/59270491_zpid/,33.5536,-112.296
587262,22420073,"11315 E Shelley Ave, Mesa, AZ 85212 ",85212,0.5293189287185669,305000,https://www.zillow.com/homedetails/11315-E-Shelley-Ave-Mesa-AZ-85212/95153575_zpid/,33.3233,-111.589
8959147,21929229,"15507 W Lisbon Ln, Surprise, AZ 85379 ",85379,0.5293019413948059,205000,https://www.zillow.com/homedetails/15507-W-Lisbon-Ln-Surprise-AZ-85379/55286519_zpid/,33.6176,-112.39399999999999
193698,22138371,"2507 W Maldonado Rd, Phoenix, AZ 85041 ",85041,0.5292952656745911,269000,https://www.zillow.com/homedetails/2507-W-Maldonado-Rd-Phoenix-AZ-85041/62727653_zpid/,33.3829,-112.113
258984,21073542,"22022 N 73rd Ln, Glendale, AZ 85310 ",85310,0.5292599201202393,249999,http://www.zillow.com/homedetails/22022-N-73rd-Ln-Glendale-AZ-85310/7881496_zpid,33.6842,-112.21600000000001
927957,21974052,"23883 W Twilight Trl, Buckeye, AZ 85326 ",85326,0.5292125344276428,214900,https://www.zillow.com/homedetails/23883-W-Twilight-Trl-Buckeye-AZ-85326/61631263_zpid/,33.4404,-112.565
8957239,22229198,"1690 W Houston Ave, Gilbert, AZ 85233 ",85233,0.5291645526885986,354900,https://www.zillow.com/homedetails/1690-W-Houston-Ave-Gilbert-AZ-85233/8172790_zpid/,33.3719,-111.82700000000001
425940,22228695,"10021 W Sells Dr, Phoenix, AZ 85037 ",85037,0.5291393399238586,160000,https://www.zillow.com/homedetails/10021-W-Sells-Dr-Phoenix-AZ-85037/7484304_zpid/,33.5004,-112.277
190588,22318768,"1614 W Saint Catherine Ave, Phoenix, AZ 85041 ",85041,0.5291046500205994,220000,https://www.zillow.com/homedetails/1614-W-Saint-Catherine-Ave-Phoenix-AZ-85041/59272326_zpid/,33.3884,-112.09299999999999
197980,22244933,"4523 S 25th Ln, Phoenix, AZ 85041 ",85041,0.5291046500205994,215000,https://www.zillow.com/homedetails/4523-S-25th-Ln-Phoenix-AZ-85041/71612439_zpid/,33.405,-112.113
1026795,21826742,"2025 E Buena Vista Dr, Chandler, AZ 85249 ",85249,0.5290957689285278,398000,https://www.zillow.com/homedetails/2025-E-Buena-Vista-Dr-Chandler-AZ-85249/52432360_zpid/,33.2104,-111.806
664674,22075322,"7949 E Pampa Ave, Mesa, AZ 85212 ",85212,0.5290957689285278,359900,https://www.zillow.com/homedetails/7949-E-Pampa-Ave-Mesa-AZ-85212/8229719_zpid/,33.3602,-111.661
1285329,21979713,"3741 E Liberty Ln, Gilbert, AZ 85296 ",85296,0.5290957689285278,380000,https://www.zillow.com/homedetails/3741-E-Liberty-Ln-Gilbert-AZ-85296/59263588_zpid/,33.321999999999996,-111.71
1322609,21988894,"6467 S View Ln, Gilbert, AZ 85298 ",85298,0.5290957689285278,340000,https://www.zillow.com/homedetails/6467-S-View-Ln-Gilbert-AZ-85298/59261606_zpid/,33.2327,-111.708
1187969,22209073,"429 W Sagebrush St, Gilbert, AZ 85233 ",85233,0.5290955901145935,346000,https://www.zillow.com/homedetails/429-W-Sagebrush-St-Gilbert-AZ-85233/8179699_zpid/,33.3408,-111.79899999999999
988123,21967371,"1314 W Lark Dr, Chandler, AZ 85286 ",85286,0.5290639996528625,255000,https://www.zillow.com/homedetails/1314-W-Lark-Dr-Chandler-AZ-85286/8226989_zpid/,33.2701,-111.86399999999999
881870,22329344,"23855 W Jefferson St, Buckeye, AZ 85396 ",85396,0.5290305018424988,159900,https://www.zillow.com/homedetails/23855-W-Jefferson-St-Buckeye-AZ-85396/81983064_zpid/,33.4459,-112.565
931348,22325274,"25043 W Dove Mesa Dr, Buckeye, AZ 85326 ",85326,0.5290305018424988,169900,https://www.zillow.com/homedetails/25043-W-Dove-Mesa-Dr-Buckeye-AZ-85326/67779563_zpid/,33.3982,-112.589
8931525,21929960,"16235 W Winchcomb Dr, Surprise, AZ 85379 ",85379,0.5289997458457947,215900,https://www.zillow.com/homedetails/16235-W-Winchcomb-Dr-Surprise-AZ-85379/60999298_zpid/,33.615,-112.40899999999999
1025798,22133093,"1866 E Lindrick Dr, Chandler, AZ 85249 ",85249,0.5289843082427979,163000,https://www.zillow.com/homedetails/1866-E-Lindrick-Dr-Chandler-AZ-85249/8224975_zpid/,33.2067,-111.80799999999999
447597,22030642,"3616 N 106th Dr, Avondale, AZ 85392 ",85392,0.5289649963378906,169000,https://www.zillow.com/homedetails/3616-N-106th-Dr-Avondale-AZ-85392/7471478_zpid/,33.489000000000004,-112.288
7513964,22095049,"5114 E Tunder Dr, Phoenix, AZ 85044 ",85044,0.5289358496665955,324900,https://www.zillow.com/homedetails/5114-E-Tunder-Dr-Phoenix-AZ-85044/8148434_zpid/,33.3379,-111.976
989778,22133078,"142 W Hawk Way, Chandler, AZ 85286 ",85286,0.5289353132247925,340000,https://www.zillow.com/homedetails/142-W-Hawk-Way-Chandler-AZ-85286/55275067_zpid/,33.2645,-111.84299999999999
1286732,21987126,"582 S Brett St, Gilbert, AZ 85296 ",85296,0.5289353132247925,245900,https://www.zillow.com/homedetails/582-S-Brett-St-Gilbert-AZ-85296/8237628_zpid/,33.339,-111.755
1039957,22105394,"4274 E Gleneagle Dr, Chandler, AZ 85249 ",85249,0.5289353132247925,271500,https://www.zillow.com/homedetails/4274-E-Gleneagle-Dr-Chandler-AZ-85249/62736880_zpid/,33.2053,-111.76700000000001
8965863,22387559,"7016 S 54th Ln, Laveen, AZ 85339 ",85339,0.5289337038993835,215000,https://www.zillow.com/homedetails/7016-S-54th-Ln-Laveen-AZ-85339/71619419_zpid/,33.3825,-112.176
976463,22230160,"79 S Oak St, Chandler, AZ 85226 ",85226,0.5288971662521362,222900,https://www.zillow.com/homedetails/79-S-Oak-St-Chandler-AZ-85226/8263039_zpid/,33.3014,-111.94200000000001
884058,21839065,"26293 W Sierra Pinta Dr, Buckeye, AZ 85396 ",85396,0.5288617014884949,299999,https://www.zillow.com/homedetails/26293-W-Sierra-Pinta-Dr-Buckeye-AZ-85396/81987587_zpid/,33.6671,-112.617
1553239,22117091,"3915 S Nebraska St, Chandler, AZ 85248 ",85248,0.5288508534431458,289900,https://www.zillow.com/homedetails/3915-S-Nebraska-St-Chandler-AZ-85248/50196036_zpid/,33.2497,-111.846
1229803,22180913,"3897 E Cullumber St, Gilbert, AZ 85234 ",85234,0.5288508534431458,379900,https://www.zillow.com/homedetails/3897-E-Cullumber-St-Gilbert-AZ-85234/8237057_zpid/,33.3541,-111.70700000000001
1053792,22133219,"979 E Indian Wells Pl, Chandler, AZ 85249 ",85249,0.5288508534431458,319000,https://www.zillow.com/homedetails/979-E-Indian-Wells-Pl-Chandler-AZ-85249/60986632_zpid/,33.218,-111.82799999999999
1310725,21977337,"3091 E Lynx Way, Gilbert, AZ 85298 ",85298,0.5288508534431458,355000,https://www.zillow.com/homedetails/3091-E-Lynx-Way-Gilbert-AZ-85298/71614489_zpid/,33.2378,-111.723
1026886,22105114,"2036 E Riviera Dr, Chandler, AZ 85249 ",85249,0.5288508534431458,275000,https://www.zillow.com/homedetails/2036-E-Riviera-Dr-Chandler-AZ-85249/52432037_zpid/,33.2122,-111.806
1044917,22037773,"5990 S Mesquite Grove Way, Chandler, AZ 85249 ",85249,0.5288508534431458,369900,https://www.zillow.com/homedetails/5990-S-Mesquite-Grove-Way-Chandler-AZ-85249/59261985_zpid/,33.2197,-111.786
1544805,22017075,"2075 W Olive Way, Chandler, AZ 85248 ",85248,0.5288508534431458,317500,https://www.zillow.com/homedetails/2075-W-Olive-Way-Chandler-AZ-85248/52273194_zpid/,33.2468,-111.876
1283610,22127829,"2332 E Stottler Dr, Gilbert, AZ 85296 ",85296,0.5287613868713379,217000,https://www.zillow.com/homedetails/2332-E-Stottler-Dr-Gilbert-AZ-85296/8242019_zpid/,33.332,-111.74
665365,22102110,"2706 S Willow Wood, Mesa, AZ 85209 ",85209,0.5287563800811768,340000,http://www.zillow.com/homedetails/2706-S-Willow-Wood-Mesa-AZ-85209/82824866_zpid/,33.3655,-111.59700000000001
49114,22136693,"16642 S 24th Pl, Phoenix, AZ 85048 ",85048,0.5287140607833862,348500,https://www.zillow.com/homedetails/16642-S-24th-Pl-Phoenix-AZ-85048/8257021_zpid/,33.2947,-112.03200000000001
631372,22182925,"7103 S 53rd Ln, Laveen, AZ 85339 ",85339,0.5286654829978943,219900,https://www.zillow.com/homedetails/7103-S-53rd-Ln-Laveen-AZ-85339/68956947_zpid/,33.3817,-112.17299999999999
985779,21966480,"1143 W Bluebird Dr, Chandler, AZ 85286 ",85286,0.5286466479301453,273000,https://www.zillow.com/homedetails/1143-W-Bluebird-Dr-Chandler-AZ-85286/8210405_zpid/,33.2702,-111.861
680850,22126163,"8727 E Knowles Ave, Mesa, AZ 85209 ",85209,0.5286189317703247,245000,https://www.zillow.com/homedetails/8727-E-Knowles-Ave-Mesa-AZ-85209/59258871_zpid/,33.3786,-111.646
7491962,22092652,"3915 W Roundabout Cir, Chandler, AZ 85226 ",85226,0.5286186933517456,309500,https://www.zillow.com/homedetails/3915-W-Roundabout-Cir-Chandler-AZ-85226/67793434_zpid/,33.3213,-111.90899999999999
8971803,22307400,"314 S Aaron, Mesa, AZ 85208 ",85208,0.5286062359809875,179900,https://www.zillow.com/homedetails/314-S-Aaron-Mesa-AZ-85208/81970140_zpid/,33.4095,-111.626
70922,22127931,"3763 E Sebastian Ln, Gilbert, AZ 85297 ",85297,0.5285829305648804,270000,https://www.zillow.com/homedetails/3763-E-Sebastian-Ln-Gilbert-AZ-85297/64588424_zpid/,33.2767,-111.708
916433,21972692,"21842 W Sonora St, Buckeye, AZ 85326 ",85326,0.5285263061523438,194900,https://www.zillow.com/homedetails/21842-W-Sonora-St-Buckeye-AZ-85326/71490861_zpid/,33.4328,-112.52
37978,22232428,"5011 S 15th Pl, Phoenix, AZ 85040 ",85040,0.5284914374351501,163000,https://www.zillow.com/homedetails/5011-S-15th-Pl-Phoenix-AZ-85040/61627459_zpid/,33.4012,-112.04899999999999
1541097,22426836,"1393 W Mead Dr, Chandler, AZ 85248 ",85248,0.5284530520439148,362000,https://www.zillow.com/homedetails/1393-W-Mead-Dr-Chandler-AZ-85248/8212929_zpid/,,
8967090,22461170,"860 S Lafayette Dr, Chandler, AZ 85225 ",85225,0.5284530520439148,315000,https://www.zillow.com/homedetails/860-S-Lafayette-Dr-Chandler-AZ-85225/50195674_zpid/,,
1032937,22235661,"2873 E Runaway Bay Pl, Chandler, AZ 85249 ",85249,0.5284530520439148,287990,https://www.zillow.com/homedetails/2873-E-Runaway-Bay-Pl-Chandler-AZ-85249/52431736_zpid/,,
8962970,21977987,"3324 E Windsor Dr, Gilbert, AZ 85296 ",85296,0.5284193754196167,323000,https://www.zillow.com/homedetails/3324-E-Windsor-Dr-Gilbert-AZ-85296/71623779_zpid/,33.3265,-111.71799999999999
8944527,21968431,"1493 S Ponderosa Dr, Gilbert, AZ 85296 ",85296,0.5284193754196167,313000,https://www.zillow.com/homedetails/1493-S-Ponderosa-Dr-Gilbert-AZ-85296/92348547_zpid/,33.3233,-111.713
1884110,21971328,"19310 N 77th Ave, Glendale, AZ 85308 ",85308,0.528378427028656,295000,https://www.zillow.com/homedetails/19310-N-77th-Ave-Glendale-AZ-85308/8101515_zpid/,33.6596,-112.22399999999999
350205,22055404,"1910 E Kings Ave, Phoenix, AZ 85022 ",85022,0.528378427028656,289999,https://www.zillow.com/homedetails/1910-E-Kings-Ave-Phoenix-AZ-85022/8004907_zpid/,33.6363,-112.041
929246,22292406,"24147 W Hadley St, Buckeye, AZ 85326 ",85326,0.5283668637275696,184900,https://www.zillow.com/homedetails/24147-W-Hadley-St-Buckeye-AZ-85326/67797764_zpid/,33.4378,-112.571
924893,22308499,"23357 W Pima St, Buckeye, AZ 85326 ",85326,0.5283668637275696,179900,https://www.zillow.com/homedetails/23357-W-Pima-St-Buckeye-AZ-85326/62739727_zpid/,33.433,-112.553
939843,22308513,"5062 S Rovey Pkwy, Buckeye, AZ 85326 ",85326,0.5283668637275696,189950,https://www.zillow.com/homedetails/5062-S-Rovey-Pkwy-Buckeye-AZ-85326/88790695_zpid/,33.4005,-112.559
870236,22035513,"509 S 112th Dr, Avondale, AZ 85323 ",85323,0.5283623933792114,245000,https://www.zillow.com/homedetails/509-S-112th-Dr-Avondale-AZ-85323/67787713_zpid/,33.44,-112.301
1000753,22281772,"2380 S Apache Dr, Chandler, AZ 85286 ",85286,0.5283442139625549,279000,https://www.zillow.com/homedetails/2380-S-Apache-Dr-Chandler-AZ-85286/8210341_zpid/,33.271,-111.861
896109,21972222,"209 N 110th Dr, Avondale, AZ 85323 ",85323,0.5283195972442627,235900,https://www.zillow.com/homedetails/209-N-110th-Dr-Avondale-AZ-85323/71611987_zpid/,33.4485,-112.29799999999999
43388,22198810,"7908 W Williams St, Phoenix, AZ 85043 ",85043,0.5283029675483704,189000,https://www.zillow.com/homedetails/7908-W-Williams-St-Phoenix-AZ-85043/67764494_zpid/,33.4213,-112.23
972425,22072717,"5820 W Glenview Pl, Chandler, AZ 85226 ",85226,0.5282801389694214,258000,https://www.zillow.com/homedetails/5820-W-Glenview-Pl-Chandler-AZ-85226/8263206_zpid/,33.3048,-111.94200000000001
975965,22230266,"721 N Hazelton Dr, Chandler, AZ 85226 ",85226,0.5282726883888245,219000,https://www.zillow.com/homedetails/721-N-Hazelton-Dr-Chandler-AZ-85226/8155302_zpid/,33.3155,-111.90299999999999
134647,21947823,"16851 W Tonbridge St, Surprise, AZ 85374 ",85374,0.5282527804374695,249900,https://www.zillow.com/homedetails/16851-W-Tonbridge-St-Surprise-AZ-85374/62732168_zpid/,33.6459,-112.421
130073,21945986,"14814 W Via Montoya, Sun City West, AZ 85375 ",85375,0.5282126069068909,209900,https://www.zillow.com/homedetails/14814-W-Via-Montoya-Sun-City-West-AZ-85375/8124273_zpid/,33.6832,-112.38
74033,21982091,"4239 E Marshall Ave, Gilbert, AZ 85297 ",85297,0.5282074213027954,324999,https://www.zillow.com/homedetails/4239-E-Marshall-Ave-Gilbert-AZ-85297/55281070_zpid/,33.2688,-111.699
8962333,21906962,"16329 W Fillmore St, Goodyear, AZ 85338 ",85338,0.5280847549438477,365000,https://www.zillow.com/homedetails/16329-W-Fillmore-St-Goodyear-AZ-85338/59256408_zpid/,33.453,-112.41
908769,22435943,"1093 S 223rd Dr, Buckeye, AZ 85326 ",85326,0.5280834436416626,189000,https://www.zillow.com/homedetails/1093-S-223rd-Dr-Buckeye-AZ-85326/67787036_zpid/,33.4367,-112.531
912651,22374397,"17 N 219th Dr, Buckeye, AZ 85326 ",85326,0.5280834436416626,190000,https://www.zillow.com/homedetails/17-N-219th-Dr-Buckeye-AZ-85326/62739081_zpid/,33.4475,-112.522
927865,22490975,"23874 W Antelope Trl, Buckeye, AZ 85326 ",85326,0.5280834436416626,215000,https://www.zillow.com/homedetails/23874-W-Antelope-Trl-Buckeye-AZ-85326/61631255_zpid/,33.4396,-112.565
919776,22490946,"22448 W Adams St, Buckeye, AZ 85326 ",85326,0.5280834436416626,205000,https://www.zillow.com/homedetails/22448-W-Adams-St-Buckeye-AZ-85326/71626239_zpid/,33.4492,-112.53299999999999
916666,22438116,"21939 W Papago St, Buckeye, AZ 85326 ",85326,0.5280834436416626,190000,https://www.zillow.com/homedetails/21939-W-Papago-St-Buckeye-AZ-85326/67807787_zpid/,33.4341,-112.522
7420096,22451271,"951 S 224th Ln, Buckeye, AZ 85326 ",85326,0.5280834436416626,199500,https://www.zillow.com/homedetails/951-S-224th-Ln-Buckeye-AZ-85326/81988646_zpid/,33.4381,-112.53399999999999
927077,22433648,"23791 W Hadley St, Buckeye, AZ 85326 ",85326,0.5280834436416626,187500,https://www.zillow.com/homedetails/23791-W-Hadley-St-Buckeye-AZ-85326/61631057_zpid/,33.4377,-112.56299999999999
2802,22468185,"132 S 223rd Ave, Buckeye, AZ 85326 ",85326,0.5280834436416626,203900,https://www.zillow.com/homedetails/132-S-223rd-Ave-Buckeye-AZ-85326/60962622_zpid/,33.4461,-112.53
437997,22016977,"1718 N 105th Dr, Avondale, AZ 85392 ",85392,0.5280736684799194,185000,https://www.zillow.com/homedetails/1718-N-105th-Dr-Avondale-AZ-85392/55256898_zpid/,33.47,-112.286
1047160,22102216,"6438 S Nash Way, Chandler, AZ 85249 ",85249,0.5280598402023315,224900,http://www.zillow.com/homedetails/6438-S-Nash-Way-Chandler-AZ-85249/8215978_zpid,33.2129,-111.79700000000001
581747,21566355,"10745 E Stearn Ave, Mesa, AZ 85212 ",85212,0.528032124042511,394000,https://www.zillow.com/homedetails/10745-E-Stearn-Ave-Mesa-AZ-85212/125122076_zpid/,33.33,-111.602
864709,21966577,"12018 W Hopi St, Avondale, AZ 85323 ",85323,0.5280155539512634,195000,https://www.zillow.com/homedetails/12018-W-Hopi-St-Avondale-AZ-85323/55283019_zpid/,33.4287,-112.318
8955925,21834721,"11018 W Sheridan St, Avondale, AZ 85392 ",85392,0.5280155539512634,205000,https://www.zillow.com/homedetails/11018-W-Sheridan-St-Avondale-AZ-85392/55256571_zpid/,33.4739,-112.29700000000001
8957072,21963958,"9240 W Ironwood Dr, Peoria, AZ 85345 ",85345,0.5280149579048157,215000,https://www.zillow.com/homedetails/9240-W-Ironwood-Dr-Peoria-AZ-85345/7697488_zpid/,33.5742,-112.259
8914407,22364544,"17359 W Jackson St, Goodyear, AZ 85338 ",85338,0.5280006527900696,269000,https://www.zillow.com/homedetails/17359-W-Jackson-St-Goodyear-AZ-85338/71624673_zpid/,,
989699,22330289,"1413 E Jade Dr, Chandler, AZ 85286 ",85286,0.5279403328895569,394999,https://www.zillow.com/homedetails/1413-E-Jade-Dr-Chandler-AZ-85286/59917394_zpid/,,
679977,22099519,"8545 E Desert Ln, Mesa, AZ 85209 ",85209,0.5279393792152405,223900,https://www.zillow.com/homedetails/8545-E-Desert-Ln-Mesa-AZ-85209/55275145_zpid/,33.3738,-111.65
644477,22105150,"2218 W Olla Cir, Mesa, AZ 85202 ",85202,0.5279021859169006,225000,https://www.zillow.com/homedetails/2218-W-Olla-Cir-Mesa-AZ-85202/8170806_zpid/,33.3635,-111.881
59112,22311661,"1727 W Kuralt Dr, Anthem, AZ 85086 ",85086,0.527899980545044,280000,https://www.zillow.com/homedetails/1727-W-Kuralt-Dr-Anthem-AZ-85086/67785798_zpid/,33.8465,-112.09700000000001
364147,21964133,"9335 W Payson Rd, Tolleson, AZ 85353 ",85353,0.5278773903846741,210000,https://www.zillow.com/homedetails/9335-W-Payson-Rd-Tolleson-AZ-85353/81982004_zpid/,33.4203,-112.26100000000001
934471,22332236,"25657 W Nancy Ln, Buckeye, AZ 85326 ",85326,0.5278614163398743,199900,https://www.zillow.com/homedetails/25657-W-Nancy-Ln-Buckeye-AZ-85326/71610682_zpid/,,
7453136,22431156,"16420 S 16th Ln, Phoenix, AZ 85045 ",85045,0.5278109312057495,339900,https://www.zillow.com/homedetails/16420-S-16th-Ln-Phoenix-AZ-85045/8285027_zpid/,33.2973,-112.09700000000001
1263341,22240389,"2769 S Butte Ln, Gilbert, AZ 85295 ",85295,0.5278109312057495,395000,https://www.zillow.com/homedetails/2769-S-Butte-Ln-Gilbert-AZ-85295/60988017_zpid/,33.3,-111.759
7553824,22471436,"2195 E Sherri Dr, Gilbert, AZ 85296 ",85296,0.5278109312057495,295000,https://www.zillow.com/homedetails/2195-E-Sherri-Dr-Gilbert-AZ-85296/8241819_zpid/,33.3287,-111.743
1322356,22314891,"6356 S Sky Ct, Gilbert, AZ 85298 ",85298,0.5278109312057495,374900,https://www.zillow.com/homedetails/6356-S-Sky-Ct-Gilbert-AZ-85298/59261558_zpid/,33.2346,-111.705
1287805,22419078,"974 E Stottler Ct, Gilbert, AZ 85296 ",85296,0.5278109312057495,335000,https://www.zillow.com/homedetails/974-E-Stottler-Ct-Gilbert-AZ-85296/52434331_zpid/,33.3325,-111.76899999999999
65149,22064205,"103 E Smoke Tree Rd, Gilbert, AZ 85296 ",85296,0.5278109312057495,318900,https://www.zillow.com/homedetails/103-E-Smoke-Tree-Rd-Gilbert-AZ-85296/8275988_zpid/,33.3422,-111.787
1270241,22426024,"3760 E Megan St, Gilbert, AZ 85295 ",85295,0.5278109312057495,316000,https://www.zillow.com/homedetails/3760-E-Megan-St-Gilbert-AZ-85295/60050381_zpid/,33.321,-111.709
1008167,22133169,"3762 S Tower Ave, Chandler, AZ 85286 ",85286,0.5278109312057495,329900,https://www.zillow.com/homedetails/3762-S-Tower-Ave-Chandler-AZ-85286/60049761_zpid/,33.251,-111.81
1040902,22445777,"4460 E Westchester Dr, Chandler, AZ 85249 ",85249,0.5278109312057495,309000,https://www.zillow.com/homedetails/4460-E-Westchester-Dr-Chandler-AZ-85249/67777795_zpid/,33.2108,-111.765
76313,22415195,"504 E Cantebria Dr, Gilbert, AZ 85296 ",85296,0.5278109312057495,297000,https://www.zillow.com/homedetails/504-E-Cantebria-Dr-Gilbert-AZ-85296/8276589_zpid/,33.3342,-111.779
1031234,22272123,"2609 E Waterview Ct, Chandler, AZ 85249 ",85249,0.5278109312057495,237777,https://www.zillow.com/homedetails/2609-E-Waterview-Ct-Chandler-AZ-85249/8216015_zpid/,33.2154,-111.796
1251114,22405789,"1045 E Bart St, Gilbert, AZ 85295 ",85295,0.5278109312057495,359900,https://www.zillow.com/homedetails/1045-E-Bart-St-Gilbert-AZ-85295/8243767_zpid/,33.3142,-111.76799999999999
8973168,22416634,"640 N Nantucket St, Chandler, AZ 85225 ",85225,0.5278109312057495,375000,https://www.zillow.com/homedetails/640-N-Nantucket-St-Chandler-AZ-85225/8282933_zpid/,33.3165,-111.809
1482635,22272093,"17566 N 114th Ln, Surprise, AZ 85378 ",85378,0.5277970433235168,204950,https://www.zillow.com/homedetails/17566-N-114th-Ln-Surprise-AZ-85378/81968188_zpid/,33.6432,-112.306
868959,22291266,"2313 S 112th Ave, Avondale, AZ 85323 ",85323,0.5277970433235168,217500,https://www.zillow.com/homedetails/2313-S-112th-Ave-Avondale-AZ-85323/60973931_zpid/,33.4258,-112.29899999999999
531280,21958276,"5440 W Coles Rd, Laveen, AZ 85339 ",85339,0.5277835726737976,315000,https://www.zillow.com/homedetails/5440-W-Coles-Rd-Laveen-AZ-85339/71621658_zpid/,33.3696,-112.177
804853,22300626,"2622 E Garnet Ave, Mesa, AZ 85204 ",85204,0.5277707576751709,199900,https://www.zillow.com/homedetails/2622-E-Garnet-Ave-Mesa-AZ-85204/7652372_zpid/,33.3923,-111.775
8966425,22234832,"5117 W T Ryan Ln, Laveen, AZ 85339 ",85339,0.5277079343795776,199900,https://www.zillow.com/homedetails/5117-W-T-Ryan-Ln-Laveen-AZ-85339/71612340_zpid/,33.3895,-112.169
533416,22239733,"6841 W Lynne Ln, Laveen, AZ 85339 ",85339,0.5277079343795776,224900,https://www.zillow.com/homedetails/6841-W-Lynne-Ln-Laveen-AZ-85339/71604703_zpid/,33.3904,-112.20700000000001
295668,22286717,"2444 E Montecito Ave, Phoenix, AZ 85016 ",85016,0.527684211730957,375000,https://www.zillow.com/homedetails/2444-E-Montecito-Ave-Phoenix-AZ-85016/71619769_zpid/,33.5,-112.029
487094,22105432,"4924 W Virginia Ave, Phoenix, AZ 85035 ",85035,0.5276790261268616,149900,https://www.zillow.com/homedetails/4924-W-Virginia-Ave-Phoenix-AZ-85035/7494093_zpid/,33.4767,-112.166
8962794,22186280,"7759 E Decatur Cir, Mesa, AZ 85207 ",85207,0.5276745557785034,284900,https://www.zillow.com/homedetails/7759-E-Decatur-Cir-Mesa-AZ-85207/8068076_zpid/,33.426,-111.663
660594,22459677,"4408 S Dante, Mesa, AZ 85212 ",85212,0.5276280641555786,390000,https://www.zillow.com/homedetails/4408-S-Dante-Mesa-AZ-85212/92346822_zpid/,33.3349,-111.598
8979109,22421634,"5026 S Emery, Mesa, AZ 85212 ",85212,0.5276280641555786,390000,https://www.zillow.com/homedetails/5026-S-Emery-Mesa-AZ-85212/95175965_zpid/,33.3236,-111.59100000000001
8945084,21929727,"15982 N 74th Dr, Peoria, AZ 85382 ",85382,0.5276238918304443,223900,https://www.zillow.com/homedetails/15982-N-74th-Dr-Peoria-AZ-85382/71605869_zpid/,33.6302,-112.21799999999999
8966491,22235400,"315 N 100th Pl, Mesa, AZ 85207 ",85207,0.5276151895523071,225000,https://www.zillow.com/homedetails/315-N-100th-Pl-Mesa-AZ-85207/8086575_zpid/,33.4209,-111.615
8964149,22051912,"13227 W Indianola Ave, Litchfield Park, AZ 85340 ",85340,0.5275937914848328,305000,https://www.zillow.com/homedetails/13227-W-Indianola-Ave-Litchfield-Park-AZ-85340/67780051_zpid/,33.4893,-112.346
7480965,22431245,"1733 W Wildwood Dr, Phoenix, AZ 85045 ",85045,0.527577817440033,294900,https://www.zillow.com/homedetails/1733-W-Wildwood-Dr-Phoenix-AZ-85045/49940410_zpid/,33.2988,-112.09700000000001
1047388,22421727,"6468 S Nash Way, Chandler, AZ 85249 ",85249,0.527577817440033,250000,https://www.zillow.com/homedetails/6468-S-Nash-Way-Chandler-AZ-85249/8215973_zpid/,33.2126,-111.79700000000001
927893,22363851,"23875 W Twilight Trl, Buckeye, AZ 85326 ",85326,0.5275511145591736,199500,https://www.zillow.com/homedetails/23875-W-Twilight-Trl-Buckeye-AZ-85326/61631262_zpid/,33.4405,-112.565
13631,22395320,"2627 W Novak Way, Phoenix, AZ 85041 ",85041,0.5275442600250244,205000,https://www.zillow.com/homedetails/2627-W-Novak-Way-Phoenix-AZ-85041/62727584_zpid/,33.3888,-112.116
195351,22439583,"3139 W Pecan Rd, Phoenix, AZ 85041 ",85041,0.5275442600250244,204000,https://www.zillow.com/homedetails/3139-W-Pecan-Rd-Phoenix-AZ-85041/67781646_zpid/,33.3949,-112.12700000000001
8977910,22387517,"5214 W Hasan Dr, Laveen, AZ 85339 ",85339,0.5275375247001648,193000,https://www.zillow.com/homedetails/5214-W-Hasan-Dr-Laveen-AZ-85339/81979376_zpid/,33.3907,-112.17
7401766,21962144,"8544 W Shaw Butte Dr, Peoria, AZ 85345 ",85345,0.5275328755378723,232900,https://www.zillow.com/homedetails/8544-W-Shaw-Butte-Dr-Peoria-AZ-85345/7685371_zpid/,33.5951,-112.243
1140418,21895366,"11601 W Poinsettia Dr, El Mirage, AZ 85335 ",85335,0.5274843573570251,158000,https://www.zillow.com/homedetails/11601-W-Poinsettia-Dr-El-Mirage-AZ-85335/59277980_zpid/,33.5917,-112.311
8959284,22016793,"1147 N 90th St, Mesa, AZ 85207 ",85207,0.5274739861488342,229900,https://www.zillow.com/homedetails/1147-N-90th-St-Mesa-AZ-85207/25776388_zpid/,33.436,-111.637
660568,22058036,"4327 S Marron, Mesa, AZ 85212 ",85212,0.5274669528007507,344900,https://www.zillow.com/homedetails/4327-S-Marron-Mesa-AZ-85212/95145712_zpid/,33.3367,-111.59899999999999
866562,22298034,"12506 W Jefferson St, Avondale, AZ 85323 ",85323,0.5274643301963806,215000,https://www.zillow.com/homedetails/12506-W-Jefferson-St-Avondale-AZ-85323/59256660_zpid/,33.4446,-112.32700000000001
1000775,21973987,"2381 S Glen Dr, Chandler, AZ 85286 ",85286,0.5274546146392822,345000,https://www.zillow.com/homedetails/2381-S-Glen-Dr-Chandler-AZ-85286/81978282_zpid/,33.2723,-111.77799999999999
1051525,21832451,"783 E Torrey Pines Pl, Chandler, AZ 85249 ",85249,0.5274546146392822,367900,https://www.zillow.com/homedetails/783-E-Torrey-Pines-Pl-Chandler-AZ-85249/60986447_zpid/,33.218,-111.82799999999999
1038378,21828702,"4093 E Cherry Hills Dr, Chandler, AZ 85249 ",85249,0.5274546146392822,278900,https://www.zillow.com/homedetails/4093-E-Cherry-Hills-Dr-Chandler-AZ-85249/94638354_zpid/,33.2162,-111.771
73198,21981279,"4104 E Rawhide St, Gilbert, AZ 85296 ",85296,0.5273938775062561,369000,https://www.zillow.com/homedetails/4104-E-Rawhide-St-Gilbert-AZ-85296/119221270_zpid/,33.3439,-111.70299999999999
596012,22237430,"2732 N Augustine, Mesa, AZ 85207 ",85207,0.5273878574371338,370000,https://www.zillow.com/homedetails/2732-N-Augustine-Mesa-AZ-85207/81982894_zpid/,33.4648,-111.677
8973253,22320165,"8031 S 51st Ln, Laveen, AZ 85339 ",85339,0.5273764729499817,219900,https://www.zillow.com/homedetails/8031-S-51st-Ln-Laveen-AZ-85339/67710480_zpid/,33.3725,-112.171
8973240,22320147,"5227 W Hasan Dr, Laveen, AZ 85339 ",85339,0.5273764729499817,200000,https://www.zillow.com/homedetails/5227-W-Hasan-Dr-Laveen-AZ-85339/81997732_zpid/,33.3905,-112.171
203244,22245973,"9605 S 23rd Dr, Phoenix, AZ 85041 ",85041,0.527326762676239,279900,https://www.zillow.com/homedetails/9605-S-23rd-Dr-Phoenix-AZ-85041/95098616_zpid/,33.3594,-112.109
1107969,22016772,"1110 W Estrella Dr, Chandler, AZ 85224 ",85224,0.527319073677063,254900,https://www.zillow.com/homedetails/1110-W-Estrella-Dr-Chandler-AZ-85224/8194449_zpid/,33.3311,-111.861
8953934,22182814,"12872 N 142nd Ln, Surprise, AZ 85379 ",85379,0.5273140668869019,235000,https://www.zillow.com/homedetails/12872-N-142nd-Ln-Surprise-AZ-85379/71609355_zpid/,33.6009,-112.367
8951382,21946490,"15336 W Doll Ln, Surprise, AZ 85374 ",85374,0.5272976756095886,219900,https://www.zillow.com/homedetails/15336-W-Doll-Ln-Surprise-AZ-85374/8127432_zpid/,33.6439,-112.391
8958718,21809406,"9932 E Diamond Ave, Mesa, AZ 85208 ",85208,0.5272742509841919,185999,https://www.zillow.com/homedetails/9932-E-Diamond-Ave-Mesa-AZ-85208/8091207_zpid/,33.4022,-111.616
8956679,21961303,"8133 W Hatcher Rd, Peoria, AZ 85345 ",85345,0.5272483229637146,199900,https://www.zillow.com/homedetails/8133-W-Hatcher-Rd-Peoria-AZ-85345/11884535_zpid/,33.5702,-112.234
8958862,22214569,"214 E Bluefield Ave, Phoenix, AZ 85022 ",85022,0.5272366404533386,149900,https://www.zillow.com/homedetails/214-E-Bluefield-Ave-Phoenix-AZ-85022/7955753_zpid/,33.6531,-112.071
8959150,21929449,"15701 W Yucatan Dr, Surprise, AZ 85379 ",85379,0.5272284150123596,295000,https://www.zillow.com/homedetails/15701-W-Yucatan-Dr-Surprise-AZ-85379/71609317_zpid/,33.5876,-112.398
7452309,22237128,"7261 E Norwood St, Mesa, AZ 85207 ",85207,0.5272272825241089,234500,https://www.zillow.com/homedetails/7261-E-Norwood-St-Mesa-AZ-85207/55269792_zpid/,33.4632,-111.67399999999999
685105,22228617,"9717 E Jerome Ave, Mesa, AZ 85209 ",85209,0.5272272825241089,230000,https://www.zillow.com/homedetails/9717-E-Jerome-Ave-Mesa-AZ-85209/8090797_zpid/,33.3809,-111.62100000000001
583387,22420066,"11013 E Sutter Ave, Mesa, AZ 85212 ",85212,0.5272262096405029,296900,https://www.zillow.com/homedetails/11013-E-Sutter-Ave-Mesa-AZ-85212/95158336_zpid/,33.3223,-111.596
582459,22270068,"10902 E Roselle Ave, Mesa, AZ 85212 ",85212,0.5271658897399902,325000,https://www.zillow.com/homedetails/10902-E-Roselle-Ave-Mesa-AZ-85212/92348268_zpid/,33.3397,-111.59899999999999
8983041,22450231,"10907 E Thatcher Ave, Mesa, AZ 85212 ",85212,0.5271658897399902,319995,https://www.zillow.com/homedetails/10907-E-Thatcher-Ave-Mesa-AZ-85212/122067162_zpid/,33.3204,-111.598
588562,22406925,"11410 E Sebring Cir, Mesa, AZ 85212 ",85212,0.5271658897399902,309999,https://www.zillow.com/homedetails/11410-E-Sebring-Cir-Mesa-AZ-85212/71617077_zpid/,33.3332,-111.588
582115,22378157,"10846 E Ramona Ave, Mesa, AZ 85212 ",85212,0.5271658897399902,324500,https://www.zillow.com/homedetails/10846-E-Ramona-Ave-Mesa-AZ-85212/88793701_zpid/,33.3386,-111.59899999999999
653716,21819836,"1309 S Loomis, Mesa, AZ 85209 ",85209,0.5271604061126709,194750,https://www.zillow.com/homedetails/1309-S-Loomis-Mesa-AZ-85209/58732660_zpid/,33.3914,-111.634
8708656,21948735,"17992 N Painted Spurge Ct, Surprise, AZ 85374 ",85374,0.5271434187889099,244000,https://www.zillow.com/homedetails/17992-N-Painted-Spurge-Ct-Surprise-AZ-85374/8126581_zpid/,,
8945264,22080673,"9517 E Jadecrest Dr, Sun Lakes, AZ 85248 ",85248,0.5271434187889099,284000,https://www.zillow.com/homedetails/9517-E-Jadecrest-Dr-Sun-Lakes-AZ-85248/8214019_zpid/,,
8847810,22183198,"849 E Devon Rd, Gilbert, AZ 85296 ",85296,0.5271434187889099,249900,https://www.zillow.com/homedetails/849-E-Devon-Rd-Gilbert-AZ-85296/67766936_zpid/,,
600664,21819946,"7662 E Caballero St, Mesa, AZ 85207 ",85207,0.5271428227424622,258999,https://www.zillow.com/homedetails/7662-E-Caballero-St-Mesa-AZ-85207/55269195_zpid/,33.4234,-111.665
1413773,21990419,"7322 N 72nd Ave, Glendale, AZ 85303 ",85303,0.5271422863006592,350000,https://www.zillow.com/homedetails/7322-N-72nd-Ave-Glendale-AZ-85303/81954335_zpid/,33.5434,-112.213
7849075,21931380,"21323 N 77th Ln, Peoria, AZ 85382 ",85382,0.5271422863006592,389000,https://www.zillow.com/homedetails/21323-N-77th-Ln-Peoria-AZ-85382/81964963_zpid/,33.6762,-112.226
1372928,21991493,"8580 W State Ave, Glendale, AZ 85305 ",85305,0.5271422863006592,364900,https://www.zillow.com/homedetails/8580-W-State-Ave-Glendale-AZ-85305/67771109_zpid/,33.5433,-112.25
8945724,21970891,"18677 N 61st Ave, Glendale, AZ 85308 ",85308,0.5271422863006592,384500,https://www.zillow.com/homedetails/18677-N-61st-Ave-Glendale-AZ-85308/7890011_zpid/,33.6554,-112.19200000000001
42786,22191850,"7114 W Globe Ave, Phoenix, AZ 85043 ",85043,0.5271416902542114,275000,https://www.zillow.com/homedetails/7114-W-Globe-Ave-Phoenix-AZ-85043/67788720_zpid/,33.4194,-112.213
723420,22079300,"1732 E Dartmouth St, Mesa, AZ 85203 ",85203,0.5271151065826416,274999,https://www.zillow.com/homedetails/1732-E-Dartmouth-St-Mesa-AZ-85203/7618917_zpid/,33.4273,-111.794
1286213,21982216,"4282 E Jasper Dr, Gilbert, AZ 85296 ",85296,0.527111828327179,176900,https://www.zillow.com/homedetails/4282-E-Jasper-Dr-Gilbert-AZ-85296/63179341_zpid/,33.3275,-111.698
587163,22420086,"11312 E Stradling Ave, Mesa, AZ 85212 ",85212,0.5270956754684448,399999,https://www.zillow.com/homedetails/11312-E-Stradling-Ave-Mesa-AZ-85212/95091465_zpid/,33.324,-111.589
921437,22183062,"22733 W Papago St, Buckeye, AZ 85326 ",85326,0.5270785093307495,169000,https://www.zillow.com/homedetails/22733-W-Papago-St-Buckeye-AZ-85326/60997275_zpid/,33.4344,-112.54
1033931,21827989,"3075 E Scorpio Pl, Chandler, AZ 85249 ",85249,0.5270732045173645,377000,https://www.zillow.com/homedetails/3075-E-Scorpio-Pl-Chandler-AZ-85249/59261997_zpid/,33.2215,-111.788
1310330,21976875,"2994 E Sports Ct, Gilbert, AZ 85298 ",85298,0.5270732045173645,325000,https://www.zillow.com/homedetails/2994-E-Sports-Ct-Gilbert-AZ-85298/89220206_zpid/,33.2299,-111.725
