property_id,transaction_id,address,zipcode,any_sell,good_sell,bayesian,list,url,lat,long,date_listed,transaction_date
1115749,23864072,"1721 W Nopal Dr, Chandler, AZ 85224 ",85224,0.6036923825740814,0.9263075292110443,0.5592047993057259,249900,https://www.zillow.com/homedetails/1721-W-Nopal-Dr-Chandler-AZ-85224/8198402_zpid/,33.3418,-111.874,6581,2018-01-07
629569,23853723,"1645 W Peralta Ave, Mesa, AZ 85202 ",85202,0.6234632730484009,0.8944087028503418,0.5576309773220487,222900,https://www.zillow.com/homedetails/1645-W-Peralta-Ave-Mesa-AZ-85202/8191627_zpid/,33.3572,-111.87,6553,2017-12-10
432541,22734473,"7113 W Sheila Ln, Phoenix, AZ 85033 ",85033,0.6250775754451752,0.8780186474323273,0.5488297673326512,189000,https://www.zillow.com/homedetails/7113-W-Sheila-Ln-Phoenix-AZ-85033/55257199_zpid/,33.4878,-112.213,6485,2017-10-03
9026628,23892890,"9702 W Campana Dr, Sun City, AZ 85351 ",85351,0.6094004213809967,0.8981683850288391,0.5473441923076638,185950,https://www.zillow.com/homedetails/9702-W-Campana-Dr-Sun-City-AZ-85351/7904989_zpid/,33.6372,-112.26899999999999,6578,2018-01-04
1093584,23859955,"781 W Del Rio St, Chandler, AZ 85225 ",85225,0.5891898274421692,0.9278561174869537,0.5466833857532993,248900,https://www.zillow.com/homedetails/781-W-Del-Rio-St-Chandler-AZ-85225/8186554_zpid/,33.3158,-111.854,6565,2017-12-22
447418,23856851,"8311 W Coolidge St, Phoenix, AZ 85037 ",85037,0.5967289507389069,0.9050044119358063,0.5400423331485351,189900,https://www.zillow.com/homedetails/8311-W-Coolidge-St-Phoenix-AZ-85037/7480994_zpid/,33.5048,-112.238,6560,2017-12-17
424918,23883758,"9803 N 50TH Ave, Glendale, AZ 85302 ",85302,0.60740926861763,0.8869251012802124,0.5387265270872312,224500,https://www.zillow.com/homedetails/9803-N-50TH-Ave-Glendale-AZ-85302/7728972_zpid/,33.575,-112.167,6571,2017-12-28
452056,23863849,"8831 W Mariposa St, Phoenix, AZ 85037 ",85037,0.5985057950019836,0.8989138603210449,0.5380051546097491,209900,https://www.zillow.com/homedetails/8831-W-Mariposa-St-Phoenix-AZ-85037/7483281_zpid/,33.5074,-112.25,6581,2018-01-07
436099,23864351,"8017 W Pinchot Ave, Phoenix, AZ 85033 ",85033,0.5930279493331909,0.9061859250068665,0.5373935808214227,149400,https://www.zillow.com/homedetails/8017-W-Pinchot-Ave-Phoenix-AZ-85033/7479545_zpid/,33.4824,-112.23200000000001,6581,2018-01-07
1091154,23858452,"668 W Shawnee Dr, Chandler, AZ 85225 ",85225,0.5895243585109711,0.9108159244060516,0.5369481735570547,239900,https://www.zillow.com/homedetails/668-W-Shawnee-Dr-Chandler-AZ-85225/8200509_zpid/,33.3448,-111.852,6535,2017-11-22
9021795,23854390,"747 W Rosal Pl, Chandler, AZ 85225 ",85225,0.5895243585109711,0.9106184542179108,0.5368317600710659,244800,https://www.zillow.com/homedetails/747-W-Rosal-Pl-Chandler-AZ-85225/8177685_zpid/,33.3412,-111.855,6551,2017-12-08
9019112,23856813,"4426 W Vogel Ave, Glendale, AZ 85302 ",85302,0.6056383550167084,0.8858513832092285,0.5365055745161129,219900,https://www.zillow.com/homedetails/4426-W-Vogel-Ave-Glendale-AZ-85302/7729451_zpid/,33.5722,-112.155,6561,2017-12-18
385542,23862282,"1634 W Andorra Dr, Phoenix, AZ 85029 ",85029,0.6078568696975708,0.8790744841098785,0.5343514641420377,235000,https://www.zillow.com/homedetails/1634-W-Andorra-Dr-Phoenix-AZ-85029/7784245_zpid/,33.6066,-112.095,6577,2018-01-03
9026050,23861695,"19901 N 98th Ave, Peoria, AZ 85382 ",85382,0.590135395526886,0.901598334312439,0.5320650896258527,239000,https://www.zillow.com/homedetails/19901-N-98th-Ave-Peoria-AZ-85382/7896097_zpid/,33.6647,-112.271,6571,2017-12-28
433435,23843217,"7318 W Glenrosa Ave, Phoenix, AZ 85033 ",85033,0.6215994656085968,0.8551473319530487,0.5315591245586324,154999,https://www.zillow.com/homedetails/7318-W-Glenrosa-Ave-Phoenix-AZ-85033/7711188_zpid/,33.4994,-112.21700000000001,6541,2017-11-28
8952180,23860567,"3408 N 67TH Ln, Phoenix, AZ 85033 ",85033,0.5926620960235596,0.8954686224460602,0.5307103107022115,195000,https://www.zillow.com/homedetails/3408-N-67th-Ln-Phoenix-AZ-85033/7485759_zpid/,33.4878,-112.205,6570,2017-12-27
1372616,23883622,"8549 W Tuckey Ln, Glendale, AZ 85305 ",85305,0.6012490093708038,0.8790187239646912,0.5285091370021586,206000,https://www.zillow.com/homedetails/8549-W-Tuckey-Ln-Glendale-AZ-85305/7461499_zpid/,33.533,-112.245,6532,2017-11-19
976127,23846057,"734 N Tangerine Dr, Chandler, AZ 85226 ",85226,0.5878046154975891,0.8973824977874756,0.5274855740662332,204900,https://www.zillow.com/homedetails/734-N-Tangerine-Dr-Chandler-AZ-85226/8156625_zpid/,33.3162,-111.928,6544,2017-12-01
625494,23866146,"1522 W Plana Ave, Mesa, AZ 85202 ",85202,0.5642677843570709,0.93399378657341,0.5270226045530491,242500,https://www.zillow.com/homedetails/1522-W-Plana-Ave-Mesa-AZ-85202/8172015_zpid/,33.3588,-111.866,6585,2018-01-11
255987,23850390,"506 W Beverly Ln, Phoenix, AZ 85023 ",85023,0.6017323732376099,0.8752679824829102,0.5266770803183363,229900,https://www.zillow.com/homedetails/506-W-Beverly-Ln-Phoenix-AZ-85023/7965481_zpid/,33.6337,-112.081,6552,2017-12-09
456854,23862646,"4925 W Flower St, Phoenix, AZ 85031 ",85031,0.5859054625034332,0.897965133190155,0.5261226766737348,206000,https://www.zillow.com/homedetails/4925-W-Flower-St-Phoenix-AZ-85031/7509860_zpid/,33.4855,-112.165,6578,2018-01-04
559333,23871337,"1223 W 6TH Ave, Mesa, AZ 85202 ",85202,0.5957887470722198,0.8773463070392609,0.5227130570193603,199900,https://www.zillow.com/homedetails/1223-W-6th-Ave-Mesa-AZ-85202/7604271_zpid/,33.4035,-111.85799999999999,6576,2018-01-02
463250,23884456,"2736 W Rose Ln, Phoenix, AZ 85017 ",85017,0.602392703294754,0.8676923513412476,0.5226915411526356,184900,https://www.zillow.com/homedetails/2736-W-Rose-Ln-Phoenix-AZ-85017/7759733_zpid/,33.5278,-112.118,6581,2018-01-07
9017511,23846619,"7346 W Coolidge St, Phoenix, AZ 85033 ",85033,0.599402904510498,0.8717344105243683,0.5225201376300532,199900,https://www.zillow.com/homedetails/7346-W-Coolidge-St-Phoenix-AZ-85033/7710836_zpid/,33.5042,-112.21799999999999,6544,2017-12-01
222394,23848564,"1010 W Campo Bello Dr, Phoenix, AZ 85023 ",85023,0.6073548793792725,0.8598833680152893,0.5222543592611686,199900,https://www.zillow.com/homedetails/1010-W-Campo-Bello-Dr-Phoenix-AZ-85023/7963596_zpid/,33.644,-112.087,6549,2017-12-06
410719,23854939,"4923 W Larkspur Dr, Glendale, AZ 85304 ",85304,0.5802657306194305,0.8985661566257477,0.5214071473843331,236000,https://www.zillow.com/homedetails/4923-W-Larkspur-Dr-Glendale-AZ-85304/7954371_zpid/,33.5993,-112.165,6557,2017-12-14
152639,23860420,"1133 N Granite Reef Rd, Scottsdale, AZ 85257 ",85257,0.6291429400444031,0.8285689353942871,0.5212882960434229,139500,https://www.zillow.com/homedetails/1133-N-Granite-Reef-Rd-Scottsdale-AZ-85257/7577718_zpid/,33.4606,-111.9,6546,2017-12-03
419794,23856376,"5539 W Hatcher Rd, Glendale, AZ 85302 ",85302,0.5828441679477692,0.8942396938800812,0.5212023903254037,204999,https://www.zillow.com/homedetails/5539-W-Hatcher-Rd-Glendale-AZ-85302/7734771_zpid/,33.5705,-112.179,6559,2017-12-16
387374,23860581,"3735 W Cochise Dr, Phoenix, AZ 85051 ",85051,0.5893647968769073,0.8836606442928314,0.5207984761317617,244900,https://www.zillow.com/homedetails/3735-W-Cochise-Dr-Phoenix-AZ-85051/7745459_zpid/,33.5803,-112.14,6572,2017-12-29
332059,23858248,"115 E Hartford Ave, Phoenix, AZ 85022 ",85022,0.6056720614433289,0.8585156500339508,0.5199789435374225,215000,https://www.zillow.com/homedetails/115-E-Hartford-Ave-Phoenix-AZ-85022/79527909_zpid/,33.6426,-112.073,6562,2017-12-19
419470,23882476,"5428 W Puget Ave, Glendale, AZ 85302 ",85302,0.5838553011417389,0.8903878033161163,0.5198576390380625,180000,https://www.zillow.com/homedetails/5428-W-Puget-Ave-Glendale-AZ-85302/7733603_zpid/,33.567,-112.177,6559,2017-12-16
1990166,23862524,"3227 W Corrine Dr, Phoenix, AZ 85029 ",85029,0.5904269218444824,0.8797827363014221,0.5194474128863646,180000,https://www.zillow.com/homedetails/3227-W-Corrine-Dr-Phoenix-AZ-85029/7747533_zpid/,33.6005,-112.12799999999999,6578,2018-01-04
392047,23856667,"3214 W Voltaire Ave, Phoenix, AZ 85029 ",85029,0.5943618416786194,0.873875766992569,0.5193984102680194,229000,https://www.zillow.com/homedetails/3214-W-Voltaire-Ave-Phoenix-AZ-85029/7747954_zpid/,33.6091,-112.12799999999999,6560,2017-12-17
417610,23855747,"4832 W Beryl Ave, Glendale, AZ 85302 ",85302,0.596335768699646,0.8706183731555939,0.5191808767997763,217500,https://www.zillow.com/homedetails/4832-W-Beryl-Ave-Glendale-AZ-85302/7728604_zpid/,33.5797,-112.163,6557,2017-12-14
422815,23883544,"8324 N 56th Ln, Glendale, AZ 85302 ",85302,0.5739517509937286,0.904369592666626,0.5190645112564951,242900,https://www.zillow.com/homedetails/8324-N-56th-Ln-Glendale-AZ-85302/7732897_zpid/,33.5576,-112.181,6568,2017-12-25
1665351,23862007,"17415 N Country Club Dr, Sun City, AZ 85373 ",85373,0.6018443703651428,0.8604538142681122,0.5178592840764775,219500,https://www.zillow.com/homedetails/17415-N-Country-Club-Dr-Sun-City-AZ-85373/7897399_zpid/,33.6428,-112.26,6574,2017-12-31
9022735,23864019,"13216 N 31ST Way, Phoenix, AZ 85032 ",85032,0.5949399471282959,0.8702115118503571,0.5177235908506859,241000,https://www.zillow.com/homedetails/13216-N-31st-Way-Phoenix-AZ-85032/50188555_zpid/,33.6068,-112.014,6581,2018-01-07
1667493,23859750,"18423 N 94TH Dr, Sun City, AZ 85373 ",85373,0.5992030203342438,0.8635018169879913,0.5174128968033118,249900,https://www.zillow.com/homedetails/18423-N-94th-Dr-Sun-City-AZ-85373/7897476_zpid/,33.6522,-112.26299999999999,6571,2017-12-28
9023645,23828731,"7328 W Heatherbrae Dr, Phoenix, AZ 85033 ",85033,0.6215617060661316,0.8317249715328217,0.5169683922837454,174900,https://www.zillow.com/homedetails/7328-W-Heatherbrae-Dr-Phoenix-AZ-85033/7711026_zpid/,33.4977,-112.21700000000001,6519,2017-11-06
1409526,23883258,"7001 N 77th Ave, Glendale, AZ 85303 ",85303,0.5761694610118866,0.8970168232917786,0.5168336995946188,164900,https://www.zillow.com/homedetails/7001-N-77th-Ave-Glendale-AZ-85303/7684833_zpid/,33.5382,-112.22399999999999,6577,2018-01-03
9025717,23858269,"3333 W Grovers Ave, Phoenix, AZ 85053 ",85053,0.5821405947208405,0.8878085315227509,0.5168293865388902,162000,https://www.zillow.com/homedetails/3333-W-Grovers-Ave-Phoenix-AZ-85053/2091717911_zpid/,33.6474,-112.131,6564,2017-12-21
381077,23870349,"12217 N 30TH Ave, Phoenix, AZ 85029 ",85029,0.588467538356781,0.8762729465961456,0.5156581838120768,239000,https://www.zillow.com/homedetails/12217-N-30th-Ave-Phoenix-AZ-85029/7747117_zpid/,33.5971,-112.12299999999999,6577,2018-01-03
352916,23863486,"213 E Campo Bello Dr, Phoenix, AZ 85022 ",85022,0.6056720614433289,0.8510330617427826,0.5154469488621789,225000,https://www.zillow.com/homedetails/213-E-Campo-Bello-Dr-Phoenix-AZ-85022/7959267_zpid/,33.6435,-112.071,6579,2018-01-05
1422266,23883525,"8164 W Sierra Vista Dr, Glendale, AZ 85303 ",85303,0.5722188055515289,0.9005709886550903,0.5153236554425753,239900,https://www.zillow.com/homedetails/8164-W-Sierra-Vista-Dr-Glendale-AZ-85303/7462584_zpid/,33.5315,-112.236,6579,2018-01-05
347157,23863475,"17828 N 1ST St, Phoenix, AZ 85022 ",85022,0.5992336571216583,0.8586186170578003,0.5145131739722864,104990,https://www.zillow.com/homedetails/17828-N-1st-St-Phoenix-AZ-85022/7956061_zpid/,33.6483,-112.074,6567,2017-12-24
333266,23854946,"5719 N 23rd Ave, Phoenix, AZ 85015 ",85015,0.6133165657520294,0.8387295603752136,0.5144067335640354,175000,https://www.zillow.com/homedetails/5719-N-23rd-Ave-Phoenix-AZ-85015/7763242_zpid/,33.5217,-112.10799999999999,6557,2017-12-14
411064,23882421,"5118 W Columbine Dr, Glendale, AZ 85304 ",85304,0.5802657306194305,0.8860186040401459,0.5141262326157632,239000,https://www.zillow.com/homedetails/5118-W-Columbine-Dr-Glendale-AZ-85304/7911366_zpid/,33.5987,-112.17,6579,2018-01-05
1090754,23921398,"649 W Ivanhoe St, Chandler, AZ 85225 ",85225,0.5883551239967346,0.8732518255710602,0.513782186114236,190000,https://www.zillow.com/homedetails/649-W-Ivanhoe-St-Chandler-AZ-85225/8189345_zpid/,33.3174,-111.851,6536,2017-11-23
481915,23852927,"2518 N 67TH Dr, Phoenix, AZ 85035 ",85035,0.5851092338562012,0.877840518951416,0.5136325934915931,145000,https://www.zillow.com/homedetails/2518-N-67th-Dr-Phoenix-AZ-85035/7475839_zpid/,33.4762,-112.204,6551,2017-12-08
1412767,23846610,"7238 W Ocotillo Rd, Glendale, AZ 85303 ",85303,0.5694659650325775,0.9016803801059723,0.5134762878079888,245000,https://www.zillow.com/homedetails/7238-W-Ocotillo-Rd-Glendale-AZ-85303/67800379_zpid/,33.5344,-112.215,6543,2017-11-30
412003,23883799,"5331 W Voltaire Dr, Glendale, AZ 85304 ",85304,0.5737231969833374,0.8945645391941071,0.5132324273343691,206000,https://www.zillow.com/homedetails/5331-W-Voltaire-Dr-Glendale-AZ-85304/7911791_zpid/,33.6084,-112.17399999999999,6572,2017-12-29
7381600,22218425,"4317 N 72nd Dr, Phoenix, AZ 85033 ",85033,0.6251153349876404,0.8193399310112,0.5121819554428164,190000,https://www.zillow.com/homedetails/4317-N-72nd-Dr-Phoenix-AZ-85033/7711467_zpid/,33.4989,-112.214,6377,2017-06-17
392024,23860589,"4134 W Linger Ln, Phoenix, AZ 85051 ",85051,0.5803208351135254,0.8821565806865692,0.5119338436049219,224900,https://www.zillow.com/homedetails/4134-W-Linger-Ln-Phoenix-AZ-85051/7755387_zpid/,33.5528,-112.148,6572,2017-12-29
405758,23864265,"4841 W Paradise Ln, Glendale, AZ 85306 ",85306,0.5677807033061981,0.9004882276058197,0.5112798391889841,249999,https://www.zillow.com/homedetails/4841-W-Paradise-Ln-Glendale-AZ-85306/7951435_zpid/,33.6321,-112.163,6579,2018-01-05
387030,23862016,"2114 W Sunnyside Dr, Phoenix, AZ 85029 ",85029,0.5840676426887512,0.8733413517475128,0.5100904245777773,174400,https://www.zillow.com/homedetails/2114-W-Sunnyside-Dr-Phoenix-AZ-85029/7748813_zpid/,33.5934,-112.104,6575,2018-01-01
9021439,23856224,"17630 N 33RD Ln, Phoenix, AZ 85053 ",85053,0.5711873173713684,0.8920609951019287,0.5095339267239041,215000,https://www.zillow.com/homedetails/17630-N-33rd-Ln-Phoenix-AZ-85053/7942069_zpid/,33.6462,-112.131,6558,2017-12-15
431375,23855856,"6744 W Pierson St, Phoenix, AZ 85033 ",85033,0.5896825790405273,0.8640633821487427,0.5095231236399513,141900,https://www.zillow.com/homedetails/6744-W-Pierson-St-Phoenix-AZ-85033/7716621_zpid/,33.508,-112.205,6555,2017-12-12
423007,23883750,"8427 N 47th Dr, Glendale, AZ 85302 ",85302,0.5830910801887512,0.8723700642585754,0.5086712030928631,246999,https://www.zillow.com/homedetails/8427-N-47th-Dr-Glendale-AZ-85302/7731867_zpid/,33.5593,-112.161,6578,2018-01-04
402356,23882339,"11811 N 51ST Dr, Glendale, AZ 85304 ",85304,0.5672810226678848,0.8959445059299469,0.5082523155776131,189500,https://www.zillow.com/homedetails/11811-N-51ST-Dr-Glendale-AZ-85304/60978616_zpid/,33.5933,-112.169,6583,2018-01-09
9011928,23753384,"7411 W Wolf St, Phoenix, AZ 85033 ",85033,0.588929295539856,0.8619004189968109,0.5075984065852985,229900,https://www.zillow.com/homedetails/7411-W-Wolf-St-Phoenix-AZ-85033/95184996_zpid/,33.5059,-112.219,6494,2017-10-12
377735,23862131,"10720 N 36TH Ave, Phoenix, AZ 85029 ",85029,0.5982144474983215,0.8480253517627716,0.5073010172693362,225000,https://www.zillow.com/homedetails/10720-N-36th-Ave-Phoenix-AZ-85029/7743347_zpid/,33.5838,-112.137,6576,2018-01-02
403812,23864058,"16025 N 47TH Dr, Glendale, AZ 85306 ",85306,0.5850836932659149,0.8668391406536102,0.5071734458810662,240000,https://www.zillow.com/homedetails/16025-N-47TH-Dr-Glendale-AZ-85306/7951382_zpid/,33.6308,-112.161,6581,2018-01-07
8996051,23841761,"3410 N 67TH Dr, Phoenix, AZ 85033 ",85033,0.5916731059551239,0.8570275604724884,0.5070801585939,220000,https://www.zillow.com/homedetails/3410-N-67th-Dr-Phoenix-AZ-85033/7485764_zpid/,33.4878,-112.204,6537,2017-11-24
343494,23875666,"2518 S 66th Dr, Phoenix, AZ 85043 ",85043,0.5473029911518097,0.9264253973960876,0.5070353910738827,194900,https://www.zillow.com/homedetails/2518-S-66th-Dr-Phoenix-AZ-85043/67773235_zpid/,33.425,-112.20200000000001,6581,2018-01-07
225855,23847348,"1461 E Renee Dr, Phoenix, AZ 85024 ",85024,0.5649760365486145,0.8973802328109741,0.5069983272106171,249000,https://www.zillow.com/homedetails/1461-E-Renee-Dr-Phoenix-AZ-85024/7996071_zpid/,33.6554,-112.05,6545,2017-12-02
9025493,23853409,"5955 W Mitchell Dr, Phoenix, AZ 85033 ",85033,0.5896825790405273,0.8595099151134491,0.5068380234550034,165000,https://www.zillow.com/homedetails/5955-W-Mitchell-Dr-Phoenix-AZ-85033/7489271_zpid/,33.4883,-112.189,6550,2017-12-07
386285,23856269,"3631 W Caron St, Phoenix, AZ 85051 ",85051,0.588694304227829,0.8601376712322235,0.5063581479061989,239900,https://www.zillow.com/homedetails/3631-W-Caron-St-Phoenix-AZ-85051/7746596_zpid/,33.5684,-112.13799999999999,6558,2017-12-15
9019728,23843826,"17413 N 8TH Ave, Phoenix, AZ 85023 ",85023,0.5998837351799011,0.8434992134571075,0.5060014587899584,184500,https://www.zillow.com/homedetails/17413-N-8th-Ave-Phoenix-AZ-85023/7963487_zpid/,33.6445,-112.085,6542,2017-11-29
460325,23853200,"5810 W Avalon Dr, Phoenix, AZ 85031 ",85031,0.5798494815826416,0.8723991215229034,0.5058601783482075,150000,https://www.zillow.com/homedetails/5810-W-Avalon-Dr-Phoenix-AZ-85031/7490070_zpid/,33.484,-112.185,6551,2017-12-08
9026770,23893524,"1518 W Marlboro Dr, Chandler, AZ 85224 ",85224,0.5439653396606445,0.9284547567367554,0.5050472071078502,237500,https://www.zillow.com/homedetails/1518-W-Marlboro-Dr-Chandler-AZ-85224/8176555_zpid/,33.3476,-111.87,6591,2018-01-17
349688,23875696,"6325 W Whyman Ave, Phoenix, AZ 85043 ",85043,0.5462331473827362,0.923386812210083,0.5043844846852252,225000,https://www.zillow.com/homedetails/6325-W-Whyman-Ave-Phoenix-AZ-85043/53206198_zpid/,33.4269,-112.197,6579,2018-01-05
484854,23817893,"2833 N 73RD Dr, Phoenix, AZ 85035 ",85035,0.5941299200057983,0.8472210764884949,0.5033593904013358,190000,https://www.zillow.com/homedetails/2833-N-73rd-Dr-Phoenix-AZ-85035/92692586_zpid/,33.4796,-112.21600000000001,6514,2017-11-01
8995212,23864024,"13428 N Hawthorn Dr, Sun City, AZ 85351 ",85351,0.5609422624111176,0.897176593542099,0.5032642681638047,139800,https://www.zillow.com/homedetails/13428-N-Hawthorn-Dr-Sun-City-AZ-85351/7914831_zpid/,33.6063,-112.274,6580,2018-01-06
9030739,23909196,"7307 N 41st Dr, Phoenix, AZ 85051 ",85051,0.5772320330142975,0.871610701084137,0.5031216169838135,222000,https://www.zillow.com/homedetails/7307-N-41st-Dr-Phoenix-AZ-85051/7756457_zpid/,33.5444,-112.148,6563,2017-12-20
386006,23854095,"1749 W Surrey Ave, Phoenix, AZ 85029 ",85029,0.6086930930614471,0.826431155204773,0.5030429360639381,220000,https://www.zillow.com/homedetails/1749-W-Surrey-Ave-Phoenix-AZ-85029/7784365_zpid/,33.6053,-112.098,6555,2017-12-12
391845,23866465,"4128 W Frier Dr, Phoenix, AZ 85051 ",85051,0.5803208351135254,0.8659121096134186,0.5025068385857736,229900,https://www.zillow.com/homedetails/4128-W-Frier-Dr-Phoenix-AZ-85051/7755554_zpid/,33.5496,-112.148,6579,2018-01-05
242869,23862343,"18216 N 24TH Dr, Phoenix, AZ 85023 ",85023,0.5722164213657379,0.8773561716079712,0.5020376087806575,197899,https://www.zillow.com/homedetails/18216-N-24th-Dr-Phoenix-AZ-85023/7957934_zpid/,33.6523,-112.111,6576,2018-01-02
235380,23862487,"2831 W Grovers Ave, Phoenix, AZ 85053 ",85053,0.5669468641281128,0.8853601217269897,0.5019521446372011,200000,https://www.zillow.com/homedetails/2831-W-Grovers-Ave-Phoenix-AZ-85053/7942333_zpid/,33.6472,-112.12200000000001,6578,2018-01-04
8850973,23814108,"2525 E Michigan Ave, Phoenix, AZ 85032 ",85032,0.6165108382701874,0.8136328458786011,0.5016134678567745,225000,https://www.zillow.com/homedetails/2525-E-Michigan-Ave-Phoenix-AZ-85032/7999906_zpid/,33.6507,-112.027,6511,2017-10-29
5187848,21947200,"16030 N Lakeforest Dr, Sun City, AZ 85351 ",85351,0.5991371273994446,0.8371706902980804,0.501580042528202,239900,https://www.zillow.com/homedetails/16030-N-Lakeforest-Dr-Sun-City-AZ-85351/7923097_zpid/,33.6324,-112.272,6375,2017-06-15
1349332,23855797,"5601 N 61st Ln, Glendale, AZ 85301 ",85301,0.5885689854621887,0.8521403670310974,0.5015433912948701,164000,https://www.zillow.com/homedetails/5601-N-61st-Ln-Glendale-AZ-85301/7714491_zpid/,33.5189,-112.193,6551,2017-12-08
1092802,23820224,"731 W Palomino Dr, Chandler, AZ 85225 ",85225,0.5671709179878235,0.8823678195476532,0.5004533662157566,245900,https://www.zillow.com/homedetails/731-W-Palomino-Dr-Chandler-AZ-85225/8177603_zpid/,33.3404,-111.855,6516,2017-11-03
8977160,23825434,"16231 N 91st Dr, Peoria, AZ 85382 ",85382,0.5824369192123413,0.8587780296802521,0.5001840298942106,233000,https://www.zillow.com/homedetails/16231-N-91st-Dr-Peoria-AZ-85382/2123153916_zpid/,33.6316,-112.25200000000001,6526,2017-11-13
9026621,23892869,"9601 W Oakstone Dr, Sun City, AZ 85351 ",85351,0.5622471272945404,0.8894410133361816,0.5000856546462131,184900,https://www.zillow.com/homedetails/9601-W-Oakstone-Dr-Sun-City-AZ-85351/7922239_zpid/,33.6156,-112.265,6577,2018-01-03
417420,23882392,"4809 W Laurie Ln, Glendale, AZ 85302 ",85302,0.5706556141376495,0.875622034072876,0.49967862960631493,243000,https://www.zillow.com/homedetails/4809-W-Laurie-Ln-Glendale-AZ-85302/7731926_zpid/,33.5587,-112.163,6556,2017-12-13
9006564,23814082,"16612 N 28th Way, Phoenix, AZ 85032 ",85032,0.5996073782444,0.8328116536140442,0.49936001219490045,194900,https://www.zillow.com/homedetails/16612-N-28th-Way-Phoenix-AZ-85032/8005824_zpid/,33.6376,-112.021,6511,2017-10-29
350999,23875711,"6522 W Preston Ln, Phoenix, AZ 85043 ",85043,0.5462331473827362,0.9139320552349091,0.4992199830249371,230000,https://www.zillow.com/homedetails/6522-W-Preston-Ln-Phoenix-AZ-85043/62727413_zpid/,33.4236,-112.20100000000001,6561,2017-12-18
413890,23882883,"6209 W Bloomfield Rd, Glendale, AZ 85304 ",85304,0.5636237561702728,0.8853352963924408,0.4989960052228293,225000,https://www.zillow.com/homedetails/6209-W-Bloomfield-Rd-Glendale-AZ-85304/7912238_zpid/,33.5984,-112.19200000000001,6561,2017-12-18
409785,23870370,"4531 W Wethersfield Rd, Glendale, AZ 85304 ",85304,0.5636237561702728,0.8844427466392517,0.498492942978368,235000,https://www.zillow.com/homedetails/4531-W-Wethersfield-Rd-Glendale-AZ-85304/7955091_zpid/,33.5969,-112.15700000000001,6577,2018-01-03
495328,23862682,"6239 W Encanto Blvd, Phoenix, AZ 85035 ",85035,0.5618574917316437,0.8871174156665802,0.4984335660378827,153900,https://www.zillow.com/homedetails/6239-W-Encanto-Blvd-Phoenix-AZ-85035/7491160_zpid/,33.473,-112.195,6576,2018-01-02
9012224,23885680,"9301 W Glen Oaks Cir N, Sun City, AZ 85351 ",85351,0.5736350119113922,0.8688344061374664,0.49839383491369293,244900,https://www.zillow.com/homedetails/9301-W-Glen-Oaks-Cir-N-Sun-City-AZ-85351/7923234_zpid/,33.6338,-112.26,6583,2018-01-09
332879,23849200,"5333 N 22nd Dr, Phoenix, AZ 85015 ",85015,0.6082850992679596,0.8193175494670868,0.4983786569095683,240000,https://www.zillow.com/homedetails/5333-N-22nd-Dr-Phoenix-AZ-85015/7764971_zpid/,33.5163,-112.10700000000001,6549,2017-12-06
1126602,23890192,"2807 N Central Dr, Chandler, AZ 85224 ",85224,0.5361982882022858,0.9291641414165497,0.4982162220865005,180000,https://www.zillow.com/homedetails/2807-N-Central-Dr-Chandler-AZ-85224/8199127_zpid/,33.3475,-111.866,6625,2018-02-20
359220,23854837,"1816 S 84TH Dr, Tolleson, AZ 85353 ",85353,0.5462331473827362,0.9113956987857819,0.49783454105884584,225000,https://www.zillow.com/homedetails/1816-S-84TH-Dr-Tolleson-AZ-85353/59249294_zpid/,33.4304,-112.241,6557,2017-12-14
481948,23862444,"2520 N 51st Ln, Phoenix, AZ 85035 ",85035,0.5672162771224976,0.8770845532417297,0.49749663501142294,152000,https://www.zillow.com/homedetails/2520-N-51st-Ln-Phoenix-AZ-85035/7493069_zpid/,33.4755,-112.171,6578,2018-01-04
9025615,23856149,"17636 N 35th St, Phoenix, AZ 85032 ",85032,0.5816321074962616,0.8553201854228973,0.497481682031613,235000,https://www.zillow.com/homedetails/17636-N-35th-St-Phoenix-AZ-85032/7998341_zpid/,33.6469,-112.005,6557,2017-12-14
9026899,23893911,"1318 W Boxelder Ct, Chandler, AZ 85224 ",85224,0.5258635580539703,0.9459643661975861,0.49744818740093155,239900,https://www.zillow.com/homedetails/1318-W-Boxelder-Ct-Chandler-AZ-85224/8172413_zpid/,33.3542,-111.865,6604,2018-01-30
8976262,22541368,"2918 E Nisbet Ct, Phoenix, AZ 85032 ",85032,0.5949399471282959,0.8357475697994232,0.49721961498907064,219500,https://www.zillow.com/homedetails/2918-E-Nisbet-Ct-Phoenix-AZ-85032/8011642_zpid/,33.6234,-112.01899999999999,6440,2017-08-19
1410517,23856547,"7108 N 73rd Dr, Glendale, AZ 85303 ",85303,0.5627163052558899,0.8834950923919678,0.4971570941025192,222000,https://www.zillow.com/homedetails/7108-N-73rd-Dr-Glendale-AZ-85303/82823489_zpid/,33.5387,-112.21700000000001,6532,2017-11-19
397286,23862957,"8437 N 36th Ave, Phoenix, AZ 85051 ",85051,0.5896819233894348,0.8428844213485718,0.4970337067758166,187000,https://www.zillow.com/homedetails/8437-N-36th-Ave-Phoenix-AZ-85051/7754435_zpid/,33.5599,-112.137,6550,2017-12-07
389263,23864217,"3907 W Davidson Ln, Phoenix, AZ 85051 ",85051,0.5725884586572647,0.8675920069217682,0.4967731699866982,238995,https://www.zillow.com/homedetails/3907-W-Davidson-Ln-Phoenix-AZ-85051/7746545_zpid/,33.5698,-112.14299999999999,6582,2018-01-08
441326,23862512,"3042 N 87TH Ave, Phoenix, AZ 85037 ",85037,0.5551215410232544,0.8946787416934967,0.49665544180964005,199999,https://www.zillow.com/homedetails/3042-N-87th-Ave-Phoenix-AZ-85037/7479842_zpid/,33.483000000000004,-112.24700000000001,6578,2018-01-04
354621,23808089,"2310 E Winchcomb Dr, Phoenix, AZ 85022 ",85022,0.6044179201126099,0.8216256499290466,0.49660526644128566,224900,https://www.zillow.com/homedetails/2310-E-Winchcomb-Dr-Phoenix-AZ-85022/8010116_zpid/,33.6168,-112.03399999999999,6507,2017-10-25
9026158,23863640,"3832 W Villa Theresa Dr, Glendale, AZ 85308 ",85308,0.5576797127723694,0.8898538947105408,0.4962534644115486,218000,https://www.zillow.com/homedetails/3832-W-Villa-Theresa-Dr-Glendale-AZ-85308/7948394_zpid/,33.6543,-112.14200000000001,6580,2018-01-06
627067,23856639,"1610 W 7th Ave, Mesa, AZ 85202 ",85202,0.5928218364715576,0.8364593684673309,0.4958713789486424,218900,https://www.zillow.com/homedetails/1610-W-7th-Ave-Mesa-AZ-85202/7604416_zpid/,33.4024,-111.866,6560,2017-12-17
434653,23866644,"7715 W Elm St, Phoenix, AZ 85033 ",85033,0.5467410534620285,0.9066068828105927,0.49567920218378925,175000,https://www.zillow.com/homedetails/7715-W-Elm-St-Phoenix-AZ-85033/7468202_zpid/,33.506,-112.226,6582,2018-01-08
230832,23863481,"19209 N 6th St, Phoenix, AZ 85024 ",85024,0.5543593466281891,0.8937649130821228,0.4954669332554058,235000,https://www.zillow.com/homedetails/19209-N-6th-St-Phoenix-AZ-85024/7972480_zpid/,33.6606,-112.066,6581,2018-01-07
225687,23849553,"1306 W Charleston Ave, Phoenix, AZ 85023 ",85023,0.6009583473205566,0.8233340680599213,0.494789480834001,245000,https://www.zillow.com/homedetails/1306-W-Charleston-Ave-Phoenix-AZ-85023/7956977_zpid/,33.6491,-112.09,6550,2017-12-07
408219,23882796,"6118 W Tierra Buena Ln, Glendale, AZ 85306 ",85306,0.5937321186065674,0.8331269025802612,0.49465420093710577,199000,https://www.zillow.com/homedetails/6118-W-Tierra-Buena-Ln-Glendale-AZ-85306/8096943_zpid/,33.6295,-112.18700000000001,6529,2017-11-16
415049,23846150,"10006 N 66TH Ave, Glendale, AZ 85302 ",85302,0.5522964894771576,0.895244300365448,0.49444028431627096,199000,https://www.zillow.com/homedetails/10006-N-66th-Ave-Glendale-AZ-85302/7706542_zpid/,33.5765,-112.20100000000001,6544,2017-12-01
407925,23791005,"6023 W Redfield Rd, Glendale, AZ 85306 ",85306,0.5909877121448517,0.836458295583725,0.4943365744116077,179900,https://www.zillow.com/homedetails/6023-W-Redfield-Rd-Glendale-AZ-85306/7910719_zpid/,33.6135,-112.18799999999999,6309,2017-04-10
384614,23864029,"13636 N 18TH Dr, Phoenix, AZ 85029 ",85029,0.5662908852100372,0.8724865019321442,0.4940811535129628,189500,https://www.zillow.com/homedetails/13636-N-18th-Dr-Phoenix-AZ-85029/7784603_zpid/,33.6108,-112.09899999999999,6583,2018-01-09
329110,23884405,"2334 W Rose Ln, Phoenix, AZ 85015 ",85015,0.6071319580078125,0.8137168288230896,0.4940334915472704,199900,https://www.zillow.com/homedetails/2334-W-Rose-Ln-Phoenix-AZ-85015/7772689_zpid/,33.5279,-112.11,6547,2017-12-04
8970849,23830064,"3715 E Delcoa Dr, Phoenix, AZ 85032 ",85032,0.6060465574264526,0.8149624764919281,0.49390520330966936,220000,https://www.zillow.com/homedetails/3715-E-Delcoa-Dr-Phoenix-AZ-85032/7813615_zpid/,33.6109,-112.00200000000001,6507,2017-10-25
8990554,23839230,"3845 N 59th Ave, Phoenix, AZ 85033 ",85033,0.5896825790405273,0.8371785581111908,0.493669611264437,176000,https://www.zillow.com/homedetails/3845-N-59th-Ave-Phoenix-AZ-85033/7496809_zpid/,33.493,-112.186,6531,2017-11-18
1111311,23885718,"1319 W Straford Dr, Chandler, AZ 85224 ",85224,0.5258635580539703,0.9384382665157318,0.4934904858439628,209000,https://www.zillow.com/homedetails/1319-W-Straford-Dr-Chandler-AZ-85224/8172355_zpid/,33.353,-111.865,6618,2018-02-13
22933,22734467,"8739 W Fairmount Ave, Phoenix, AZ 85037 ",85037,0.5802908837795258,0.8485995531082153,0.4924345846480769,170000,https://www.zillow.com/homedetails/8739-W-Fairmount-Ave-Phoenix-AZ-85037/7471067_zpid/,33.492,-112.24799999999999,6485,2017-10-03
232170,23847359,"17834 N 33RD Dr, Phoenix, AZ 85053 ",85053,0.5617499351501465,0.876492828130722,0.4923697893620016,249999,https://www.zillow.com/homedetails/17834-N-33RD-Dr-Phoenix-AZ-85053/7941287_zpid/,33.6484,-112.131,6543,2017-11-30
1864574,23822334,"9873 W Escuda Dr, Peoria, AZ 85382 ",85382,0.5803146362304688,0.847619354724884,0.49188591749907573,245000,https://www.zillow.com/homedetails/9873-W-Escuda-Dr-Peoria-AZ-85382/7896125_zpid/,33.6652,-112.271,6519,2017-11-06
9024486,23843769,"6743 W Roma Ave, Phoenix, AZ 85033 ",85033,0.5805405676364899,0.8457039892673492,0.49096547398171086,135000,https://www.zillow.com/homedetails/6743-W-Roma-Ave-Phoenix-AZ-85033/7717104_zpid/,33.5015,-112.205,6542,2017-11-29
9011933,22678376,"7934 W Mitchell Dr, Phoenix, AZ 85033 ",85033,0.5775615870952606,0.8500175178050995,0.4909374666422872,155000,https://www.zillow.com/homedetails/7934-W-Mitchell-Dr-Phoenix-AZ-85033/7478637_zpid/,33.4893,-112.23,6464,2017-09-12
8946285,22054871,"1612 W Andorra Dr, Phoenix, AZ 85029 ",85029,0.6169112026691437,0.7957543730735779,0.49090978732205137,219900,https://www.zillow.com/homedetails/1612-W-Andorra-Dr-Phoenix-AZ-85029/7784242_zpid/,33.6066,-112.094,6380,2017-06-20
435667,22734446,"7942 W Verde Ln, Phoenix, AZ 85033 ",85033,0.5819537043571472,0.8433068096637726,0.49076552179344013,175000,https://www.zillow.com/homedetails/7942-W-Verde-Ln-Phoenix-AZ-85033/7479526_zpid/,33.4815,-112.23100000000001,6484,2017-10-02
561112,23847992,"1043 W Frito Ave, Mesa, AZ 85210 ",85210,0.5973183512687683,0.8215993344783783,0.49075635987414223,195000,https://www.zillow.com/homedetails/1043-W-Frito-Ave-Mesa-AZ-85210/7598695_zpid/,33.3951,-111.854,6543,2017-11-30
416064,23818791,"4416 W Turquoise Ave, Glendale, AZ 85302 ",85302,0.5936784744262695,0.8253380656242371,0.4899854436857254,249900,https://www.zillow.com/homedetails/4416-W-Turquoise-Ave-Glendale-AZ-85302/7729268_zpid/,33.5757,-112.154,6515,2017-11-02
402883,23865219,"12215 N 47TH Ln, Glendale, AZ 85304 ",85304,0.5628505200147629,0.8700901567935944,0.48973069721100115,249900,https://www.zillow.com/homedetails/12215-N-47th-Ln-Glendale-AZ-85304/7954296_zpid/,33.597,-112.161,6582,2018-01-08
261662,23863593,"4827 W Topeka Dr, Glendale, AZ 85308 ",85308,0.5563047230243683,0.8801501393318176,0.48963167948084596,230000,https://www.zillow.com/homedetails/4827-W-Topeka-Dr-Glendale-AZ-85308/7939843_zpid/,33.6597,-112.166,6569,2017-12-26
337615,23862924,"2310 W Echo Ln, Phoenix, AZ 85021 ",85021,0.5807791650295258,0.8426182270050049,0.4893751103186261,190000,https://www.zillow.com/homedetails/2310-W-Echo-Ln-Phoenix-AZ-85021/7782737_zpid/,33.5598,-112.109,6558,2017-12-15
355855,23833551,"702 E Rose Marie Ln, Phoenix, AZ 85022 ",85022,0.5692321360111237,0.8585148453712463,0.4886942392279341,247000,https://www.zillow.com/homedetails/702-E-Rose-Marie-Ln-Phoenix-AZ-85022/49942677_zpid/,33.6527,-112.065,6527,2017-11-14
2044933,22443059,"1446 W Bentley St, Mesa, AZ 85201 ",85201,0.6088222563266754,0.8026067316532135,0.48864484130808794,220000,https://www.zillow.com/homedetails/1446-W-Bentley-St-Mesa-AZ-85201/7610672_zpid/,33.4202,-111.86200000000001,6338,2017-05-09
225614,23844378,"1303 W Michelle Dr, Phoenix, AZ 85023 ",85023,0.6009583473205566,0.8127272725105286,0.4884152385102709,249900,https://www.zillow.com/homedetails/1303-W-Michelle-Dr-Phoenix-AZ-85023/7956957_zpid/,33.6494,-112.09,6543,2017-11-30
434601,23841755,"1838 N 83rd Ln, Phoenix, AZ 85037 ",85037,0.5472281277179718,0.8925252258777618,0.4884149082981475,195000,https://www.zillow.com/homedetails/1838-N-83rd-Ln-Phoenix-AZ-85037/7487940_zpid/,33.4683,-112.24,6536,2017-11-23
484005,23821708,"2696 N 73RD Gln, Phoenix, AZ 85035 ",85035,0.5664722621440887,0.8613674342632294,0.4879407590243412,210000,https://www.zillow.com/homedetails/2696-N-73rd-Gln-Phoenix-AZ-85035/95155175_zpid/,33.4779,-112.21799999999999,6513,2017-10-31
389915,23884704,"3942 W Northview Ave, Phoenix, AZ 85051 ",85051,0.5508272349834442,0.8856329619884491,0.48783075566229517,209500,https://www.zillow.com/homedetails/3942-W-Northview-Ave-Phoenix-AZ-85051/7757824_zpid/,33.5444,-112.145,6573,2017-12-30
411351,23831053,"5194 W Paradise Dr, Glendale, AZ 85304 ",85304,0.5802657306194305,0.8405703902244568,0.48775419162065425,214900,https://www.zillow.com/homedetails/5194-W-Paradise-Dr-Glendale-AZ-85304/60978690_zpid/,33.5953,-112.171,6526,2017-11-13
9022649,23862722,"7133 W Mountain View Rd, Peoria, AZ 85345 ",85345,0.5387864708900452,0.9049816429615021,0.4875918656315026,205000,https://www.zillow.com/homedetails/7133-W-Mountain-View-Rd-Peoria-AZ-85345/7702397_zpid/,33.5743,-112.213,6576,2018-01-02
410898,23823665,"5031 W Windrose Dr, Glendale, AZ 85304 ",85304,0.5802657306194305,0.8400297462940216,0.4874404744753553,229000,https://www.zillow.com/homedetails/5031-W-Windrose-Dr-Glendale-AZ-85304/7954728_zpid/,33.6006,-112.167,6521,2017-11-08
9024757,23848700,"3126 N 43RD Ave, Phoenix, AZ 85031 ",85031,0.5519338846206665,0.8821914494037628,0.486911353648555,175000,https://www.zillow.com/homedetails/3126-N-43rd-Ave-Phoenix-AZ-85031/7509773_zpid/,33.4851,-112.152,6547,2017-12-04
459700,22721620,"5715 W Roma Ave, Phoenix, AZ 85031 ",85031,0.5805405676364899,0.8385644853115082,0.48682070230254393,139900,https://www.zillow.com/homedetails/5715-W-Roma-Ave-Phoenix-AZ-85031/7712868_zpid/,33.4993,-112.18299999999999,6478,2017-09-26
1346544,23849829,"4852 W Frier Dr, Glendale, AZ 85301 ",85301,0.5828441679477692,0.8344889581203461,0.4863770224572539,229900,https://www.zillow.com/homedetails/4852-W-Frier-Dr-Glendale-AZ-85301/7724567_zpid/,33.5494,-112.164,6550,2017-12-07
381604,23884452,"3036 W Northview Ave, Phoenix, AZ 85051 ",85051,0.5593281388282776,0.868603527545929,0.485834394441941,245000,https://www.zillow.com/homedetails/3036-W-Northview-Ave-Phoenix-AZ-85051/7756072_zpid/,33.5432,-112.125,6579,2018-01-05
9023243,23866706,"9140 W Gelding Dr, Peoria, AZ 85381 ",85381,0.5411973893642426,0.8975983560085297,0.48577788696945223,247000,https://www.zillow.com/homedetails/9140-W-Gelding-Dr-Peoria-AZ-85381/7908642_zpid/,33.6153,-112.255,6579,2018-01-05
8989113,22740158,"19153 N 75TH Dr, Glendale, AZ 85308 ",85308,0.5767892599105835,0.8412987291812897,0.4852520713681905,235000,https://www.zillow.com/homedetails/19153-N-75th-Dr-Glendale-AZ-85308/7892099_zpid/,33.6583,-112.221,6487,2017-10-05
9024048,23836145,"9411 W Glen Oaks Cir, Sun City, AZ 85351 ",85351,0.5965812802314758,0.8120737969875336,0.4844680254492584,140000,https://www.zillow.com/homedetails/9411-W-Glen-Oaks-Cir-Sun-City-AZ-85351/7922837_zpid/,33.6297,-112.26299999999999,6530,2017-11-17
1357376,23883408,"7648 N 46th Ave, Glendale, AZ 85301 ",85301,0.5751412808895111,0.842341810464859,0.4844655478175488,240000,https://www.zillow.com/homedetails/7648-N-46th-Ave-Glendale-AZ-85301/7725091_zpid/,33.5494,-112.15799999999999,6571,2017-12-28
1421999,23820040,"8134 W Mclellan Rd, Glendale, AZ 85303 ",85303,0.5722188055515289,0.8439505696296692,0.48292438689802175,222500,https://www.zillow.com/homedetails/8134-W-Mclellan-Rd-Glendale-AZ-85303/7462575_zpid/,33.5326,-112.235,6516,2017-11-03
2042666,23866719,"9694 N 82nd Gln, Peoria, AZ 85345 ",85345,0.5320000648498535,0.9072472155094147,0.48265557748585763,219000,https://www.zillow.com/homedetails/9694-N-82nd-Gln-Peoria-AZ-85345/60978309_zpid/,33.5735,-112.23700000000001,6578,2018-01-04
454952,23752844,"4630 W Indianola Ave, Phoenix, AZ 85031 ",85031,0.5781618654727936,0.8344516754150391,0.482448137304857,159000,https://www.zillow.com/homedetails/4630-W-Indianola-Ave-Phoenix-AZ-85031/7508079_zpid/,33.4927,-112.15899999999999,6497,2017-10-15
9029936,23905379,"8408 W Bloomfield Rd, Peoria, AZ 85381 ",85381,0.5418640971183777,0.8897941410541534,0.48214749886353125,224900,https://www.zillow.com/homedetails/8408-W-Bloomfield-Rd-Peoria-AZ-85381/7914533_zpid/,33.5976,-112.24,6578,2018-01-04
9013787,22693106,"5647 W Villa Theresa Dr, Glendale, AZ 85308 ",85308,0.5724729597568512,0.84160315990448,0.48179505189123617,210000,https://www.zillow.com/homedetails/5647-W-Villa-Theresa-Dr-Glendale-AZ-85308/7901269_zpid/,33.6537,-112.182,6471,2017-09-19
350177,22541766,"6408 W Cordes Rd, Phoenix, AZ 85043 ",85043,0.5473029911518097,0.8802498281002045,0.4817633638801082,169900,https://www.zillow.com/homedetails/6408-W-Cordes-Rd-Phoenix-AZ-85043/49641248_zpid/,33.4216,-112.197,6442,2017-08-21
406363,23789864,"5213 W Evans Dr, Glendale, AZ 85306 ",85306,0.5873523354530334,0.8201888203620911,0.4817398191521427,209900,https://www.zillow.com/homedetails/5213-W-Evans-Dr-Glendale-AZ-85306/8097361_zpid/,33.6172,-112.17200000000001,6303,2017-04-04
350131,22705127,"6405 W Preston Ln, Phoenix, AZ 85043 ",85043,0.5473029911518097,0.8796921670436859,0.4814581543158267,187000,https://www.zillow.com/homedetails/6405-W-Preston-Ln-Phoenix-AZ-85043/55257428_zpid/,33.4235,-112.198,6474,2017-09-22
415297,23835189,"10114 N 66TH Ln, Glendale, AZ 85302 ",85302,0.5522964894771576,0.8716720640659332,0.48142142095892293,197500,https://www.zillow.com/homedetails/10114-N-66TH-Ln-Glendale-AZ-85302/67083300_zpid/,33.5779,-112.20299999999999,6528,2017-11-15
483971,22688771,"2734 N 73rd Gln, Phoenix, AZ 85035 ",85035,0.5664722621440887,0.8495762348175049,0.4812613716009295,209900,https://www.zillow.com/homedetails/2734-N-73rd-Gln-Phoenix-AZ-85035/95167972_zpid/,33.4783,-112.21799999999999,6470,2017-09-18
9007274,23854421,"8426 W Bluefield Ave, Peoria, AZ 85382 ",85382,0.5694462358951569,0.8448444902896881,0.4810935149122253,229000,https://www.zillow.com/homedetails/8426-W-Bluefield-Ave-Peoria-AZ-85382/8129054_zpid/,33.6509,-112.241,6552,2017-12-09
495290,23854344,"6237 W Monte Vista Rd, Phoenix, AZ 85035 ",85035,0.5535217821598053,0.8677954971790314,0.48034371014879174,178900,https://www.zillow.com/homedetails/6237-W-Monte-Vista-Rd-Phoenix-AZ-85035/7491037_zpid/,33.4705,-112.194,6554,2017-12-11
242590,22686911,"3202 W Angela Dr, Phoenix, AZ 85053 ",85053,0.5769814252853394,0.8323847353458405,0.480270530985603,234900,https://www.zillow.com/homedetails/3202-W-Angela-Dr-Phoenix-AZ-85053/7942083_zpid/,33.6461,-112.12799999999999,6464,2017-09-12
9023033,23823351,"437 E Wescott Dr, Phoenix, AZ 85024 ",85024,0.5616893470287323,0.8545726239681244,0.4800043391452862,225000,https://www.zillow.com/homedetails/437-E-Wescott-Dr-Phoenix-AZ-85024/2092120604_zpid/,33.6585,-112.068,6521,2017-11-08
425566,23374604,"3339 N 80th Dr, Phoenix, AZ 85033 ",85033,0.5847243666648865,0.8199678361415863,0.47945517367346646,179500,http://www.zillow.com/homedetails/3339-N-80th-Dr-Phoenix-AZ-85033/7479414_zpid,33.4867,-112.23200000000001,6369,2017-06-09
450552,22126108,"8733 W Indianola Ave, Phoenix, AZ 85037 ",85037,0.5802908837795258,0.8261627852916718,0.4794147328226588,169900,https://www.zillow.com/homedetails/8733-W-Indianola-Ave-Phoenix-AZ-85037/7470962_zpid/,33.4911,-112.24799999999999,6325,2017-04-26
419756,23870015,"5532 W Loma Ln, Glendale, AZ 85302 ",85302,0.5397879481315613,0.8879649341106415,0.47931276979636017,185000,https://www.zillow.com/homedetails/5532-W-Loma-Ln-Glendale-AZ-85302/7737959_zpid/,33.5541,-112.179,6583,2018-01-09
243287,22690475,"3218 W Angela Dr, Phoenix, AZ 85053 ",85053,0.5669468641281128,0.8450930416584015,0.4791228498647193,209000,https://www.zillow.com/homedetails/3218-W-Angela-Dr-Phoenix-AZ-85053/7942085_zpid/,33.6461,-112.12899999999999,6470,2017-09-18
243942,23854107,"18463 N 5TH Ave, Phoenix, AZ 85023 ",85023,0.5547207593917847,0.863610178232193,0.4790624938874366,249000,https://www.zillow.com/homedetails/18463-N-5th-Ave-Phoenix-AZ-85023/7956457_zpid/,33.6543,-112.08,6552,2017-12-09
502071,22116293,"3625 N 48th Ave, Phoenix, AZ 85031 ",85031,0.5862255096435547,0.81684610247612,0.47885602272441474,158000,https://www.zillow.com/homedetails/3625-N-48th-Ave-Phoenix-AZ-85031/7508647_zpid/,33.4911,-112.163,6338,2017-05-09
398944,22432872,"9409 N 36th Dr, Phoenix, AZ 85051 ",85051,0.588694304227829,0.8131294250488281,0.4786846611262945,215000,https://www.zillow.com/homedetails/9409-N-36th-Dr-Phoenix-AZ-85051/7746677_zpid/,33.5717,-112.137,6330,2017-05-01
472964,23884783,"5737 N 35th Ave, Phoenix, AZ 85017 ",85017,0.5702532827854156,0.8394033908843994,0.4786725392330382,169500,https://www.zillow.com/homedetails/5737-N-35th-Ave-Phoenix-AZ-85017/7762448_zpid/,33.5218,-112.134,6555,2017-12-12
1126522,23920569,"2802 N Pennington Dr, Chandler, AZ 85224 ",85224,0.5196137726306915,0.9211055934429169,0.478619152400106,249000,https://www.zillow.com/homedetails/2802-N-Pennington-Dr-Chandler-AZ-85224/8176474_zpid/,33.3465,-111.87100000000001,6634,2018-03-01
9023482,23827286,"15606 N 99th Dr, Sun City, AZ 85351 ",85351,0.5810146629810333,0.823684960603714,0.4785730397877126,192500,https://www.zillow.com/homedetails/15606-N-99th-Dr-Sun-City-AZ-85351/2092083796_zpid/,33.6257,-112.271,6526,2017-11-13
149903,23800141,"8309 E Indian School Rd, Scottsdale, AZ 85251 ",85251,0.602128803730011,0.7936864197254181,0.4779014544460214,239850,https://www.zillow.com/homedetails/8309-E-Indian-School-Rd-Scottsdale-AZ-85251/7577019_zpid/,33.4948,-111.902,6497,2017-10-15
390056,23864177,"2917 W Aster Dr, Phoenix, AZ 85029 ",85029,0.5604470074176788,0.8527012765407562,0.4778938786585014,199700,https://www.zillow.com/homedetails/2917-W-Aster-Dr-Phoenix-AZ-85029/7741102_zpid/,33.6021,-112.12200000000001,6582,2018-01-08
9030023,23905783,"8112 W Laurel Ln, Peoria, AZ 85345 ",85345,0.5242822170257568,0.9112671315670013,0.4777611520406495,243000,https://www.zillow.com/homedetails/8112-W-Laurel-Ln-Peoria-AZ-85345/7680881_zpid/,33.5932,-112.234,6580,2018-01-06
232395,23858251,"19615 N 6th Pl, Phoenix, AZ 85024 ",85024,0.5699130296707153,0.8373606503009796,0.4772227451400717,179990,https://www.zillow.com/homedetails/19615-N-6th-Pl-Phoenix-AZ-85024/7967758_zpid/,33.6645,-112.066,6553,2017-12-10
8998472,23817219,"6708 W Highland Ave, Phoenix, AZ 85033 ",85033,0.5896825790405273,0.809257835149765,0.47720524733986736,168500,https://www.zillow.com/homedetails/6708-W-Highland-Ave-Phoenix-AZ-85033/7716706_zpid/,33.5065,-112.204,6514,2017-11-01
9026795,23893587,"9807 W Royal Oak Rd, Sun City, AZ 85351 ",85351,0.5542883574962616,0.8589917719364166,0.4761291383694397,164900,https://www.zillow.com/homedetails/9807-W-Royal-Oak-Rd-Sun-City-AZ-85351/8096145_zpid/,33.5995,-112.266,6565,2017-12-22
422357,23883112,"6612 W Brown St, Glendale, AZ 85302 ",85302,0.560769110918045,0.848973423242569,0.47607807174478456,199000,https://www.zillow.com/homedetails/6612-W-Brown-St-Glendale-AZ-85302/7706362_zpid/,33.5783,-112.20100000000001,6496,2017-10-14
9025829,23859165,"4109 E Winchcomb Dr, Phoenix, AZ 85032 ",85032,0.6078954339027405,0.7829031944274902,0.47592327708034077,185000,https://www.zillow.com/homedetails/4109-E-Winchcomb-Dr-Phoenix-AZ-85032/8030117_zpid/,33.617,-111.993,6558,2017-12-15
8964694,23800320,"9084 N 80th Ln, Peoria, AZ 85345 ",85345,0.5472739040851593,0.8693030774593353,0.4757468890344141,170000,https://www.zillow.com/homedetails/9084-N-80th-Ln-Peoria-AZ-85345/50187199_zpid/,33.5677,-112.23299999999999,6422,2017-08-01
493050,23849853,"5901 W Cypress St, Phoenix, AZ 85035 ",85035,0.5535217821598053,0.8582887649536133,0.47508152678486226,184500,https://www.zillow.com/homedetails/5901-W-Cypress-St-Phoenix-AZ-85035/7491471_zpid/,33.4723,-112.18700000000001,6550,2017-12-07
411581,22708161,"5226 W Eugie Ave, Glendale, AZ 85304 ",85304,0.5737231969833374,0.8279283344745636,0.4750016909278365,220000,https://www.zillow.com/homedetails/5226-W-Eugie-Ave-Glendale-AZ-85304/7911821_zpid/,33.608000000000004,-112.17200000000001,6473,2017-09-21
389970,22302502,"2910 W Altadena Ave, Phoenix, AZ 85029 ",85029,0.5849516689777374,0.8113538920879364,0.47460281330842147,220000,https://www.zillow.com/homedetails/2910-W-Altadena-Ave-Phoenix-AZ-85029/7739875_zpid/,33.5927,-112.12200000000001,6401,2017-07-11
436097,23866308,"2311 N 91st Gln, Phoenix, AZ 85037 ",85037,0.5242356657981873,0.9040494859218597,0.47393498416675506,239900,https://www.zillow.com/homedetails/2311-N-91st-Gln-Phoenix-AZ-85037/60974969_zpid/,33.4747,-112.257,6579,2018-01-05
391768,23866394,"3152 W Shangri La Rd, Phoenix, AZ 85029 ",85029,0.5479955971240997,0.8644261956214905,0.4737017492393125,229999,https://www.zillow.com/homedetails/3152-W-Shangri-La-Rd-Phoenix-AZ-85029/7740605_zpid/,33.5881,-112.12799999999999,6577,2018-01-03
451186,23869054,"3607 N 51ST Ave, Phoenix, AZ 85031 ",85031,0.5252830982208252,0.9013428390026093,0.473460159030445,174900,https://www.zillow.com/homedetails/3607-N-51st-Ave-Phoenix-AZ-85031/7508531_zpid/,33.4904,-112.169,6585,2018-01-11
834399,23856892,"3514 W Mariposa St, Phoenix, AZ 85019 ",85019,0.5569104850292206,0.8489376306533813,0.4727822676467319,195000,https://www.zillow.com/homedetails/3514-W-Mariposa-St-Phoenix-AZ-85019/7506769_zpid/,33.5079,-112.135,6560,2017-12-17
828507,23855608,"3542 W Rovey Ave, Phoenix, AZ 85019 ",85019,0.5699214935302734,0.8284943401813507,0.47217673173753383,235000,https://www.zillow.com/homedetails/3542-W-Rovey-Ave-Phoenix-AZ-85019/7759119_zpid/,33.5255,-112.13600000000001,6547,2017-12-04
237433,23843870,"2957 W Michelle Dr, Phoenix, AZ 85053 ",85053,0.5497640669345856,0.8585326075553894,0.4719903779256054,225000,https://www.zillow.com/homedetails/2957-W-Michelle-Dr-Phoenix-AZ-85053/7940747_zpid/,33.6492,-112.124,6542,2017-11-29
1128437,23920629,"3298 N Ash Dr, Chandler, AZ 85224 ",85224,0.5102318227291107,0.9250410497188568,0.47198538089730224,240000,https://www.zillow.com/homedetails/3298-N-Ash-Dr-Chandler-AZ-85224/8191971_zpid/,33.3549,-111.87100000000001,6636,2018-03-03
394310,23786762,"3560 W Wood Dr, Phoenix, AZ 85029 ",85029,0.5900285542011261,0.7995665669441223,0.4717671054815984,230000,https://www.zillow.com/homedetails/3560-W-Wood-Dr-Phoenix-AZ-85029/7741612_zpid/,33.6044,-112.137,6308,2017-04-09
832662,23884685,"4236 W Palo Verde Dr, Phoenix, AZ 85019 ",85019,0.5384185612201691,0.8761398494243622,0.47172995715472066,219900,https://www.zillow.com/homedetails/4236-W-Palo-Verde-Dr-Phoenix-AZ-85019/7718989_zpid/,33.5232,-112.15100000000001,6576,2018-01-02
9021200,23846457,"3819 N 63RD Ave, Phoenix, AZ 85033 ",85033,0.5732529163360596,0.8228450417518616,0.47169831987692135,164900,https://www.zillow.com/homedetails/3819-N-63rd-Ave-Phoenix-AZ-85033/7496525_zpid/,33.4925,-112.195,6543,2017-11-30
220490,23862951,"8815 N 6th St, Phoenix, AZ 85020 ",85020,0.6041454374790192,0.7804035842418671,0.47147726481199737,200000,https://www.zillow.com/homedetails/8815-N-6th-St-Phoenix-AZ-85020/7793860_zpid/,33.5647,-112.06700000000001,6551,2017-12-08
9025718,23861001,"2944 W Villa Theresa Dr, Phoenix, AZ 85053 ",85053,0.5458966791629791,0.8636719286441803,0.4714756377331435,210000,https://www.zillow.com/homedetails/2944-W-Villa-Theresa-Dr-Phoenix-AZ-85053/7940561_zpid/,33.6541,-112.12299999999999,6573,2017-12-30
258179,23864232,"417 W Renee Dr, Phoenix, AZ 85027 ",85027,0.5241808444261551,0.8991346657276154,0.4713091683339301,205000,https://www.zillow.com/homedetails/417-W-Renee-Dr-Phoenix-AZ-85027/7972590_zpid/,33.6551,-112.08,6583,2018-01-09
402127,23814880,"14638 N 62nd Ave, Glendale, AZ 85306 ",85306,0.5709986090660095,0.8250704109668732,0.4711140570436054,230000,https://www.zillow.com/homedetails/14638-N-62nd-Ave-Glendale-AZ-85306/8098778_zpid/,33.6177,-112.191,6512,2017-10-30
388700,23829780,"2353 W Cortez St, Phoenix, AZ 85029 ",85029,0.5833022892475128,0.8070564270019531,0.4707578614221575,173500,https://www.zillow.com/homedetails/2353-W-Cortez-St-Phoenix-AZ-85029/7749270_zpid/,33.5905,-112.11,6523,2017-11-10
424042,23883745,"9015 N 57th Ave, Glendale, AZ 85302 ",85302,0.5828441679477692,0.8074575066566467,0.47062189862047354,205000,https://www.zillow.com/homedetails/9015-N-57th-Ave-Glendale-AZ-85302/7734719_zpid/,33.5681,-112.182,6529,2017-11-16
1356244,23823740,"6825 N 60th Ave, Glendale, AZ 85301 ",85301,0.559255450963974,0.8410268723964691,0.47034886279490795,182000,https://www.zillow.com/homedetails/6825-N-60th-Ave-Glendale-AZ-85301/7707716_zpid/,33.5378,-112.189,6521,2017-11-08
336868,23820918,"2122 W Glendale Ave, Phoenix, AZ 85021 ",85021,0.5942335426807404,0.7901732921600342,0.4695474747319608,208400,https://www.zillow.com/homedetails/2122-W-Glendale-Ave-Phoenix-AZ-85021/7778952_zpid/,33.5389,-112.105,6516,2017-11-03
400713,23840251,"10843 N 45TH Ln, Glendale, AZ 85304 ",85304,0.5737231969833374,0.8182742893695831,0.4694629413063858,220000,https://www.zillow.com/homedetails/10843-N-45th-Ln-Glendale-AZ-85304/7727914_zpid/,33.5861,-112.156,6534,2017-11-21
422985,23883576,"8419 N 58th Dr, Glendale, AZ 85302 ",85302,0.5286388099193573,0.8869980871677399,0.46890161320110035,225000,https://www.zillow.com/homedetails/8419-N-58th-Dr-Glendale-AZ-85302/7733078_zpid/,33.559,-112.185,6583,2018-01-09
499623,23853309,"7113 W Holly St, Phoenix, AZ 85035 ",85035,0.5297770202159882,0.8846060633659363,0.4686439643150013,135000,https://www.zillow.com/homedetails/7113-W-Holly-St-Phoenix-AZ-85035/7475387_zpid/,33.4699,-112.213,6548,2017-12-05
8989019,22747254,"2049 N 77th Gln, Phoenix, AZ 85035 ",85035,0.5472281277179718,0.8558704555034637,0.46835638693428816,168250,https://www.zillow.com/homedetails/2049-N-77th-Gln-Phoenix-AZ-85035/95149994_zpid/,33.4706,-112.226,6487,2017-10-05
9026868,23897793,"1302 W Cortez Ct, Chandler, AZ 85224 ",85224,0.49435994029045105,0.9460456669330597,0.46768707941706733,249500,https://www.zillow.com/homedetails/1302-W-Cortez-Ct-Chandler-AZ-85224/8172446_zpid/,33.3554,-111.86399999999999,6624,2018-02-19
9029837,23905016,"8053 W Caron Dr, Peoria, AZ 85345 ",85345,0.5096413046121597,0.917282909154892,0.46748525852013634,169000,https://www.zillow.com/homedetails/8053-W-Caron-Dr-Peoria-AZ-85345/50187192_zpid/,33.5672,-112.23200000000001,6583,2018-01-09
410256,23810938,"4730 W Shaw Butte Dr, Glendale, AZ 85304 ",85304,0.5802657306194305,0.8049852252006531,0.4671053398389038,240000,https://www.zillow.com/homedetails/4730-W-Shaw-Butte-Dr-Glendale-AZ-85304/7727507_zpid/,33.5952,-112.161,6509,2017-10-27
9012841,23819608,"8121 W Hatcher Rd, Peoria, AZ 85345 ",85345,0.5418054163455963,0.8619473874568939,0.46700776312908143,239000,https://www.zillow.com/homedetails/8121-W-Hatcher-Rd-Peoria-AZ-85345/7682649_zpid/,33.57,-112.234,6515,2017-11-02
1112872,23885785,"1482 W Orchid Ln, Chandler, AZ 85224 ",85224,0.4903619885444641,0.9522537291049957,0.46694903220280715,249900,https://www.zillow.com/homedetails/1482-W-Orchid-Ln-Chandler-AZ-85224/8203452_zpid/,33.3237,-111.867,6614,2018-02-09
491289,23853212,"5551 W Wilshire Dr, Phoenix, AZ 85035 ",85035,0.5653733611106873,0.8254498243331909,0.4666873416114825,187900,https://www.zillow.com/homedetails/5551-W-Wilshire-Dr-Phoenix-AZ-85035/7491935_zpid/,33.4756,-112.18,6538,2017-11-25
392666,23759961,"4208 W El Camino Dr, Phoenix, AZ 85051 ",85051,0.5969902575016022,0.7814765572547913,0.4665338911470034,215000,https://www.zillow.com/homedetails/4208-W-El-Camino-Dr-Phoenix-AZ-85051/7752812_zpid/,33.5573,-112.15,6503,2017-10-21
261479,23789366,"4757 W Topeka Dr, Glendale, AZ 85308 ",85308,0.5563047230243683,0.8383851945400238,0.46639764343631906,225000,https://www.zillow.com/homedetails/4757-W-Topeka-Dr-Glendale-AZ-85308/7939742_zpid/,33.6603,-112.164,6302,2017-04-03
395130,23830853,"3719 W Joan De Arc Ave, Phoenix, AZ 85029 ",85029,0.5771794021129608,0.8079939186573029,0.46635744688153036,205900,https://www.zillow.com/homedetails/3719-W-Joan-De-Arc-Ave-Phoenix-AZ-85029/7741718_zpid/,33.607,-112.139,6526,2017-11-13
9020725,23815067,"9537 W Sunnyslope Ln, Peoria, AZ 85345 ",85345,0.5522042810916901,0.8426544666290283,0.4653174039535841,224000,https://www.zillow.com/homedetails/9537-W-Sunnyslope-Ln-Peoria-AZ-85345/7697879_zpid/,33.5693,-112.265,6512,2017-10-30
453411,23853062,"4450 N 50TH Ave, Phoenix, AZ 85031 ",85031,0.582072913646698,0.7993325889110565,0.46526984900021695,149800,https://www.zillow.com/homedetails/4450-N-50th-Ave-Phoenix-AZ-85031/7720779_zpid/,33.501999999999995,-112.167,6533,2017-11-20
234034,23855362,"18447 N 31ST Ave, Phoenix, AZ 85053 ",85053,0.535394012928009,0.8689492642879486,0.4652302336379659,209000,https://www.zillow.com/homedetails/18447-N-31st-Ave-Phoenix-AZ-85053/7940519_zpid/,33.6544,-112.126,6551,2017-12-08
393911,23884959,"7111 N 27th Ln, Phoenix, AZ 85051 ",85051,0.5518105328083038,0.8429518640041351,0.4651497172078747,225000,https://www.zillow.com/homedetails/7111-N-27th-Ln-Phoenix-AZ-85051/81986825_zpid/,33.5411,-112.118,6561,2017-12-18
17178,23846249,"14813 N 35TH St, Phoenix, AZ 85032 ",85032,0.5968338847160339,0.7792371213436127,0.46507511824644787,199900,https://www.zillow.com/homedetails/14813-N-35th-St-Phoenix-AZ-85032/8014278_zpid/,33.6214,-112.006,6543,2017-11-30
227559,23843808,"15221 N 28TH Dr, Phoenix, AZ 85053 ",85053,0.5629707276821136,0.8241101205348969,0.46394987424772527,209900,https://www.zillow.com/homedetails/15221-N-28th-Dr-Phoenix-AZ-85053/7942595_zpid/,33.6243,-112.119,6542,2017-11-29
501068,23853288,"7426 W Monte Vista Rd, Phoenix, AZ 85035 ",85035,0.5297770202159882,0.8753010332584381,0.4637143731916309,155000,https://www.zillow.com/homedetails/7426-W-Monte-Vista-Rd-Phoenix-AZ-85035/7474922_zpid/,33.471,-112.22,6528,2017-11-15
7449241,23819586,"11935 N 68th Ave, Peoria, AZ 85345 ",85345,0.5432272553443909,0.8532386422157288,0.46350248576462505,245000,https://www.zillow.com/homedetails/11935-N-68th-Ave-Peoria-AZ-85345/7700139_zpid/,33.594,-112.204,6516,2017-11-03
503053,23856891,"2823 W Marshall Ave, Phoenix, AZ 85017 ",85017,0.5535821914672852,0.8367517590522766,0.46321087249026505,175000,https://www.zillow.com/homedetails/2823-W-Marshall-Ave-Phoenix-AZ-85017/7763994_zpid/,33.5174,-112.12,6561,2017-12-18
409622,23825573,"4447 W Mercer Ln, Glendale, AZ 85304 ",85304,0.5737231969833374,0.8073567748069763,0.46319930994841485,227000,https://www.zillow.com/homedetails/4447-W-Mercer-Ln-Glendale-AZ-85304/7727953_zpid/,33.5852,-112.156,6526,2017-11-13
416186,23888950,"4431 W Mission Ln, Glendale, AZ 85302 ",85302,0.5181596577167511,0.8917984664440155,0.4620939881249546,182500,https://www.zillow.com/homedetails/4431-W-Mission-Ln-Glendale-AZ-85302/7729651_zpid/,33.5689,-112.156,6588,2018-01-14
246567,22745687,"3407 W Port Au Prince Ln, Phoenix, AZ 85053 ",85053,0.5761293172836304,0.8020602464675903,0.4620904222177131,175000,https://www.zillow.com/homedetails/3407-W-Port-Au-Prince-Ln-Phoenix-AZ-85053/7943671_zpid/,33.6229,-112.132,6491,2017-10-09
440994,23821180,"8228 W Fairmount Ave, Phoenix, AZ 85033 ",85033,0.5775615870952606,0.7998667061328888,0.4619722842587697,167000,https://www.zillow.com/homedetails/8228-W-Fairmount-Ave-Phoenix-AZ-85033/7478785_zpid/,33.4907,-112.23700000000001,6517,2017-11-04
556266,23783983,"2325 N 28th Pl, Phoenix, AZ 85008 ",85008,0.5691964030265808,0.8112085461616516,0.46173698657963413,144000,https://www.zillow.com/homedetails/2325-N-28th-Pl-Phoenix-AZ-85008/7542977_zpid/,33.4742,-112.02,6305,2017-04-06
831473,23884701,"4018 W Solano Dr N, Phoenix, AZ 85019 ",85019,0.5166250318288803,0.8937023282051086,0.4617089937545087,199900,https://www.zillow.com/homedetails/4018-W-Solano-Dr-N-Phoenix-AZ-85019/7718599_zpid/,33.5218,-112.145,6583,2018-01-09
1356715,23883331,"7327 N 47th Ave, Glendale, AZ 85301 ",85301,0.5761694610118866,0.8011222183704376,0.46158215676314196,189500,https://www.zillow.com/homedetails/7327-N-47th-Ave-Glendale-AZ-85301/7725576_zpid/,33.545,-112.16,6523,2017-11-10
468466,23862527,"3238 W Montecito Ave, Phoenix, AZ 85017 ",85017,0.5569556653499603,0.8286308348178864,0.46151063793548897,151000,https://www.zillow.com/homedetails/3238-W-Montecito-Ave-Phoenix-AZ-85017/7768109_zpid/,33.4995,-112.12899999999999,6577,2018-01-03
1933748,23915060,"7145 W Mulberry Dr, Phoenix, AZ 85033 ",85033,0.5026578307151794,0.9177968502044678,0.46133777376100227,185000,https://www.zillow.com/homedetails/7145-W-Mulberry-Dr-Phoenix-AZ-85033/7485834_zpid/,33.4866,-112.214,6628,2018-02-23
395883,23835126,"3830 W Sharon Ave, Phoenix, AZ 85029 ",85029,0.5788524448871613,0.7966628074645996,0.4611502138515533,179900,https://www.zillow.com/homedetails/3830-W-Sharon-Ave-Phoenix-AZ-85029/7741516_zpid/,33.6095,-112.14200000000001,6530,2017-11-17
415471,23882330,"10237 N 66th Ave, Glendale, AZ 85302 ",85302,0.5232512801885605,0.8805512189865112,0.46074955260628947,150000,https://www.zillow.com/homedetails/10237-N-66th-Ave-Glendale-AZ-85302/7706350_zpid/,33.5795,-112.2,6583,2018-01-09
1108948,23885722,"1169 W Nopal Pl, Chandler, AZ 85224 ",85224,0.49089767038822174,0.9374394118785858,0.46018682342130246,244900,https://www.zillow.com/homedetails/1169-W-Nopal-Pl-Chandler-AZ-85224/8175911_zpid/,33.341,-111.86200000000001,6602,2018-01-28
8975236,23887133,"3643 N 73rd Ave, Phoenix, AZ 85033 ",85033,0.5026578307151794,0.9152962863445282,0.46008084575560027,184000,https://www.zillow.com/homedetails/3643-N-73rd-Ave-Phoenix-AZ-85033/7468824_zpid/,33.4911,-112.21600000000001,6621,2018-02-16
450270,23853373,"8713 W Wilshire Dr, Phoenix, AZ 85037 ",85037,0.5242356657981873,0.8774480223655701,0.4599895482081173,200000,https://www.zillow.com/homedetails/8713-W-Wilshire-Dr-Phoenix-AZ-85037/7473941_zpid/,33.4756,-112.24700000000001,6526,2017-11-13
1346962,23823701,"4935 W Lamar Rd, Glendale, AZ 85301 ",85301,0.5761415362358093,0.7979079782962799,0.4597079283904275,149900,https://www.zillow.com/homedetails/4935-W-Lamar-Rd-Glendale-AZ-85301/7722382_zpid/,33.5365,-112.166,6520,2017-11-07
400185,22494552,"10610 N 46th Ave, Glendale, AZ 85304 ",85304,0.5636237561702728,0.8153368234634399,0.45954320298440265,234900,https://www.zillow.com/homedetails/10610-N-46th-Ave-Glendale-AZ-85304/7727627_zpid/,33.5824,-112.15700000000001,6428,2017-08-07
418443,23889532,"5127 W Mountain View Rd, Glendale, AZ 85302 ",85302,0.503458559513092,0.9122297763824463,0.4592698891624565,175000,https://www.zillow.com/homedetails/5127-W-Mountain-View-Rd-Glendale-AZ-85302/7734363_zpid/,33.5744,-112.17,6624,2018-02-19
258476,23717515,"614 W Rosemonte Dr, Phoenix, AZ 85027 ",85027,0.5646203756332397,0.813116192817688,0.4591019702221928,234900,https://www.zillow.com/homedetails/614-W-Rosemonte-Dr-Phoenix-AZ-85027/7968459_zpid/,33.657,-112.08200000000001,6494,2017-10-12
9030467,23907928,"1105 S 6th Ave, Phoenix, AZ 85003 ",85003,0.4594380557537079,0.9991496205329895,0.4590473590647317,50000,https://www.zillow.com/homedetails/1105-S-6th-Ave-Phoenix-AZ-85003/2091048360_zpid/,33.437,-112.08200000000001,6619,2018-02-14
9018704,22731861,"13229 N 99th Dr, Sun City, AZ 85351 ",85351,0.5638935267925262,0.8139573037624359,0.4589852546771356,152500,https://www.zillow.com/homedetails/13229-N-99th-Dr-Sun-City-AZ-85351/7914996_zpid/,33.6055,-112.27,6481,2017-09-29
637717,23877260,"1942 W Portobello Ave, Mesa, AZ 85202 ",85202,0.49732552468776703,0.9224075078964233,0.45873679784052435,232500,https://www.zillow.com/homedetails/1942-W-Portobello-Ave-Mesa-AZ-85202/8191364_zpid/,33.3598,-111.876,6617,2018-02-12
477931,23837214,"1802 N 66TH Ave, Phoenix, AZ 85035 ",85035,0.5534763932228088,0.8285596668720245,0.45858821599022015,150000,https://www.zillow.com/homedetails/1802-N-66th-Ave-Phoenix-AZ-85035/7490498_zpid/,33.4678,-112.20200000000001,6531,2017-11-18
212907,23880151,"5306 E Windsor Ave, Phoenix, AZ 85008 ",85008,0.5251321792602539,0.8731479346752167,0.45851807775258635,219900,https://www.zillow.com/homedetails/5306-E-Windsor-Ave-Phoenix-AZ-85008/7562724_zpid/,33.4785,-111.96700000000001,6620,2018-02-15
9029090,23901746,"2331 W Comstock Dr, Chandler, AZ 85224 ",85224,0.49057966470718384,0.9339616000652313,0.4581825686093861,245000,https://www.zillow.com/homedetails/2331-W-Comstock-Dr-Chandler-AZ-85224/8201985_zpid/,33.3471,-111.882,6625,2018-02-20
243119,22391945,"18226 N 10th Dr, Phoenix, AZ 85023 ",85023,0.5698117911815643,0.8039774596691132,0.45811583636366127,225000,https://www.zillow.com/homedetails/18226-N-10th-Dr-Phoenix-AZ-85023/7956715_zpid/,33.652,-112.086,6401,2017-07-11
330099,22738563,"3820 N 23rd Ave, Phoenix, AZ 85015 ",85015,0.5740744471549988,0.7970450818538666,0.4575632147228692,245000,https://www.zillow.com/homedetails/3820-N-23rd-Ave-Phoenix-AZ-85015/7516043_zpid/,33.4921,-112.10799999999999,6487,2017-10-05
379528,23846192,"11438 N 30TH Ave, Phoenix, AZ 85029 ",85029,0.5574391186237335,0.8202968835830688,0.45726557179434124,235000,https://www.zillow.com/homedetails/11438-N-30th-Ave-Phoenix-AZ-85029/7739912_zpid/,33.5907,-112.124,6544,2017-12-01
1122798,23892196,"256 S Dobson Rd, Chandler, AZ 85224 ",85224,0.497837096452713,0.9183891117572784,0.45720816881102966,199000,https://www.zillow.com/homedetails/256-S-Dobson-Rd-Chandler-AZ-85224/8207976_zpid/,33.2994,-111.87700000000001,6627,2018-02-22
467212,23884496,"3119 W Citrus Way, Phoenix, AZ 85017 ",85017,0.5209584087133408,0.8773616552352905,0.45706893177747965,220000,https://www.zillow.com/homedetails/3119-W-Citrus-Way-Phoenix-AZ-85017/7760912_zpid/,33.5296,-112.12700000000001,6583,2018-01-09
257719,23869968,"919 W Anderson Dr, Phoenix, AZ 85023 ",85023,0.5136064887046814,0.8889994323253632,0.4565958768970848,155000,https://www.zillow.com/homedetails/919-W-Anderson-Dr-Phoenix-AZ-85023/7963528_zpid/,33.6429,-112.086,6591,2018-01-17
329291,23884491,"2402 W Stella Ln, Phoenix, AZ 85015 ",85015,0.5231664180755615,0.8724664747714996,0.45644516049721773,174900,https://www.zillow.com/homedetails/2402-W-Stella-Ln-Phoenix-AZ-85015/7772787_zpid/,33.5308,-112.11,6589,2018-01-15
8981328,22485420,"1411 E Whitton Ave, Phoenix, AZ 85014 ",85014,0.6215253174304962,0.7343414723873138,0.4564118167279032,160000,https://www.zillow.com/homedetails/1411-E-Whitton-Ave-Phoenix-AZ-85014/7534776_zpid/,33.4887,-112.051,6421,2017-07-31
381684,22380395,"3111 W Laurie Ln, Phoenix, AZ 85051 ",85051,0.5560115575790405,0.8207855820655823,0.4563662699227038,229900,https://www.zillow.com/homedetails/3111-W-Laurie-Ln-Phoenix-AZ-85051/7754882_zpid/,33.5587,-112.126,6403,2017-07-13
9022111,23817234,"7629 N 44th Dr, Glendale, AZ 85301 ",85301,0.5761694610118866,0.7917208969593048,0.45616540247289006,195000,https://www.zillow.com/homedetails/7629-N-44th-Dr-Glendale-AZ-85301/7725279_zpid/,33.5492,-112.155,6514,2017-11-01
1350982,23882685,"5854 W Morten Ave, Glendale, AZ 85301 ",85301,0.5671874582767487,0.8037132620811462,0.4558560823031197,179000,https://www.zillow.com/homedetails/5854-W-Morten-Ave-Glendale-AZ-85301/7726731_zpid/,33.5479,-112.186,6544,2017-12-01
9023846,23854245,"3711 W Catalina Dr, Phoenix, AZ 85019 ",85019,0.5439367890357971,0.8378910720348358,0.4557597792843904,168900,https://www.zillow.com/homedetails/3711-W-Catalina-Dr-Phoenix-AZ-85019/7507461_zpid/,33.4821,-112.139,6556,2017-12-13
476829,23864061,"1614 N 53rd Dr, Phoenix, AZ 85035 ",85035,0.5164533704519272,0.8823884129524231,0.45571246991700587,159000,https://www.zillow.com/homedetails/1614-N-53rd-Dr-Phoenix-AZ-85035/7493815_zpid/,33.4668,-112.175,6582,2018-01-08
1851930,23885755,"1315 W Manor St, Chandler, AZ 85224 ",85224,0.47823213040828705,0.9525089859962463,0.45552040160602214,247500,https://www.zillow.com/homedetails/1315-W-Manor-St-Chandler-AZ-85224/8194266_zpid/,33.328,-111.86399999999999,6605,2018-01-31
1113596,23885766,"1567 W Kesler Ln, Chandler, AZ 85224 ",85224,0.479435995221138,0.9495117962360382,0.4552301330026354,245000,https://www.zillow.com/homedetails/1567-W-Kesler-Ln-Chandler-AZ-85224/8226104_zpid/,33.2918,-111.869,6596,2018-01-22
379293,23843863,"2626 W Northview Ave, Phoenix, AZ 85051 ",85051,0.5812466740608215,0.7831872403621674,0.455224978627383,134900,https://www.zillow.com/homedetails/2626-W-Northview-Ave-Phoenix-AZ-85051/7779482_zpid/,33.5439,-112.116,6542,2017-11-29
644742,23869677,"2222 W Peralta Ave, Mesa, AZ 85202 ",85202,0.49886202812194824,0.9125034213066101,0.4552133074212321,191000,https://www.zillow.com/homedetails/2222-W-Peralta-Ave-Mesa-AZ-85202/8171027_zpid/,33.3578,-111.882,6594,2018-01-20
413085,21986995,"5754 W Shangri La Rd, Glendale, AZ 85304 ",85304,0.5802657306194305,0.784275472164154,0.4550881798622317,227500,https://www.zillow.com/homedetails/5754-W-Shangri-La-Rd-Glendale-AZ-85304/7736186_zpid/,33.586999999999996,-112.18299999999999,6311,2017-04-12
1121899,23885878,"2404 W Chilton St, Chandler, AZ 85224 ",85224,0.5027247071266174,0.9051018953323364,0.4550170852506952,209000,https://www.zillow.com/homedetails/2404-W-Chilton-St-Chandler-AZ-85224/8196978_zpid/,33.3522,-111.884,6608,2018-02-03
7977745,23866230,"19033 N 45TH Dr, Glendale, AZ 85308 ",85308,0.5274907052516937,0.8625212013721466,0.45497191680633176,159000,https://www.zillow.com/homedetails/19033-N-45th-Dr-Glendale-AZ-85308/7939041_zpid/,33.6593,-112.15799999999999,6583,2018-01-09
9021585,23824122,"12612 N 79TH Ave, Peoria, AZ 85381 ",85381,0.5338460803031921,0.8518850803375244,0.45477551100695734,225000,https://www.zillow.com/homedetails/12612-N-79th-Ave-Peoria-AZ-85381/8101178_zpid/,33.5997,-112.229,6522,2017-11-09
9021586,23838024,"8142 W Sweetwater Ave, Peoria, AZ 85381 ",85381,0.5388453006744385,0.8426043689250946,0.4540334045230381,240000,https://www.zillow.com/homedetails/8142-W-Sweetwater-Ave-Peoria-AZ-85381/7913307_zpid/,33.6028,-112.235,6529,2017-11-16
381842,23829311,"12409 N 36th Dr, Phoenix, AZ 85029 ",85029,0.5625925660133362,0.8064529895782471,0.4537044567759523,174900,https://www.zillow.com/homedetails/12409-N-36th-Dr-Phoenix-AZ-85029/7743051_zpid/,33.5986,-112.13600000000001,6424,2017-08-03
9015636,23887124,"7118 W Sells Dr, Phoenix, AZ 85033 ",85033,0.4928293526172638,0.9205979704856873,0.45369770181522817,175000,https://www.zillow.com/homedetails/7118-W-Sells-Dr-Phoenix-AZ-85033/88889219_zpid/,33.5022,-112.213,6620,2018-02-15
337572,23850351,"2307 W Alice Ave, Phoenix, AZ 85021 ",85021,0.5560115575790405,0.8154995143413544,0.45342715517388754,211900,https://www.zillow.com/homedetails/2307-W-Alice-Ave-Phoenix-AZ-85021/7782260_zpid/,33.5637,-112.109,6551,2017-12-08
534315,23853548,"1914 W Granada Rd, Phoenix, AZ 85009 ",85009,0.569534957408905,0.7960855662822723,0.453398559086418,189000,https://www.zillow.com/homedetails/1914-W-Granada-Rd-Phoenix-AZ-85009/7519853_zpid/,33.4686,-112.101,6549,2017-12-06
423622,23892126,"8816 N 44TH Ln, Glendale, AZ 85302 ",85302,0.48867690563201904,0.9277677237987518,0.45337866041123576,209000,https://www.zillow.com/homedetails/8816-N-44TH-Ln-Glendale-AZ-85302/7731485_zpid/,33.565,-112.155,6627,2018-02-22
9026756,23893480,"1033 W Orchid Ln, Chandler, AZ 85224 ",85224,0.47745031118392944,0.9478816986083984,0.45256641196613145,249900,https://www.zillow.com/homedetails/1033-W-Orchid-Ln-Chandler-AZ-85224/8203649_zpid/,33.3236,-111.86,6619,2018-02-14
1937199,23887132,"7142 W Westview Dr, Phoenix, AZ 85033 ",85033,0.5026578307151794,0.9001956880092621,0.45249041175389415,174000,https://www.zillow.com/homedetails/7142-W-Westview-Dr-Phoenix-AZ-85033/7711546_zpid/,33.4979,-112.213,6621,2018-02-16
9020886,23871822,"4811 N 71st Ave, Phoenix, AZ 85033 ",85033,0.5027042925357819,0.8998568952083588,0.4523619238891632,169900,https://www.zillow.com/homedetails/4811-N-71st-Ave-Phoenix-AZ-85033/7716527_zpid/,33.5078,-112.211,6601,2018-01-27
8992552,23882752,"6029 W Mary Jane Ln, Glendale, AZ 85306 ",85306,0.5936784744262695,0.7615625858306885,0.4521233141360881,239000,https://www.zillow.com/homedetails/6029-W-Mary-Jane-Ln-Glendale-AZ-85306/8097193_zpid/,33.6273,-112.189,6493,2017-10-11
225987,23864034,"1415 W Renee Dr, Phoenix, AZ 85027 ",85027,0.523538812994957,0.8631550073623657,0.4518951479851463,239999,https://www.zillow.com/homedetails/1415-W-Renee-Dr-Phoenix-AZ-85027/7969101_zpid/,33.6549,-112.09,6582,2018-01-08
383781,22501929,"3339 W Malapai Dr, Phoenix, AZ 85051 ",85051,0.5688057541847229,0.7942792475223541,0.45179060642022684,244900,https://www.zillow.com/homedetails/3339-W-Malapai-Dr-Phoenix-AZ-85051/7739353_zpid/,33.5756,-112.131,6433,2017-08-12
330587,22131299,"4508 N 17th Ave, Phoenix, AZ 85015 ",85015,0.5833205580711365,0.7743314802646637,0.4516834712000328,185000,https://www.zillow.com/homedetails/4508-N-17th-Ave-Phoenix-AZ-85015/7772361_zpid/,33.5027,-112.096,6321,2017-04-22
9026261,23865254,"2153 W Joan De Arc Ave, Phoenix, AZ 85029 ",85029,0.5182466208934784,0.8712110817432404,0.4515021991983863,195000,https://www.zillow.com/homedetails/2153-W-Joan-De-Arc-Ave-Phoenix-AZ-85029/7749859_zpid/,33.6072,-112.10600000000001,6585,2018-01-11
1091759,23886133,"701 W Dublin St, Chandler, AZ 85225 ",85225,0.48551827669143677,0.929892510175705,0.4514798090487826,225000,https://www.zillow.com/homedetails/701-W-Dublin-St-Chandler-AZ-85225/8189377_zpid/,33.3186,-111.853,6588,2018-01-14
212762,23873366,"5130 E Windsor Ave, Phoenix, AZ 85008 ",85008,0.5031562447547913,0.8957399129867554,0.4506971308953993,240000,https://www.zillow.com/homedetails/5130-E-Windsor-Ave-Phoenix-AZ-85008/7561690_zpid/,33.4786,-111.97,6609,2018-02-04
9020422,23864586,"4227 N 11th Pl, Phoenix, AZ 85014 ",85014,0.5403197407722473,0.8332917094230652,0.4502439604231334,232900,https://www.zillow.com/homedetails/4227-N-11th-Pl-Phoenix-AZ-85014/7769603_zpid/,33.4974,-112.057,6584,2018-01-10
522482,23866699,"9013 W Virginia Ave, Phoenix, AZ 85037 ",85037,0.4920562654733658,0.9148764610290527,0.45017069478344496,174900,https://www.zillow.com/homedetails/9013-W-Virginia-Ave-Phoenix-AZ-85037/7473884_zpid/,33.4743,-112.25399999999999,6583,2018-01-09
1094758,23892220,"818 W Nopal Pl, Chandler, AZ 85225 ",85225,0.4821626991033554,0.9336200952529907,0.4501567850643138,249990,https://www.zillow.com/homedetails/818-W-Nopal-Pl-Chandler-AZ-85225/8177792_zpid/,33.3423,-111.85799999999999,6627,2018-02-22
332864,23892089,"5326 N 19TH Dr, Phoenix, AZ 85015 ",85015,0.5129165649414062,0.8772666156291962,0.44996457902630027,195000,https://www.zillow.com/homedetails/5326-N-19TH-Dr-Phoenix-AZ-85015/7765074_zpid/,33.5159,-112.102,6627,2018-02-22
9028736,23900205,"6736 W Kings Ave, Peoria, AZ 85382 ",85382,0.48596546053886414,0.9254690408706665,0.4497459886611743,200000,https://www.zillow.com/homedetails/6736-W-Kings-Ave-Peoria-AZ-85382/7902943_zpid/,33.6345,-112.205,6627,2018-02-22
8996766,23877743,"4641 N 71st Ave, Phoenix, AZ 85033 ",85033,0.5027042925357819,0.8942746818065643,0.44955572125023036,161899,https://www.zillow.com/homedetails/4641-N-71st-Ave-Phoenix-AZ-85033/7716870_zpid/,33.5051,-112.211,6612,2018-02-07
384323,23864506,"1344 W Joan De Arc Ave, Phoenix, AZ 85029 ",85029,0.526046633720398,0.8543681204319,0.44943747371122456,210000,https://www.zillow.com/homedetails/1344-W-Joan-De-Arc-Ave-Phoenix-AZ-85029/7784468_zpid/,33.6078,-112.089,6584,2018-01-10
9028443,23899268,"3147 N Bentrup Cir, Chandler, AZ 85224 ",85224,0.4871528148651123,0.9225352704524994,0.44941565381328274,249900,https://www.zillow.com/homedetails/3147-N-Bentrup-Cir-Chandler-AZ-85224/8171571_zpid/,33.3509,-111.891,6633,2018-02-28
470656,22708029,"3446 W Montebello Ave, Phoenix, AZ 85017 ",85017,0.5702532827854156,0.7880133986473083,0.44936722745752,169800,https://www.zillow.com/homedetails/3446-W-Montebello-Ave-Phoenix-AZ-85017/7762454_zpid/,33.5205,-112.134,6472,2017-09-20
9021086,23815044,"8137 W Aster Dr, Peoria, AZ 85381 ",85381,0.5388453006744385,0.8329463005065918,0.44882919974213564,239000,https://www.zillow.com/homedetails/8137-W-Aster-Dr-Peoria-AZ-85381/8100990_zpid/,33.6013,-112.235,6512,2017-10-30
458973,22036993,"5608 W Heatherbrae Dr, Phoenix, AZ 85031 ",85031,0.5896825790405273,0.7609873414039612,0.4487409780962821,165000,https://www.zillow.com/homedetails/5608-W-Heatherbrae-Dr-Phoenix-AZ-85031/7713127_zpid/,33.4974,-112.181,6348,2017-05-19
1097216,23886156,"901 W Cheyenne Dr, Chandler, AZ 85225 ",85225,0.47770895063877106,0.9387767910957336,0.4484620757583757,240000,https://www.zillow.com/homedetails/901-W-Cheyenne-Dr-Chandler-AZ-85225/8176783_zpid/,33.3463,-111.85600000000001,6618,2018-02-13
8959309,23803780,"4201 W Mission Ln, Phoenix, AZ 85051 ",85051,0.5936784744262695,0.7548161745071411,0.4481181149536724,219000,https://www.zillow.com/homedetails/4201-W-Mission-Ln-Phoenix-AZ-85051/7746195_zpid/,33.5703,-112.149,6501,2017-10-19
650458,23872026,"2419 W Naranja Ave, Mesa, AZ 85202 ",85202,0.48565585911273956,0.9226811528205872,0.4481055079602152,218000,https://www.zillow.com/homedetails/2419-W-Naranja-Ave-Mesa-AZ-85202/8251330_zpid/,33.3643,-111.88600000000001,6603,2018-01-29
9030447,23907817,"7253 W Wolf St, Phoenix, AZ 85033 ",85033,0.4928293526172638,0.9088355302810669,0.44790082602398584,186500,https://www.zillow.com/homedetails/7253-W-Wolf-St-Phoenix-AZ-85033/7710784_zpid/,33.5061,-112.215,6611,2018-02-06
418360,23882413,"5113 W Vogel Ave, Glendale, AZ 85302 ",85302,0.49403607845306396,0.9059927761554718,0.4475931182386539,189990,https://www.zillow.com/homedetails/5113-W-Vogel-Ave-Glendale-AZ-85302/7734511_zpid/,33.5721,-112.17200000000001,6607,2018-02-02
417983,23889534,"4933 W Golden Ln, Glendale, AZ 85302 ",85302,0.4898916333913803,0.9131788313388824,0.4473586692630369,200000,https://www.zillow.com/homedetails/4933-W-Golden-Ln-Glendale-AZ-85302/7730593_zpid/,33.5645,-112.166,6623,2018-02-18
469895,23526992,"3401 W Tuckey Ln, Phoenix, AZ 85017 ",85017,0.5702532827854156,0.78427454829216,0.44723513576865326,169000,https://www.zillow.com/homedetails/3401-W-Tuckey-Ln-Phoenix-AZ-85017/7760733_zpid/,33.5332,-112.132,6493,2017-10-11
329473,23888921,"2430 W Luke Ave, Phoenix, AZ 85015 ",85015,0.602392703294754,0.7419765293598175,0.4469612473023199,140000,https://www.zillow.com/homedetails/2430-W-Luke-Ave-Phoenix-AZ-85015/7763699_zpid/,33.5189,-112.11200000000001,6563,2017-12-20
9030778,23911308,"4941 W Townley Ave, Glendale, AZ 85302 ",85302,0.4898916333913803,0.9121709764003754,0.4468649295609901,200000,https://www.zillow.com/homedetails/4941-W-Townley-Ave-Glendale-AZ-85302/7730613_zpid/,33.5647,-112.167,6613,2018-02-08
419255,23890686,"5351 W Onyx Ave, Glendale, AZ 85302 ",85302,0.4917304962873459,0.9077345430850983,0.4463607573684025,235000,https://www.zillow.com/homedetails/5351-W-Onyx-Ave-Glendale-AZ-85302/7736018_zpid/,33.5768,-112.176,6626,2018-02-21
455626,23813601,"4732 N 54th Dr, Phoenix, AZ 85031 ",85031,0.580928385257721,0.7682937979698181,0.4463236754581281,169000,https://www.zillow.com/homedetails/4732-N-54th-Dr-Phoenix-AZ-85031/7713824_zpid/,33.5068,-112.177,6509,2017-10-27
9023486,23827318,"9908 W Crosby Cir N, Sun City, AZ 85351 ",85351,0.54668790102005,0.816284716129303,0.44625297809547604,140000,https://www.zillow.com/homedetails/9908-W-Crosby-Cir-N-Sun-City-AZ-85351/7694583_zpid/,33.5838,-112.273,6526,2017-11-13
1094985,23886129,"825 W Temple St, Chandler, AZ 85225 ",85225,0.47938214242458344,0.9307422935962677,0.44618123474934945,230000,https://www.zillow.com/homedetails/825-W-Temple-St-Chandler-AZ-85225/8183622_zpid/,33.3326,-111.85700000000001,6591,2018-01-17
1127341,23920612,"2909 W Curry St, Chandler, AZ 85224 ",85224,0.4799574315547943,0.9292968511581421,0.44602292983381986,238700,https://www.zillow.com/homedetails/2909-W-Curry-St-Chandler-AZ-85224/8197532_zpid/,33.3541,-111.89299999999999,6628,2018-02-23
9029809,23904890,"17460 N 92ND Ave, Peoria, AZ 85382 ",85382,0.4787861555814743,0.93153315782547,0.4460051794319275,226000,https://www.zillow.com/homedetails/17460-N-92ND-Ave-Peoria-AZ-85382/95103614_zpid/,33.6425,-112.258,6621,2018-02-16
9001872,23877725,"3034 N 71st Dr, Phoenix, AZ 85033 ",85033,0.4909536838531494,0.9075259566307068,0.445553211600199,219900,https://www.zillow.com/homedetails/3034-N-71st-Dr-Phoenix-AZ-85033/7468971_zpid/,33.4834,-112.213,6599,2018-01-25
8950822,21960213,"7406 W Eva St, Peoria, AZ 85345 ",85345,0.5298234820365906,0.8404069244861603,0.4452673230589195,185000,https://www.zillow.com/homedetails/7406-W-Eva-St-Peoria-AZ-85345/7702481_zpid/,33.5683,-112.21799999999999,6346,2017-05-17
446948,23914963,"4832 N 84TH Dr, Phoenix, AZ 85037 ",85037,0.4839709848165512,0.9199953079223633,0.44525103520179243,155000,https://www.zillow.com/homedetails/4832-N-84TH-Dr-Phoenix-AZ-85037/7481144_zpid/,33.508,-112.241,6633,2018-02-28
9023475,23827261,"12202 N Balboa Dr, Sun City, AZ 85351 ",85351,0.5436727702617645,0.8189143538475037,0.4452214353633952,159500,https://www.zillow.com/homedetails/12202-N-Balboa-Dr-Sun-City-AZ-85351/7916635_zpid/,33.5958,-112.274,6526,2017-11-13
244592,23872363,"1941 W Faria Ln, Phoenix, AZ 85023 ",85023,0.48527689278125763,0.9162802994251251,0.4446496566217051,194000,https://www.zillow.com/homedetails/1941-W-Faria-Ln-Phoenix-AZ-85023/81954546_zpid/,33.6312,-112.101,6605,2018-01-31
496469,22536294,"6526 W Holly St, Phoenix, AZ 85035 ",85035,0.5534763932228088,0.8033222258090973,0.44461988813653797,169499,https://www.zillow.com/homedetails/6526-W-Holly-St-Phoenix-AZ-85035/7490333_zpid/,33.471,-112.20100000000001,6408,2017-07-18
415150,23919739,"10021 N 53RD Ave, Glendale, AZ 85302 ",85302,0.4917304962873459,0.903760701417923,0.4444066982332351,238900,https://www.zillow.com/homedetails/10021-N-53RD-Ave-Glendale-AZ-85302/7735790_zpid/,33.5774,-112.17299999999999,6631,2018-02-26
623384,23877222,"1441 S Revere, Mesa, AZ 85210 ",85210,0.4859746992588043,0.9144268035888672,0.44438829086828946,175000,https://www.zillow.com/homedetails/1441-S-Revere-Mesa-AZ-85210/7599342_zpid/,33.3886,-111.84700000000001,6618,2018-02-13
222670,23871974,"1018 W Anderson Dr, Phoenix, AZ 85023 ",85023,0.4888179302215576,0.9088533818721771,0.44426382900162054,198000,https://www.zillow.com/homedetails/1018-W-Anderson-Dr-Phoenix-AZ-85023/7963545_zpid/,33.6432,-112.087,6603,2018-01-29
433137,23872612,"7225 W Catalina Dr, Phoenix, AZ 85033 ",85033,0.4898129850625992,0.9069893658161163,0.4442551686904257,180000,https://www.zillow.com/homedetails/7225-W-Catalina-Dr-Phoenix-AZ-85033/7468501_zpid/,33.4819,-112.215,6603,2018-01-29
342822,22678663,"1925 W Holly St, Phoenix, AZ 85009 ",85009,0.569534957408905,0.7796419858932495,0.444033365229906,160000,https://www.zillow.com/homedetails/1925-W-Holly-St-Phoenix-AZ-85009/7519786_zpid/,33.4699,-112.102,6467,2017-09-15
834633,23845436,"3526 W Ocotillo Rd, Phoenix, AZ 85019 ",85019,0.5699214935302734,0.7785615921020508,0.4437189853761083,220000,https://www.zillow.com/homedetails/3526-W-Ocotillo-Rd-Phoenix-AZ-85019/7761449_zpid/,33.535,-112.13600000000001,6537,2017-11-24
9030374,23907450,"4818 N 71st Ave, Phoenix, AZ 85033 ",85033,0.49209165573120117,0.9013897180557251,0.44356635881712236,195000,https://www.zillow.com/homedetails/4818-N-71st-Ave-Phoenix-AZ-85033/7716543_zpid/,33.508,-112.212,6615,2018-02-10
9013905,22694429,"2418 E Dahlia Dr, Phoenix, AZ 85032 ",85032,0.6104871928691864,0.7260039150714874,0.44321609212403157,225000,https://www.zillow.com/homedetails/2418-E-Dahlia-Dr-Phoenix-AZ-85032/7820474_zpid/,33.6034,-112.03,6470,2017-09-18
9030468,23907932,"7432 W Montecito Ave, Phoenix, AZ 85033 ",85033,0.49059872329235077,0.9033328294754028,0.44317393284869944,184900,https://www.zillow.com/homedetails/7432-W-Montecito-Ave-Phoenix-AZ-85033/7711234_zpid/,33.5001,-112.22,6616,2018-02-11
9021253,23756561,"2832 N 28th Dr, Phoenix, AZ 85008 ",85008,0.5966826379299164,0.7424357235431671,0.4429985060171431,139900,https://www.zillow.com/homedetails/2832-N-28th-Dr-Phoenix-AZ-85008/7513343_zpid/,33.4797,-112.021,6495,2017-10-13
22930,21627869,"5725 W Highland Ave, Phoenix, AZ 85031 ",85031,0.5896825790405273,0.7511114180088043,0.4429173181182193,175000,https://www.zillow.com/homedetails/5725-W-Highland-Ave-Phoenix-AZ-85031/7713313_zpid/,33.5057,-112.18299999999999,6328,2017-04-29
379541,23831369,"11439 N 33rd Ave, Phoenix, AZ 85029 ",85029,0.5676496028900146,0.7801048755645752,0.4428262228267954,214900,https://www.zillow.com/homedetails/11439-N-33rd-Ave-Phoenix-AZ-85029/7749169_zpid/,33.5913,-112.13,6523,2017-11-10
291865,23876911,"1656 E Indianola Ave, Phoenix, AZ 85016 ",85016,0.5295405089855194,0.835748940706253,0.4425629194456979,149000,https://www.zillow.com/homedetails/1656-E-Indianola-Ave-Phoenix-AZ-85016/72639419_zpid/,33.4926,-112.045,6590,2018-01-16
450692,23753402,"8742 W Edgemont Ave, Phoenix, AZ 85037 ",85037,0.5297770202159882,0.8353432714939117,0.44254566922951977,190000,https://www.zillow.com/homedetails/8742-W-Edgemont-Ave-Phoenix-AZ-85037/7473770_zpid/,33.4794,-112.249,6494,2017-10-12
337751,23867585,"14407 N 23RD St, Phoenix, AZ 85022 ",85022,0.49274495244026184,0.897611677646637,0.4422936234118158,219000,https://www.zillow.com/homedetails/14407-N-23rd-St-Phoenix-AZ-85022/8010507_zpid/,33.618,-112.03399999999999,6590,2018-01-16
9025999,23861141,"9232 W Meadow Hills Dr, Sun City, AZ 85351 ",85351,0.5411973893642426,0.816631942987442,0.4419590756162526,241800,https://www.zillow.com/homedetails/9232-W-Meadow-Hills-Dr-Sun-City-AZ-85351/2091823839_zpid/,33.6111,-112.259,6553,2017-12-10
827683,22544155,"3017 N 40th Dr, Phoenix, AZ 85019 ",85019,0.5472739040851593,0.8072836101055145,0.4418052530064065,140000,https://www.zillow.com/homedetails/3017-N-40th-Dr-Phoenix-AZ-85019/7509168_zpid/,33.483000000000004,-112.146,6437,2017-08-16
449872,23877880,"8625 W Mariposa Dr, Phoenix, AZ 85037 ",85037,0.4839709848165512,0.9125183820724487,0.44163242003480896,158000,https://www.zillow.com/homedetails/8625-W-Mariposa-Dr-Phoenix-AZ-85037/7483575_zpid/,33.5073,-112.245,6599,2018-01-25
2066173,23881213,"17427 N 16th Ln, Phoenix, AZ 85023 ",85023,0.495870977640152,0.8904266357421875,0.44153672638231,210000,https://www.zillow.com/homedetails/17427-N-16th-Ln-Phoenix-AZ-85023/7958487_zpid/,33.6447,-112.095,6618,2018-02-13
9020278,23871099,"642 E Piping Rock Rd, Phoenix, AZ 85022 ",85022,0.4940323978662491,0.8935804963111877,0.441457715279129,248000,https://www.zillow.com/homedetails/642-E-Piping-Rock-Rd-Phoenix-AZ-85022/7963227_zpid/,33.6144,-112.066,6600,2018-01-26
220949,23862962,"9206 N 14th St, Phoenix, AZ 85020 ",85020,0.5797874629497528,0.7611348628997803,0.44129645112327154,214700,https://www.zillow.com/homedetails/9206-N-14th-St-Phoenix-AZ-85020/7787080_zpid/,33.5698,-112.053,6550,2017-12-07
1094634,23886104,"814 W Palomino Dr, Chandler, AZ 85225 ",85225,0.4832504838705063,0.9131791889667511,0.44129428492865896,195000,https://www.zillow.com/homedetails/814-W-Palomino-Dr-Chandler-AZ-85225/8177734_zpid/,33.3408,-111.85700000000001,6616,2018-02-11
702251,23892614,"3043 S Los Altos, Mesa, AZ 85202 ",85202,0.48987598717212677,0.9007700979709625,0.4412656409586586,249500,https://www.zillow.com/homedetails/3043-S-Los-Altos-Mesa-AZ-85202/8171114_zpid/,33.3592,-111.88,6635,2018-03-02
332676,23888288,"12202 N 22ND Pl, Phoenix, AZ 85022 ",85022,0.4970889091491699,0.8874392211437225,0.441136194374522,235000,https://www.zillow.com/homedetails/12202-N-22ND-Pl-Phoenix-AZ-85022/7819953_zpid/,33.597,-112.03399999999999,6620,2018-02-15
426687,23866512,"4834 N 81st Dr, Phoenix, AZ 85033 ",85033,0.48771901428699493,0.9042112529277802,0.4410010209851456,174900,https://www.zillow.com/homedetails/4834-N-81st-Dr-Phoenix-AZ-85033/7482505_zpid/,33.5079,-112.235,6586,2018-01-12
9028740,23903920,"5309 N 22nd Dr, Phoenix, AZ 85015 ",85015,0.5234889984130859,0.8423722088336945,0.4409725838933696,179900,https://www.zillow.com/homedetails/5309-N-22nd-Dr-Phoenix-AZ-85015/7764988_zpid/,33.5153,-112.10700000000001,6625,2018-02-20
327561,23884356,"2038 W Orange Dr, Phoenix, AZ 85015 ",85015,0.5234889984130859,0.8418686389923096,0.44070897062147196,199900,https://www.zillow.com/homedetails/2038-W-Orange-Dr-Phoenix-AZ-85015/7765251_zpid/,33.5126,-112.104,6593,2018-01-19
1090009,23867209,"615 W Dublin St, Chandler, AZ 85225 ",85225,0.47562120854854584,0.9265541136264801,0.44068878730865313,247000,https://www.zillow.com/homedetails/615-W-Dublin-St-Chandler-AZ-85225/8189370_zpid/,33.3189,-111.851,6586,2018-01-12
1960784,23873070,"7424 W Minnezona Ave, Phoenix, AZ 85033 ",85033,0.4807009696960449,0.9162958860397339,0.44046432094779675,170000,https://www.zillow.com/homedetails/7424-W-Minnezona-Ave-Phoenix-AZ-85033/7710976_zpid/,33.5028,-112.219,6607,2018-02-02
524930,22304530,"9134 W Vernon Ave, Phoenix, AZ 85037 ",85037,0.5242356657981873,0.8400858640670776,0.4404029722768499,249000,https://www.zillow.com/homedetails/9134-W-Vernon-Ave-Phoenix-AZ-85037/67764424_zpid/,33.473,-112.257,6401,2017-07-11
9030011,23905769,"9138 W Kimberly Way, Peoria, AZ 85382 ",85382,0.47654521465301514,0.9233284890651703,0.4400077730168057,239900,https://www.zillow.com/homedetails/9138-W-Kimberly-Way-Peoria-AZ-85382/7896528_zpid/,33.6559,-112.257,6600,2018-01-26
502152,23869709,"3805 N 51ST Ave, Phoenix, AZ 85031 ",85031,0.4845547378063202,0.9078514277935028,0.4399037105615742,164000,https://www.zillow.com/homedetails/3805-N-51st-Ave-Phoenix-AZ-85031/7508895_zpid/,33.4919,-112.169,6594,2018-01-20
222384,23888203,"1010 W Anderson Dr, Phoenix, AZ 85023 ",85023,0.48772934079170227,0.901359498500824,0.43961947402014623,200000,https://www.zillow.com/homedetails/1010-W-Anderson-Dr-Phoenix-AZ-85023/7963547_zpid/,33.6432,-112.087,6621,2018-02-16
7546896,22096492,"6102 W Mulberry Dr, Phoenix, AZ 85033 ",85033,0.5805405676364899,0.7569344341754913,0.439431146079845,165000,https://www.zillow.com/homedetails/6102-W-Mulberry-Dr-Phoenix-AZ-85033/7498385_zpid/,33.4872,-112.19200000000001,6321,2017-04-22
9026512,23869184,"1339 W 1ST St, Mesa, AZ 85201 ",85201,0.5006060153245926,0.8776517510414124,0.4393577459314928,186000,https://www.zillow.com/homedetails/1339-W-1st-St-Mesa-AZ-85201/7611036_zpid/,33.4172,-111.86,6592,2018-01-18
397462,23865059,"4040 W Desert Cove Ave, Phoenix, AZ 85029 ",85029,0.49265070259571075,0.890940397977829,0.4389224130346796,224900,https://www.zillow.com/homedetails/4040-W-Desert-Cove-Ave-Phoenix-AZ-85029/7744743_zpid/,33.5857,-112.146,6585,2018-01-11
283679,23872189,"2237 E Paradise Dr, Phoenix, AZ 85028 ",85028,0.4970889091491699,0.8827736675739288,0.43881699943993624,247000,https://www.zillow.com/homedetails/2237-E-Paradise-Dr-Phoenix-AZ-85028/7816525_zpid/,33.5956,-112.03299999999999,6604,2018-01-30
625056,23886884,"1508 W Capri Ave, Mesa, AZ 85202 ",85202,0.48731786012649536,0.8999582231044769,0.4385657154865168,239900,https://www.zillow.com/homedetails/1508-W-Capri-Ave-Mesa-AZ-85202/7604820_zpid/,33.4058,-111.86399999999999,6621,2018-02-16
256906,23870517,"609 W Beverly Ln, Phoenix, AZ 85023 ",85023,0.47834306955337524,0.9167140424251556,0.438503808956332,219900,https://www.zillow.com/homedetails/609-W-Beverly-Ln-Phoenix-AZ-85023/7965493_zpid/,33.6333,-112.08200000000001,6598,2018-01-24
459441,22441396,"5651 W Sells Dr, Phoenix, AZ 85031 ",85031,0.5805405676364899,0.7551096379756927,0.43837177785819303,191000,https://www.zillow.com/homedetails/5651-W-Sells-Dr-Phoenix-AZ-85031/7712751_zpid/,33.4999,-112.182,6333,2017-05-04
561282,23877184,"1050 W Farmdale Ave, Mesa, AZ 85210 ",85210,0.4859746992588043,0.9019784033298492,0.43833868329616,195000,https://www.zillow.com/homedetails/1050-W-Farmdale-Ave-Mesa-AZ-85210/7598750_zpid/,33.3962,-111.854,6619,2018-02-14
9029592,23909195,"422 W Maryland Ave, Phoenix, AZ 85013 ",85013,0.5023013353347778,0.8723981976509094,0.43820677962370524,179900,https://www.zillow.com/homedetails/422-W-Maryland-Ave-Phoenix-AZ-85013/2091142478_zpid/,33.5312,-112.08,6614,2018-02-09
834955,22429468,"3614 W Sierra Vista Dr, Phoenix, AZ 85019",85019,0.5709531605243683,0.7673514187335968,0.43812171775880504,175000,"https://mcassessor.maricopa.gov/mcs.php?q=3614 W Sierra Vista Dr, Phoenix, AZ 85019",33.5322,-112.137,6327,2017-04-28
353909,23881508,"2219 E Aire Libre Ave, Phoenix, AZ 85022 ",85022,0.4779045134782791,0.9162249863147736,0.4378680563214048,239900,https://www.zillow.com/homedetails/2219-E-Aire-Libre-Ave-Phoenix-AZ-85022/8005158_zpid/,33.637,-112.03399999999999,6620,2018-02-15
390757,23874166,"4033 W Townley Ave, Phoenix, AZ 85051 ",85051,0.48716841638088226,0.8986717164516449,0.4378044769500371,209950,https://www.zillow.com/homedetails/4033-W-Townley-Ave-Phoenix-AZ-85051/7754496_zpid/,33.5658,-112.146,6613,2018-02-08
448361,23888250,"8402 W Coolidge St, Phoenix, AZ 85037 ",85037,0.4718451052904129,0.9277165830135345,0.4377385287916833,183500,https://www.zillow.com/homedetails/8402-W-Coolidge-St-Phoenix-AZ-85037/7481009_zpid/,33.5049,-112.24,6622,2018-02-17
341987,23888290,"16633 N 19th Pl, Phoenix, AZ 85022 ",85022,0.4779045134782791,0.9159511625766754,0.4377371947210702,244900,https://www.zillow.com/homedetails/16633-N-19th-Pl-Phoenix-AZ-85022/55267888_zpid/,33.6381,-112.04,6621,2018-02-16
424361,23920272,"9210 N 51ST Dr, Glendale, AZ 85302 ",85302,0.49403607845306396,0.8856977820396423,0.4375666589334415,195000,https://www.zillow.com/homedetails/9210-N-51ST-Dr-Glendale-AZ-85302/7734593_zpid/,33.57,-112.17,6635,2018-03-02
388525,23864545,"2330 W Columbine Dr, Phoenix, AZ 85029 ",85029,0.5010739862918854,0.8731938004493713,0.4375346983965276,199900,https://www.zillow.com/homedetails/2330-W-Columbine-Dr-Phoenix-AZ-85029/7738746_zpid/,33.5996,-112.109,6584,2018-01-10
9206,23840092,"1220 W Ironwood Dr, Phoenix, AZ 85021 ",85021,0.5797284841537476,0.7538478672504425,0.43702708136363455,169000,https://www.zillow.com/homedetails/1220-W-Ironwood-Dr-Phoenix-AZ-85021/7781692_zpid/,33.576,-112.089,6534,2017-11-21
389681,23882088,"2623 W Willow Ave, Phoenix, AZ 85029 ",85029,0.4783683568239212,0.9133336246013641,0.43690990523259066,169900,https://www.zillow.com/homedetails/2623-W-Willow-Ave-Phoenix-AZ-85029/7738547_zpid/,33.6076,-112.116,6612,2018-02-07
382754,23881954,"12808 N 30th Ave, Phoenix, AZ 85029 ",85029,0.49080756306648254,0.890130341053009,0.43688270350376435,189900,https://www.zillow.com/homedetails/12808-N-30th-Ave-Phoenix-AZ-85029/7741082_zpid/,33.6026,-112.12299999999999,6619,2018-02-14
9015572,23864377,"9416 W Madison St, Tolleson, AZ 85353 ",85353,0.4955875128507614,0.8811846673488617,0.4367041176536479,149000,https://www.zillow.com/homedetails/9416-W-Madison-St-Tolleson-AZ-85353/7460136_zpid/,33.4454,-112.264,6582,2018-01-08
417446,23882391,"4813 W Mountain View Rd, Glendale, AZ 85302 ",85302,0.4798952341079712,0.9098900854587555,0.4366519155737514,195000,https://www.zillow.com/homedetails/4813-W-Mountain-View-Rd-Glendale-AZ-85302/7730123_zpid/,33.5745,-112.162,6618,2018-02-13
9027960,23897448,"2739 E Schiliro Cir, Phoenix, AZ 85032 ",85032,0.478656604886055,0.9120985269546509,0.4365819842336851,230000,https://www.zillow.com/homedetails/2739-E-Schiliro-Cir-Phoenix-AZ-85032/88787626_zpid/,33.641999999999996,-112.024,6612,2018-02-07
8977566,23865226,"2018 W Bloomfield Rd, Phoenix, AZ 85029 ",85029,0.4986582100391388,0.8752887547016144,0.43646992368689386,206000,https://www.zillow.com/homedetails/2018-W-Bloomfield-Rd-Phoenix-AZ-85029/7739154_zpid/,33.5987,-112.102,6585,2018-01-11
451525,21618159,"4229 N 51st Ave, Phoenix, AZ 85031 ",85031,0.597527027130127,0.7303080558776855,0.4363788015177761,165000,https://www.zillow.com/homedetails/4229-N-51st-Ave-Phoenix-AZ-85031/7721281_zpid/,33.4982,-112.169,6355,2017-05-26
252070,23915737,"3728 W Carol Ann Way, Phoenix, AZ 85053 ",85053,0.47841013967990875,0.9116179049015045,0.43612724921863455,198900,https://www.zillow.com/homedetails/3728-W-Carol-Ann-Way-Phoenix-AZ-85053/7945963_zpid/,33.6283,-112.139,6627,2018-02-22
327950,23884388,"2118 W Montebello Ave, Phoenix, AZ 85015 ",85015,0.5139454901218414,0.8484092056751251,0.43603608503458435,239000,https://www.zillow.com/homedetails/2118-W-Montebello-Ave-Phoenix-AZ-85015/7763188_zpid/,33.5211,-112.105,6591,2018-01-17
9017497,23847149,"3044 E Roosevelt St, Phoenix, AZ 85008 ",85008,0.563941478729248,0.7730186581611633,0.43593728516870556,239900,https://www.zillow.com/homedetails/3044-E-Roosevelt-St-Phoenix-AZ-85008/2098123425_zpid/,33.4588,-112.015,6546,2017-12-03
384329,23890041,"13442 N 16TH Ave, Phoenix, AZ 85029 ",85029,0.4841461479663849,0.900345653295517,0.4358988798813028,225000,https://www.zillow.com/homedetails/13442-N-16TH-Ave-Phoenix-AZ-85029/7784159_zpid/,33.6098,-112.094,6625,2018-02-20
9025461,23852787,"2114 W Monroe St, Phoenix, AZ 85009 ",85009,0.5615083873271942,0.775927871465683,0.4356900077889181,229900,https://www.zillow.com/homedetails/2114-W-Monroe-St-Phoenix-AZ-85009/7514471_zpid/,33.4505,-112.105,6550,2017-12-07
9030358,23907409,"6126 W Monterey Way, Phoenix, AZ 85033 ",85033,0.48340821266174316,0.9010010063648224,0.43555128609325067,175000,https://www.zillow.com/homedetails/6126-W-Monterey-Way-Phoenix-AZ-85033/7498339_zpid/,33.4851,-112.19200000000001,6606,2018-02-01
329444,22745740,"2423 W San Miguel Ave, Phoenix, AZ 85015 ",85015,0.602392703294754,0.722903311252594,0.4354716798861791,178800,https://www.zillow.com/homedetails/2423-W-San-Miguel-Ave-Phoenix-AZ-85015/7763696_zpid/,33.5193,-112.11200000000001,6488,2017-10-06
9006368,23879941,"4701 N 79TH Dr, Phoenix, AZ 85033 ",85033,0.4718451052904129,0.9228875637054443,0.43545997966780803,187499,https://www.zillow.com/homedetails/4701-N-79TH-Dr-Phoenix-AZ-85033/82779611_zpid/,33.5056,-112.229,6614,2018-02-09
387107,23882069,"2121 W Shaw Butte Dr, Phoenix, AZ 85029 ",85029,0.4851711541414261,0.8969192206859589,0.4351593334718351,172500,https://www.zillow.com/homedetails/2121-W-Shaw-Butte-Dr-Phoenix-AZ-85029/7748956_zpid/,33.5958,-112.105,6602,2018-01-28
252997,23872566,"3801 W Tierra Buena Ln, Phoenix, AZ 85053 ",85053,0.4773271679878235,0.9113766252994537,0.435024823524488,249900,https://www.zillow.com/homedetails/3801-W-Tierra-Buena-Ln-Phoenix-AZ-85053/7945818_zpid/,33.6286,-112.14,6604,2018-01-30
408761,23882969,"6339 W Aire Libre Ave, Glendale, AZ 85306 ",85306,0.48290854692459106,0.9008226692676544,0.43501496625277447,219500,https://www.zillow.com/homedetails/6339-W-Aire-Libre-Ave-Glendale-AZ-85306/7901988_zpid/,33.6361,-112.197,6610,2018-02-05
334027,23820917,"6217 N 25th Ave, Phoenix, AZ 85015 ",85015,0.6162095963954926,0.7055222988128662,0.4347496109994964,186500,https://www.zillow.com/homedetails/6217-N-25th-Ave-Phoenix-AZ-85015/7772678_zpid/,33.5283,-112.11200000000001,6516,2017-11-03
228186,23886962,"15806 N 37TH Dr, Phoenix, AZ 85053 ",85053,0.4773271679878235,0.9106093645095825,0.4346585891045507,234999,https://www.zillow.com/homedetails/15806-N-37TH-Dr-Phoenix-AZ-85053/7945936_zpid/,33.6292,-112.139,6617,2018-02-12
9031613,23914878,"3312 N 61ST Ave, Phoenix, AZ 85033 ",85033,0.48340821266174316,0.899082750082016,0.43462398525215207,178000,https://www.zillow.com/homedetails/3312-N-61ST-Ave-Phoenix-AZ-85033/7498313_zpid/,33.4852,-112.191,6628,2018-02-23
696959,23846396,"2938 W Almeria Rd, Phoenix, AZ 85009 ",85009,0.5597772002220154,0.7763878107070923,0.4346041949641162,129900,https://www.zillow.com/homedetails/2938-W-Almeria-Rd-Phoenix-AZ-85009/7512219_zpid/,33.4672,-112.12299999999999,6543,2017-11-30
9008440,23873693,"2627 E Wallace Ave, Phoenix, AZ 85032 ",85032,0.47939614951610565,0.9063151776790619,0.4344840064273474,220000,https://www.zillow.com/homedetails/2627-E-Wallace-Ave-Phoenix-AZ-85032/95164807_zpid/,33.6398,-112.02600000000001,6606,2018-02-01
314137,23854820,"1718 W Cocopah St, Phoenix, AZ 85007 ",85007,0.5435065031051636,0.7992798388004303,0.4344137901888807,154900,https://www.zillow.com/homedetails/1718-W-Cocopah-St-Phoenix-AZ-85007/7501240_zpid/,33.4318,-112.096,6557,2017-12-14
9026589,23892776,"9818 W Pinecrest Dr, Sun City, AZ 85351 ",85351,0.47756047546863556,0.9091165959835052,0.4341581538343102,184900,https://www.zillow.com/homedetails/9818-W-Pinecrest-Dr-Sun-City-AZ-85351/7923143_zpid/,33.6328,-112.271,6596,2018-01-22
427579,23877851,"6040 W Earll Dr, Phoenix, AZ 85033 ",85033,0.48266829550266266,0.8992814123630524,0.4340546264825016,175000,https://www.zillow.com/homedetails/6040-W-Earll-Dr-Phoenix-AZ-85033/7497995_zpid/,33.484,-112.19,6616,2018-02-11
415051,23919687,"10007 N 48TH Dr, Glendale, AZ 85302 ",85302,0.47881123423576355,0.9064009785652161,0.43399497125931497,233000,https://www.zillow.com/homedetails/10007-N-48TH-Dr-Glendale-AZ-85302/7728794_zpid/,33.5766,-112.162,6630,2018-02-25
9029753,23907035,"2208 W Dahlia Dr, Phoenix, AZ 85029 ",85029,0.4801093637943268,0.9038360714912415,0.4339401612580236,239900,https://www.zillow.com/homedetails/2208-W-Dahlia-Dr-Phoenix-AZ-85029/2090952469_zpid/,33.6035,-112.10600000000001,6626,2018-02-21
9029588,23903860,"2206 W Dahlia Dr, Phoenix, AZ 85029 ",85029,0.4801093637943268,0.9038360714912415,0.4339401612580236,239900,https://www.zillow.com/homedetails/2206-W-Dahlia-Dr-Phoenix-AZ-85029/7738947_zpid/,33.6035,-112.10600000000001,6622,2018-02-17
962858,23920761,"4276 W Park Ave, Chandler, AZ 85226 ",85226,0.4700743108987808,0.9229802787303925,0.4338693184973539,215000,https://www.zillow.com/homedetails/4276-W-Park-Ave-Chandler-AZ-85226/8153857_zpid/,33.3215,-111.91799999999999,6635,2018-03-02
445506,23891936,"4646 N 84TH Ln, Phoenix, AZ 85037 ",85037,0.4718451052904129,0.9194889664649963,0.43385636819504914,198000,https://www.zillow.com/homedetails/4646-N-84TH-Ln-Phoenix-AZ-85037/7481172_zpid/,33.505,-112.242,6627,2018-02-22
383990,23887435,"13260 N 33rd Ave, Phoenix, AZ 85029 ",85029,0.4852570593357086,0.8935243487358093,0.433588997912393,208000,https://www.zillow.com/homedetails/13260-N-33rd-Ave-Phoenix-AZ-85029/7745082_zpid/,33.6071,-112.12899999999999,6621,2018-02-16
8972668,23857766,"3022 W Polk St, Phoenix, AZ 85009 ",85009,0.551551103591919,0.7859600782394409,0.4334971485321546,239000,https://www.zillow.com/homedetails/3022-W-Polk-St-Phoenix-AZ-85009/71629217_zpid/,33.4533,-112.125,6564,2017-12-21
1466624,23913753,"17462 N 92ND Gln, Peoria, AZ 85382 ",85382,0.47516055405139923,0.912269800901413,0.43347462404067505,224000,https://www.zillow.com/homedetails/17462-N-92ND-Gln-Peoria-AZ-85382/95142094_zpid/,33.6425,-112.259,6638,2018-03-05
457639,23877822,"5138 W Avalon Dr, Phoenix, AZ 85031 ",85031,0.4838172048330307,0.8956185877323151,0.43331568171315515,187500,https://www.zillow.com/homedetails/5138-W-Avalon-Dr-Phoenix-AZ-85031/7497418_zpid/,33.4836,-112.171,6619,2018-02-14
355451,23891815,"414 E Danbury Rd, Phoenix, AZ 85022 ",85022,0.47899477183818817,0.9043636620044708,0.43318546594057983,179900,https://www.zillow.com/homedetails/414-E-Danbury-Rd-Phoenix-AZ-85022/7959485_zpid/,33.6425,-112.068,6627,2018-02-22
353000,23889980,"2139 E Larkspur Dr, Phoenix, AZ 85022 ",85022,0.4981793016195297,0.86943718791008,0.43313561107509146,175000,https://www.zillow.com/homedetails/2139-E-Larkspur-Dr-Phoenix-AZ-85022/7815760_zpid/,33.6002,-112.035,6625,2018-02-20
830701,23830958,"3833 W Ocotillo Rd, Phoenix, AZ 85019 ",85019,0.5614809989929199,0.7713280022144318,0.4330860172345723,199900,https://www.zillow.com/homedetails/3833-W-Ocotillo-Rd-Phoenix-AZ-85019/7758511_zpid/,33.5346,-112.14200000000001,6525,2017-11-12
9023484,23885682,"9501 W Hidden Valley Cir N, Sun City, AZ 85351 ",85351,0.47756047546863556,0.9067152440547943,0.4330113630654675,186000,https://www.zillow.com/homedetails/9501-W-Hidden-Valley-Cir-N-Sun-City-AZ-85351/7904887_zpid/,33.6359,-112.264,6620,2018-02-15
8991893,23837557,"9352 W Jefferson St, Tolleson, AZ 85353 ",85353,0.5253207981586456,0.8241561055183411,0.4329463431582159,229900,https://www.zillow.com/homedetails/9352-W-Jefferson-St-Tolleson-AZ-85353/7460100_zpid/,33.4464,-112.26100000000001,6533,2017-11-20
