property_id,transaction_id,address,zipcode,any_sell,good_sell,bayesian,list,url,lat,long,date_listed,transaction_date
9024040,23847794,"2215 S 99th Ln, Tolleson, AZ 85353 ",85353,0.8293399810791016,0.9488140642642975,0.7868894381045379,224000,https://www.zillow.com/homedetails/2215-S-99th-Ln-Tolleson-AZ-85353/95076703_zpid/,33.4261,-112.273,6547,2017-12-04
342843,23840815,"1701 S 65th Dr, Phoenix, AZ 85043 ",85043,0.8375268578529358,0.931614488363266,0.7802521551691566,176000,https://www.zillow.com/homedetails/1701-S-65th-Dr-Phoenix-AZ-85043/52621334_zpid/,33.4331,-112.2,6537,2017-11-24
42777,23846103,"7112 W Watkins St, Phoenix, AZ 85043 ",85043,0.8304552733898163,0.9390413165092468,0.7798318132260196,205000,https://www.zillow.com/homedetails/7112-W-Watkins-St-Phoenix-AZ-85043/52424087_zpid/,33.4264,-112.213,6543,2017-11-30
359281,23846977,"2013 S 86th Ave, Tolleson, AZ 85353 ",85353,0.8223053514957428,0.9425609707832336,0.7750729303860755,215000,https://www.zillow.com/homedetails/2013-S-86th-Ave-Tolleson-AZ-85353/59271375_zpid/,33.4287,-112.244,6546,2017-12-03
9024556,23846751,"8422 W Sonora St, Tolleson, AZ 85353 ",85353,0.8274795711040497,0.9321180880069733,0.7713086756823371,183000,https://www.zillow.com/homedetails/8422-W-Sonora-St-Tolleson-AZ-85353/57688731_zpid/,33.4336,-112.243,6545,2017-12-02
646338,23847131,"2249 W Portobello Ave, Mesa, AZ 85202 ",85202,0.8457011580467224,0.9114642143249512,0.7708263415727572,215000,https://www.zillow.com/homedetails/2249-W-Portobello-Ave-Mesa-AZ-85202/8170991_zpid/,33.3591,-111.882,6546,2017-12-03
633870,23848061,"1763 W Natal Ave, Mesa, AZ 85202 ",85202,0.8423951864242554,0.9131587445735931,0.769240530870011,245000,https://www.zillow.com/homedetails/1763-W-Natal-Ave-Mesa-AZ-85202/8251610_zpid/,33.3665,-111.87200000000001,6544,2017-12-01
342960,23847789,"1722 S 64th Ave, Phoenix, AZ 85043 ",85043,0.8246899545192719,0.9325976967811584,0.7691039521432312,175000,https://www.zillow.com/homedetails/1722-S-64th-Ave-Phoenix-AZ-85043/55257220_zpid/,33.4323,-112.198,6548,2017-12-05
1373662,23843286,"8771 W Ocotillo Rd, Glendale, AZ 85305 ",85305,0.8330467939376831,0.9201244115829468,0.766506691092971,185000,https://www.zillow.com/homedetails/8771-W-Ocotillo-Rd-Glendale-AZ-85305/7461673_zpid/,33.5332,-112.25,6540,2017-11-27
9025872,23860172,"15168 N 90th Ln, Peoria, AZ 85381 ",85381,0.8364946246147156,0.9158450067043304,0.7660994250884006,218700,https://www.zillow.com/homedetails/15168-N-90th-Ln-Peoria-AZ-85381/7908827_zpid/,33.6229,-112.25399999999999,6546,2017-12-03
1412767,23846610,"7238 W Ocotillo Rd, Glendale, AZ 85303 ",85303,0.8316929042339325,0.9194725453853607,0.764718791634917,245000,https://www.zillow.com/homedetails/7238-W-Ocotillo-Rd-Glendale-AZ-85303/67800379_zpid/,33.5344,-112.215,6543,2017-11-30
8984109,23843223,"7426 W Carol Ave, Peoria, AZ 85345 ",85345,0.8423875272274017,0.9042538404464722,0.7617321566395852,195000,https://www.zillow.com/homedetails/7426-W-Carol-Ave-Peoria-AZ-85345/7702134_zpid/,33.5726,-112.219,6537,2017-11-24
256906,23848601,"609 W Beverly Ln, Phoenix, AZ 85023 ",85023,0.8316537439823151,0.914694756269455,0.7607093186524834,224900,https://www.zillow.com/homedetails/609-W-Beverly-Ln-Phoenix-AZ-85023/7965493_zpid/,33.6333,-112.08200000000001,6547,2017-12-04
629569,23853723,"1645 W Peralta Ave, Mesa, AZ 85202 ",85202,0.8168207108974457,0.931178629398346,0.760605990037666,222900,https://www.zillow.com/homedetails/1645-W-Peralta-Ave-Mesa-AZ-85202/8191627_zpid/,33.3572,-111.87,6553,2017-12-10
701826,23841957,"2733 W Jacinto Cir, Mesa, AZ 85202 ",85202,0.8549061417579651,0.8881129920482635,0.7592532514771033,200000,https://www.zillow.com/homedetails/2733-W-Jacinto-Cir-Mesa-AZ-85202/8250117_zpid/,33.3796,-111.891,6535,2017-11-22
650458,23850182,"2419 W Naranja Ave, Mesa, AZ 85202 ",85202,0.8296764492988586,0.9149750471115112,0.7591332482845345,235000,https://www.zillow.com/homedetails/2419-W-Naranja-Ave-Mesa-AZ-85202/8251330_zpid/,33.3643,-111.88600000000001,6551,2017-12-08
258487,23844522,"619 W Wescott Dr, Phoenix, AZ 85027 ",85027,0.8342038094997406,0.9097652733325958,0.7589296567646242,239900,https://www.zillow.com/homedetails/619-W-Wescott-Dr-Phoenix-AZ-85027/7968519_zpid/,33.6581,-112.08200000000001,6543,2017-11-30
359603,23858625,"2538 S 88th Ln, Tolleson, AZ 85353 ",85353,0.802596390247345,0.9434342086315155,0.7571968902835149,205000,https://www.zillow.com/homedetails/2538-S-88th-Ln-Tolleson-AZ-85353/67772866_zpid/,33.4242,-112.251,6566,2017-12-23
561112,23847992,"1043 W Frito Ave, Mesa, AZ 85210 ",85210,0.8393893241882324,0.9018330872058868,0.7569890656003366,195000,https://www.zillow.com/homedetails/1043-W-Frito-Ave-Mesa-AZ-85210/7598695_zpid/,33.3951,-111.854,6543,2017-11-30
406281,23859189,"5202 W Banff Ln, Glendale, AZ 85306 ",85306,0.8234971165657043,0.915997326374054,0.7543211570509278,208000,https://www.zillow.com/homedetails/5202-W-Banff-Ln-Glendale-AZ-85306/7911062_zpid/,33.6195,-112.171,6548,2017-12-05
1410517,23856547,"7108 N 73rd Dr, Glendale, AZ 85303 ",85303,0.8296317160129547,0.9089057743549347,0.7540570572721679,222000,https://www.zillow.com/homedetails/7108-N-73rd-Dr-Glendale-AZ-85303/82823489_zpid/,33.5387,-112.21700000000001,6532,2017-11-19
225855,23847348,"1461 E Renee Dr, Phoenix, AZ 85024 ",85024,0.8252027332782745,0.9124789535999298,0.7529801265695619,249000,https://www.zillow.com/homedetails/1461-E-Renee-Dr-Phoenix-AZ-85024/7996071_zpid/,33.6554,-112.05,6545,2017-12-02
227559,23843808,"15221 N 28th Dr, Phoenix, AZ 85053 ",85053,0.8486611843109131,0.8868324458599091,0.7526202737888141,209900,https://www.zillow.com/homedetails/15221-N-28th-Dr-Phoenix-AZ-85053/7942595_zpid/,33.6243,-112.119,6542,2017-11-29
223014,23858249,"107 W Piute Ave, Phoenix, AZ 85027 ",85027,0.8140901923179626,0.9233682155609131,0.7517050081862777,220000,https://www.zillow.com/homedetails/107-W-Piute-Ave-Phoenix-AZ-85027/7972231_zpid/,33.6628,-112.07600000000001,6563,2017-12-20
230822,23837058,"19206 N 4th St, Phoenix, AZ 85024 ",85024,0.8149151504039764,0.9220941066741943,0.7514284576270214,225000,https://www.zillow.com/homedetails/19206-N-4th-St-Phoenix-AZ-85024/7972304_zpid/,33.6605,-112.07,6529,2017-11-16
495569,23848756,"6318 W Granada Rd, Phoenix, AZ 85035 ",85035,0.8402363657951355,0.8939368724822998,0.751118268984797,144999,https://www.zillow.com/homedetails/6318-W-Granada-Rd-Phoenix-AZ-85035/7490661_zpid/,33.4691,-112.196,6546,2017-12-03
976591,23840164,"803 N Laveen Dr, Chandler, AZ 85226 ",85226,0.8268572390079498,0.9077186286449432,0.7505537190774403,240000,https://www.zillow.com/homedetails/803-N-Laveen-Dr-Chandler-AZ-85226/8264997_zpid/,33.3165,-111.91,6535,2017-11-22
445188,23853143,"4627 N 91st Dr, Phoenix, AZ 85037 ",85037,0.815967470407486,0.9198232889175415,0.7505458822799405,240000,https://www.zillow.com/homedetails/4627-N-91st-Dr-Phoenix-AZ-85037/7466477_zpid/,33.5051,-112.256,6551,2017-12-08
9026093,23861945,"12693 N 83rd Dr, Peoria, AZ 85381 ",85381,0.8223941326141357,0.9121868908405304,0.7501771468747833,174000,https://www.zillow.com/homedetails/12693-N-83rd-Dr-Peoria-AZ-85381/7914152_zpid/,33.6004,-112.238,6561,2017-12-18
255668,23837407,"412 W Sandra Ter, Phoenix, AZ 85023 ",85023,0.8219908177852631,0.9125658869743347,0.7501207797169673,229999,https://www.zillow.com/homedetails/412-W-Sandra-Ter-Phoenix-AZ-85023/7965434_zpid/,33.6344,-112.08,6533,2017-11-20
499623,23853309,"7113 W Holly St, Phoenix, AZ 85035 ",85035,0.8339236378669739,0.8988780379295349,0.7495956433889255,135000,https://www.zillow.com/homedetails/7113-W-Holly-St-Phoenix-AZ-85035/7475387_zpid/,33.4699,-112.213,6548,2017-12-05
447418,23856851,"8311 W Coolidge St, Phoenix, AZ 85037 ",85037,0.8085358142852783,0.9270136654376984,0.74952374883825,189900,https://www.zillow.com/homedetails/8311-W-Coolidge-St-Phoenix-AZ-85037/7480994_zpid/,33.5048,-112.238,6560,2017-12-17
234034,23855362,"18447 N 31st Ave, Phoenix, AZ 85053 ",85053,0.8286677598953247,0.9044399559497833,0.7494802322567331,209000,https://www.zillow.com/homedetails/18447-N-31st-Ave-Phoenix-AZ-85053/7940519_zpid/,33.6544,-112.126,6551,2017-12-08
9021767,23840851,"1139 W Auburn St, Mesa, AZ 85201 ",85201,0.8265797793865204,0.9064771831035614,0.7492757100286562,215000,https://www.zillow.com/homedetails/1139-W-Auburn-St-Mesa-AZ-85201/81997574_zpid/,33.4176,-111.85600000000001,6536,2017-11-23
244451,23841407,"1933 W Davis Rd, Phoenix, AZ 85023 ",85023,0.8354144990444183,0.8964691162109375,0.7489232976281528,200000,https://www.zillow.com/homedetails/1933-W-Davis-Rd-Phoenix-AZ-85023/81995109_zpid/,33.6318,-112.101,6537,2017-11-24
9022517,23843319,"9918 W Oakstone Dr, Sun City, AZ 85351 ",85351,0.8350583910942078,0.8956583440303802,0.7479270157361118,205000,https://www.zillow.com/homedetails/9918-W-Oakstone-Dr-Sun-City-AZ-85351/7907984_zpid/,33.6152,-112.26899999999999,6541,2017-11-28
1091154,23858452,"668 W Shawnee Dr, Chandler, AZ 85225 ",85225,0.831776350736618,0.899126797914505,0.7478724068188276,239900,https://www.zillow.com/homedetails/668-W-Shawnee-Dr-Chandler-AZ-85225/8200509_zpid/,33.3448,-111.852,6535,2017-11-22
9025900,23860183,"7635 W Desert Cove Ave, Peoria, AZ 85345 ",85345,0.826877772808075,0.9033704698085785,0.7469769620959017,178000,https://www.zillow.com/homedetails/7635-W-Desert-Cove-Ave-Peoria-AZ-85345/7681678_zpid/,33.5849,-112.22399999999999,6537,2017-11-24
9022548,23847697,"6803 W Cherry Hills Dr, Peoria, AZ 85345 ",85345,0.8065151572227478,0.9256070852279663,0.7465161438691226,220000,https://www.zillow.com/homedetails/6803-W-Cherry-Hills-Dr-Peoria-AZ-85345/7700208_zpid/,33.5936,-112.205,6547,2017-12-04
231737,23863479,"19413 N 6th Pl, Phoenix, AZ 85024 ",85024,0.8173734545707703,0.9133000671863556,0.746507230975828,215000,https://www.zillow.com/homedetails/19413-N-6th-Pl-Phoenix-AZ-85024/7967956_zpid/,33.6626,-112.066,6564,2017-12-21
237433,23843870,"2957 W Michelle Dr, Phoenix, AZ 85053 ",85053,0.835149347782135,0.8938562572002411,0.7465034702117617,225000,https://www.zillow.com/homedetails/2957-W-Michelle-Dr-Phoenix-AZ-85053/7940747_zpid/,33.6492,-112.124,6542,2017-11-29
445578,23843131,"4653 N 99th Dr, Phoenix, AZ 85037 ",85037,0.8322732150554657,0.8967540264129639,0.7463443566766514,200000,https://www.zillow.com/homedetails/4653-N-99th-Dr-Phoenix-AZ-85037/7484444_zpid/,33.5037,-112.273,6534,2017-11-21
434601,23841755,"1838 N 83rd Ln, Phoenix, AZ 85037 ",85037,0.8116103410720825,0.9190475642681122,0.7459085070971092,195000,https://www.zillow.com/homedetails/1838-N-83rd-Ln-Phoenix-AZ-85037/7487940_zpid/,33.4683,-112.24,6536,2017-11-23
403477,23842141,"12447 N 50th Ln, Glendale, AZ 85304 ",85304,0.8187309503555298,0.9087077677249908,0.7439871742649338,209900,https://www.zillow.com/homedetails/12447-N-50th-Ln-Glendale-AZ-85304/7954648_zpid/,33.5997,-112.16799999999999,6540,2017-11-27
1075269,23849641,"1803 N Cheri Lynn Dr, Chandler, AZ 85225 ",85225,0.812479168176651,0.9152806103229523,0.7436464289234097,229900,https://www.zillow.com/homedetails/1803-N-Cheri-Lynn-Dr-Chandler-AZ-85225/8183501_zpid/,33.3321,-111.853,6550,2017-12-07
832330,23845531,"4148 W Maryland Ave, Phoenix, AZ 85019 ",85019,0.8176444172859192,0.9090181589126587,0.7432536228464599,178500,https://www.zillow.com/homedetails/4148-W-Maryland-Ave-Phoenix-AZ-85019/7762142_zpid/,33.5312,-112.149,6541,2017-11-28
405768,23846514,"4845 W Evans Dr, Glendale, AZ 85306 ",85306,0.8326281607151031,0.8926203548908234,0.7432208443096089,192900,https://www.zillow.com/homedetails/4845-W-Evans-Dr-Glendale-AZ-85306/7952529_zpid/,33.6169,-112.164,6544,2017-12-01
1372616,23837733,"8549 W Tuckey Ln, Glendale, AZ 85305 ",85305,0.8208841383457184,0.9052299559116364,0.7430889123632562,206000,https://www.zillow.com/homedetails/8549-W-Tuckey-Ln-Glendale-AZ-85305/7461499_zpid/,33.533,-112.245,6532,2017-11-19
1410407,23835273,"7080 W Glenn Dr, Glendale, AZ 85303 ",85303,0.8204707503318787,0.9050271213054657,0.7425482812881956,234900,https://www.zillow.com/homedetails/7080-W-Glenn-Dr-Glendale-AZ-85303/55173602_zpid/,33.5399,-112.211,6528,2017-11-15
8996051,23841761,"3410 N 67TH Dr, Phoenix, AZ 85033 ",85033,0.8388477265834808,0.8851169943809509,0.7424783784968643,220000,https://www.zillow.com/homedetails/3410-N-67th-Dr-Phoenix-AZ-85033/7485764_zpid/,33.4878,-112.204,6537,2017-11-24
9026144,23863524,"19230 N 20th Dr, Phoenix, AZ 85027 ",85027,0.8106439709663391,0.9156650900840759,0.7422783847010059,239900,https://www.zillow.com/homedetails/19230-N-20th-Dr-Phoenix-AZ-85027/7970085_zpid/,33.6605,-112.104,6557,2017-12-14
359220,23854837,"1816 S 84th Dr, Tolleson, AZ 85353 ",85353,0.8013446033000946,0.9261214733123779,0.7421424446392066,225000,https://www.zillow.com/homedetails/1816-S-84th-Dr-Tolleson-AZ-85353/59249294_zpid/,33.4304,-112.241,6557,2017-12-14
639679,23857945,"606 W Laguna Azul Ave, Mesa, AZ 85210 ",85210,0.8225525915622711,0.9018281400203705,0.7418010737175385,234900,https://www.zillow.com/homedetails/606-W-Laguna-Azul-Ave-Mesa-AZ-85210/8170728_zpid/,33.3729,-111.84700000000001,6553,2017-12-10
9020875,23856264,"319 W Utopia Rd, Phoenix, AZ 85027 ",85027,0.8152439892292023,0.9098882973194122,0.7417809652596441,229900,https://www.zillow.com/homedetails/319-W-Utopia-Rd-Phoenix-AZ-85027/7968688_zpid/,33.6617,-112.079,6558,2017-12-15
252078,23857711,"2380 W Betty Elyse Ln, Phoenix, AZ 85023 ",85023,0.8151996731758118,0.9099129736423492,0.7417607587316741,246900,https://www.zillow.com/homedetails/2380-W-Betty-Elyse-Ln-Phoenix-AZ-85023/7960898_zpid/,33.6276,-112.111,6560,2017-12-17
230590,23848573,"1832 W Wescott Dr, Phoenix, AZ 85027 ",85027,0.8060758411884308,0.9200956225395203,0.7416668529123367,229000,https://www.zillow.com/homedetails/1832-W-Wescott-Dr-Phoenix-AZ-85027/7969386_zpid/,33.6586,-112.09899999999999,6549,2017-12-06
392047,23856667,"3214 W Voltaire Ave, Phoenix, AZ 85029 ",85029,0.813742458820343,0.9113810956478119,0.7416294936948287,229000,https://www.zillow.com/homedetails/3214-W-Voltaire-Ave-Phoenix-AZ-85029/7747954_zpid/,33.6091,-112.12799999999999,6560,2017-12-17
9026097,23861966,"8850 W Greenbrian Dr, Peoria, AZ 85382 ",85382,0.8108201622962952,0.9142923355102539,0.7413266598646828,185000,https://www.zillow.com/homedetails/8850-W-Greenbrian-Dr-Peoria-AZ-85382/7898281_zpid/,33.6434,-112.25,6548,2017-12-05
834399,23856892,"3514 W Mariposa St, Phoenix, AZ 85019 ",85019,0.8119641840457916,0.9127213358879089,0.7410970347554109,195000,https://www.zillow.com/homedetails/3514-W-Mariposa-St-Phoenix-AZ-85019/7506769_zpid/,33.5079,-112.135,6560,2017-12-17
448988,23831998,"8504 W College Dr, Phoenix, AZ 85037 ",85037,0.8066421151161194,0.9175580739974976,0.7401409855512142,184900,https://www.zillow.com/homedetails/8504-W-College-Dr-Phoenix-AZ-85037/7483600_zpid/,33.5084,-112.243,6526,2017-11-13
255987,23850390,"506 W Beverly Ln, Phoenix, AZ 85023 ",85023,0.8106153011322021,0.9124979674816132,0.7396848146926303,229900,https://www.zillow.com/homedetails/506-W-Beverly-Ln-Phoenix-AZ-85023/7965481_zpid/,33.6337,-112.081,6552,2017-12-09
352271,23842122,"6938 W Villa St, Phoenix, AZ 85043 ",85043,0.8117282092571259,0.9111593663692474,0.7396137608107667,165000,https://www.zillow.com/homedetails/6938-W-Villa-St-Phoenix-AZ-85043/7476296_zpid/,33.455999999999996,-112.209,6540,2017-11-27
222394,23848564,"1010 W Campo Bello Dr, Phoenix, AZ 85023 ",85023,0.8135105073451996,0.9080940783023834,0.7387440743569433,199900,https://www.zillow.com/homedetails/1010-W-Campo-Bello-Dr-Phoenix-AZ-85023/7963596_zpid/,33.644,-112.087,6549,2017-12-06
9024730,23848481,"3432 E Taylor St, Phoenix, AZ 85008 ",85008,0.8481847941875458,0.8708792626857758,0.7386665481833363,244900,https://www.zillow.com/homedetails/3432-E-Taylor-St-Phoenix-AZ-85008/7544478_zpid/,33.454,-112.007,6544,2017-12-01
248492,23858268,"2204 W Le Marche Ave, Phoenix, AZ 85023 ",85023,0.8165082037448883,0.9043082594871521,0.7383751125855209,229000,https://www.zillow.com/homedetails/2204-W-Le-Marche-Ave-Phoenix-AZ-85023/89457012_zpid/,33.632,-112.10600000000001,6558,2017-12-15
222670,23863455,"1018 W Anderson Dr, Phoenix, AZ 85023 ",85023,0.8073861002922058,0.9144984781742096,0.738353360016232,181000,https://www.zillow.com/homedetails/1018-W-Anderson-Dr-Phoenix-AZ-85023/7963545_zpid/,33.6432,-112.087,6561,2017-12-18
1350982,23846551,"5854 W Morten Ave, Glendale, AZ 85301 ",85301,0.8397400677204132,0.8788264095783234,0.7379857486937889,179000,https://www.zillow.com/homedetails/5854-W-Morten-Ave-Glendale-AZ-85301/7726731_zpid/,33.5479,-112.186,6544,2017-12-01
244488,23837399,"1935 W Davis Rd, Phoenix, AZ 85023 ",85023,0.8267976939678192,0.892016738653183,0.7375173824991466,199500,https://www.zillow.com/homedetails/1935-W-Davis-Rd-Phoenix-AZ-85023/81978440_zpid/,33.632,-112.101,6533,2017-11-20
1878732,23856317,"8133 W Larkspur Dr, Peoria, AZ 85381 ",85381,0.816718727350235,0.9018301069736481,0.7365415372536441,237500,https://www.zillow.com/homedetails/8133-W-Larkspur-Dr-Peoria-AZ-85381/8100861_zpid/,33.5992,-112.235,6558,2017-12-15
493050,23849853,"5901 W Cypress St, Phoenix, AZ 85035 ",85035,0.817461371421814,0.90090411901474,0.7364543166493505,184500,https://www.zillow.com/homedetails/5901-W-Cypress-St-Phoenix-AZ-85035/7491471_zpid/,33.4723,-112.18700000000001,6550,2017-12-07
8977160,23825434,"16231 N 91st Dr, Peoria, AZ 85382 ",85382,0.805897980928421,0.9138122797012329,0.7364394711588211,233000,https://www.zillow.com/homedetails/16231-N-91st-Dr-Peoria-AZ-85382/2123153916_zpid/,33.6316,-112.25200000000001,6526,2017-11-13
470397,23842202,"3425 W Citrus Way, Phoenix, AZ 85017 ",85017,0.8170858919620514,0.9012696146965027,0.7364146870225863,147000,https://www.zillow.com/homedetails/3425-W-Citrus-Way-Phoenix-AZ-85017/7758679_zpid/,33.5297,-112.133,6540,2017-11-27
231524,23856223,"17459 N 28th Ave, Phoenix, AZ 85053 ",85053,0.8140894174575806,0.9038447737693787,0.7358104653499922,206995,https://www.zillow.com/homedetails/17459-N-28th-Ave-Phoenix-AZ-85053/7942436_zpid/,33.6449,-112.119,6558,2017-12-15
243942,23854107,"18463 N 5th Ave, Phoenix, AZ 85023 ",85023,0.8126251697540283,0.904959499835968,0.7353928671747241,249000,https://www.zillow.com/homedetails/18463-N-5th-Ave-Phoenix-AZ-85023/7956457_zpid/,33.6543,-112.08,6552,2017-12-09
8946582,23846686,"9637 W Tonto Ln, Peoria, AZ 85382 ",85382,0.8365908861160278,0.8784595429897308,0.7349112474868598,229900,https://www.zillow.com/homedetails/9637-W-Tonto-Ln-Peoria-AZ-85382/7895900_zpid/,33.6617,-112.26799999999999,6543,2017-11-30
250907,23854160,"232 W Michigan Ave, Phoenix, AZ 85023 ",85023,0.8051987290382385,0.9126240909099579,0.7348437580903759,240000,https://www.zillow.com/homedetails/232-W-Michigan-Ave-Phoenix-AZ-85023/7956192_zpid/,33.6511,-112.07799999999999,6551,2017-12-08
390175,23845317,"2929 W Sunnyside Dr, Phoenix, AZ 85029 ",85029,0.823714405298233,0.8920059502124786,0.7347581508017571,179000,https://www.zillow.com/homedetails/2929-W-Sunnyside-Dr-Phoenix-AZ-85029/7741010_zpid/,33.593,-112.12299999999999,6541,2017-11-28
237449,23848566,"1633 W Michigan Ave, Phoenix, AZ 85023 ",85023,0.8075199723243713,0.9097094535827637,0.7346085527803723,202900,https://www.zillow.com/homedetails/1633-W-Michigan-Ave-Phoenix-AZ-85023/7957245_zpid/,33.6508,-112.095,6548,2017-12-05
396990,23849167,"4008 W Windrose Dr, Phoenix, AZ 85029 ",85029,0.8128453195095062,0.9036048948764801,0.7344910094862263,194500,https://www.zillow.com/homedetails/4008-W-Windrose-Dr-Phoenix-AZ-85029/7742420_zpid/,33.6012,-112.146,6547,2017-12-04
8980323,23845343,"3044 W Christy Dr, Phoenix, AZ 85029 ",85029,0.8314658403396606,0.88280189037323,0.7340196156326186,223000,https://www.zillow.com/homedetails/3044-W-Christy-Dr-Phoenix-AZ-85029/7739771_zpid/,33.5847,-112.125,6538,2017-11-25
415049,23846150,"10006 N 66th Ave, Glendale, AZ 85302 ",85302,0.8001374304294586,0.9163355529308319,0.733194374733233,199000,https://www.zillow.com/homedetails/10006-N-66th-Ave-Glendale-AZ-85302/7706542_zpid/,33.5765,-112.20100000000001,6544,2017-12-01
481915,23852927,"2518 N 67th Dr, Phoenix, AZ 85035 ",85035,0.8166619539260864,0.8974515497684479,0.732914536187895,145000,https://www.zillow.com/homedetails/2518-N-67th-Dr-Phoenix-AZ-85035/7475839_zpid/,33.4762,-112.204,6551,2017-12-08
9019224,23831968,"8005 W Shaw Butte Dr, Peoria, AZ 85345 ",85345,0.8096240758895874,0.9049296379089355,0.7326528218371209,225500,https://www.zillow.com/homedetails/8005-W-Shaw-Butte-Dr-Peoria-AZ-85345/7680677_zpid/,33.5951,-112.23100000000001,6527,2017-11-14
1421352,23835289,"8016 W Sierra Vista Dr, Glendale, AZ 85303 ",85303,0.8096617758274078,0.9042183756828308,0.732111055791135,235000,https://www.zillow.com/homedetails/8016-W-Sierra-Vista-Dr-Glendale-AZ-85303/7462651_zpid/,33.5314,-112.23299999999999,6528,2017-11-15
413890,23856832,"6209 W Bloomfield Rd, Glendale, AZ 85304 ",85304,0.80378258228302,0.9106936156749725,0.7319996660758896,225000,https://www.zillow.com/homedetails/6209-W-Bloomfield-Rd-Glendale-AZ-85304/7912238_zpid/,33.5984,-112.19200000000001,6561,2017-12-18
9021795,23854390,"747 W Rosal Pl, Chandler, AZ 85225 ",85225,0.8062915802001953,0.90767702460289,0.7318523424784757,244800,https://www.zillow.com/homedetails/747-W-Rosal-Pl-Chandler-AZ-85225/8177685_zpid/,33.3412,-111.855,6551,2017-12-08
379528,23846192,"11438 N 30th Ave, Phoenix, AZ 85029 ",85029,0.8228714168071747,0.8889623582363129,0.7315017152101619,235000,https://www.zillow.com/homedetails/11438-N-30th-Ave-Phoenix-AZ-85029/7739912_zpid/,33.5907,-112.124,6544,2017-12-01
1885354,23858964,"4921 W Tonto Rd, Glendale, AZ 85308 ",85308,0.8114345073699951,0.9014058411121368,0.7314318046232628,234500,https://www.zillow.com/homedetails/4921-W-Tonto-Rd-Glendale-AZ-85308/7938037_zpid/,33.665,-112.166,6562,2017-12-19
495290,23854344,"6237 W Monte Vista Rd, Phoenix, AZ 85035 ",85035,0.8109954297542572,0.901885598897934,0.7314250988674056,178900,https://www.zillow.com/homedetails/6237-W-Monte-Vista-Rd-Phoenix-AZ-85035/7491037_zpid/,33.4705,-112.194,6554,2017-12-11
398630,23849176,"4215 W Surrey Ave, Phoenix, AZ 85029 ",85029,0.8001620769500732,0.91401207447052,0.7313577998657763,248000,https://www.zillow.com/homedetails/4215-W-Surrey-Ave-Phoenix-AZ-85029/7741797_zpid/,33.6049,-112.15,6548,2017-12-05
1093584,23859955,"781 W Del Rio St, Chandler, AZ 85225 ",85225,0.8042673766613007,0.9092532098293304,0.7312826937903028,248900,https://www.zillow.com/homedetails/781-W-Del-Rio-St-Chandler-AZ-85225/8186554_zpid/,33.3158,-111.854,6565,2017-12-22
410068,23846510,"4632 W Mescal St, Glendale, AZ 85304 ",85304,0.810943216085434,0.9015280604362488,0.7310880647214351,202900,https://www.zillow.com/homedetails/4632-W-Mescal-St-Glendale-AZ-85304/7727760_zpid/,33.5869,-112.16,6544,2017-12-01
419496,23846538,"5437 W Orchid Ln, Glendale, AZ 85302 ",85302,0.8151758015155792,0.8968012630939484,0.7310506884427932,238000,https://www.zillow.com/homedetails/5437-W-Orchid-Ln-Glendale-AZ-85302/7733771_zpid/,33.5625,-112.177,6544,2017-12-01
9025869,23860030,"11848 N 79th Dr, Peoria, AZ 85345 ",85345,0.8000364601612091,0.9136925339698792,0.7309873405529874,215000,https://www.zillow.com/homedetails/11848-N-79th-Dr-Peoria-AZ-85345/2091778016_zpid/,33.5928,-112.23,6557,2017-12-14
9019728,23843826,"17413 N 8th Ave, Phoenix, AZ 85023 ",85023,0.8339534401893616,0.8758378028869629,0.7304079487654747,184500,https://www.zillow.com/homedetails/17413-N-8th-Ave-Phoenix-AZ-85023/7963487_zpid/,33.6445,-112.085,6542,2017-11-29
394074,23843087,"3521 W Mercer Ln, Phoenix, AZ 85029 ",85029,0.8155017197132111,0.895590215921402,0.7303553612422293,205900,https://www.zillow.com/homedetails/3521-W-Mercer-Ln-Phoenix-AZ-85029/7743575_zpid/,33.585,-112.135,6541,2017-11-28
9025884,23860106,"7932 W Wethersfield Rd, Peoria, AZ 85381 ",85381,0.7977357506752014,0.9155333340167999,0.7303536714800618,228888,https://www.zillow.com/homedetails/7932-W-Wethersfield-Rd-Peoria-AZ-85381/8100789_zpid/,33.5962,-112.23,6566,2017-12-23
226007,23837043,"1415 W Topeka Dr, Phoenix, AZ 85027 ",85027,0.8076852560043335,0.9036570489406586,0.7298704749137563,248000,https://www.zillow.com/homedetails/1415-W-Topeka-Dr-Phoenix-AZ-85027/7971784_zpid/,33.6594,-112.089,6529,2017-11-16
9019302,23841992,"4718 W Nicolet Ave, Glendale, AZ 85301 ",85301,0.8223395943641663,0.8872858583927155,0.7296502928757267,159999,https://www.zillow.com/homedetails/4718-W-Nicolet-Ave-Glendale-AZ-85301/7725715_zpid/,33.5429,-112.161,6535,2017-11-22
404277,23846221,"13213 N 55th Ave, Glendale, AZ 85304 ",85304,0.805647611618042,0.9056456089019775,0.7296312217842456,214900,https://www.zillow.com/homedetails/13213-N-55th-Ave-Glendale-AZ-85304/7911876_zpid/,33.6045,-112.177,6544,2017-12-01
333228,23843165,"5702 N 19th Dr, Phoenix, AZ 85015 ",85015,0.8390930593013763,0.8695056736469269,0.729596175780304,222000,https://www.zillow.com/homedetails/5702-N-19th-Dr-Phoenix-AZ-85015/7763351_zpid/,33.5212,-112.101,6540,2017-11-27
8967228,23853266,"6308 W Avalon Dr, Phoenix, AZ 85033 ",85033,0.8138469159603119,0.8962023258209229,0.7293714989458167,198900,https://www.zillow.com/homedetails/6308-W-Avalon-Dr-Phoenix-AZ-85033/7498672_zpid/,33.4836,-112.196,6551,2017-12-08
232170,23847359,"17834 N 33rd Dr, Phoenix, AZ 85053 ",85053,0.809404045343399,0.9004763960838318,0.7288492377264983,249999,https://www.zillow.com/homedetails/17834-N-33rd-Dr-Phoenix-AZ-85053/7941287_zpid/,33.6484,-112.131,6543,2017-11-30
232395,23858251,"19615 N 6th Pl, Phoenix, AZ 85024 ",85024,0.8211115896701813,0.8873884975910187,0.7286449799119952,179990,https://www.zillow.com/homedetails/19615-N-6th-Pl-Phoenix-AZ-85024/7967758_zpid/,33.6645,-112.066,6553,2017-12-10
9023077,23849850,"5810 W Saint John Rd, Glendale, AZ 85308 ",85308,0.7970760464668274,0.9141407310962677,0.7286396798565082,238000,https://www.zillow.com/homedetails/5810-W-Saint-John-Rd-Glendale-AZ-85308/8099795_zpid/,33.6464,-112.184,6548,2017-12-05
450133,23853376,"8659 W Palm Ln, Phoenix, AZ 85037 ",85037,0.7861460447311401,0.9265874624252319,0.72843306868306,179900,https://www.zillow.com/homedetails/8659-W-Palm-Ln-Phoenix-AZ-85037/7487502_zpid/,33.47,-112.244,6552,2017-12-09
411159,23837722,"5131 W Corrine Dr, Glendale, AZ 85304 ",85304,0.8103924989700317,0.8987944722175598,0.7283762984008391,235000,https://www.zillow.com/homedetails/5131-W-Corrine-Dr-Glendale-AZ-85304/7911511_zpid/,33.6005,-112.171,6533,2017-11-20
976127,23846057,"734 N Tangerine Dr, Chandler, AZ 85226 ",85226,0.808057427406311,0.9012429118156433,0.7282560287899216,204900,https://www.zillow.com/homedetails/734-N-Tangerine-Dr-Chandler-AZ-85226/8156625_zpid/,33.3162,-111.928,6544,2017-12-01
225614,23844378,"1303 W Michelle Dr, Phoenix, AZ 85023 ",85023,0.8043527007102966,0.9051693081855774,0.72807537763914,249900,https://www.zillow.com/homedetails/1303-W-Michelle-Dr-Phoenix-AZ-85023/7956957_zpid/,33.6494,-112.09,6543,2017-11-30
491289,23853212,"5551 W Wilshire Dr, Phoenix, AZ 85035 ",85035,0.8120911419391632,0.8963245749473572,0.7278972476171344,187900,https://www.zillow.com/homedetails/5551-W-Wilshire-Dr-Phoenix-AZ-85035/7491935_zpid/,33.4756,-112.18,6538,2017-11-25
8991893,23837557,"9352 W Jefferson St, Tolleson, AZ 85353 ",85353,0.8215470016002655,0.885729044675827,0.7276680408836933,229900,https://www.zillow.com/homedetails/9352-W-Jefferson-St-Tolleson-AZ-85353/7460100_zpid/,33.4464,-112.26100000000001,6533,2017-11-20
404082,23831516,"16245 N 43rd Dr, Glendale, AZ 85306 ",85306,0.8050774335861206,0.9037726819515228,0.7276069913307772,244900,https://www.zillow.com/homedetails/16245-N-43rd-Dr-Glendale-AZ-85306/7950704_zpid/,33.6339,-112.152,6527,2017-11-14
1166,23837694,"8039 N 29th Ave, Phoenix, AZ 85051 ",85051,0.8229634463787079,0.8840465843677521,0.7275380238306104,180000,https://www.zillow.com/homedetails/8039-N-29th-Ave-Phoenix-AZ-85051/7751052_zpid/,33.5545,-112.12100000000001,6533,2017-11-20
8982670,23842974,"1934 N Iowa St, Chandler, AZ 85225 ",85225,0.8325031399726868,0.873316764831543,0.727038948913048,212500,https://www.zillow.com/homedetails/1934-N-Iowa-St-Chandler-AZ-85225/8182675_zpid/,33.3331,-111.85,6540,2017-11-27
9021586,23838024,"8142 W Sweetwater Ave, Peoria, AZ 85381 ",85381,0.8103546798229218,0.8971730768680573,0.7270284014511601,240000,https://www.zillow.com/homedetails/8142-W-Sweetwater-Ave-Peoria-AZ-85381/7913307_zpid/,33.6028,-112.235,6529,2017-11-16
9024363,23841767,"3147 N 77TH Ln, Phoenix, AZ 85033 ",85033,0.8043168485164642,0.9036529958248138,0.7268233297542759,154900,https://www.zillow.com/homedetails/3147-N-77th-Ln-Phoenix-AZ-85033/7469330_zpid/,33.4853,-112.226,6535,2017-11-22
9206,23840092,"1220 W Ironwood Dr, Phoenix, AZ 85021 ",85021,0.8244289457798004,0.8813826739788055,0.7266373887369282,169000,https://www.zillow.com/homedetails/1220-W-Ironwood-Dr-Phoenix-AZ-85021/7781692_zpid/,33.576,-112.089,6534,2017-11-21
9019582,23850094,"19025 N 43rd Dr, Glendale, AZ 85308 ",85308,0.8239265084266663,0.88190096616745,0.7266215838324506,200000,https://www.zillow.com/homedetails/19025-N-43rd-Dr-Glendale-AZ-85308/7939302_zpid/,33.6589,-112.15299999999999,6551,2017-12-08
8988082,23849229,"6914 W Sierra St, Peoria, AZ 85345 ",85345,0.7948227822780609,0.9141867458820343,0.7266164528836851,198900,https://www.zillow.com/homedetails/6914-W-Sierra-St-Peoria-AZ-85345/7699742_zpid/,33.5904,-112.208,6548,2017-12-05
696959,23846396,"2938 W Almeria Rd, Phoenix, AZ 85009 ",85009,0.8392051160335541,0.8655704855918884,0.7263911797963605,129900,https://www.zillow.com/homedetails/2938-W-Almeria-Rd-Phoenix-AZ-85009/7512219_zpid/,33.4672,-112.12299999999999,6543,2017-11-30
337572,23850351,"2307 W Alice Ave, Phoenix, AZ 85021 ",85021,0.8141239583492279,0.8922346532344818,0.7263896076676071,211900,https://www.zillow.com/homedetails/2307-W-Alice-Ave-Phoenix-AZ-85021/7782260_zpid/,33.5637,-112.109,6551,2017-12-08
828507,23855608,"3542 W Rovey Ave, Phoenix, AZ 85019 ",85019,0.8102080523967743,0.8957984745502472,0.7257831374053572,235000,https://www.zillow.com/homedetails/3542-W-Rovey-Ave-Phoenix-AZ-85019/7759119_zpid/,33.5255,-112.13600000000001,6547,2017-12-04
238285,23837083,"3015 W Villa Rita Dr, Phoenix, AZ 85053 ",85053,0.8122721612453461,0.8935017883777618,0.7257666287221864,225000,https://www.zillow.com/homedetails/3015-W-Villa-Rita-Dr-Phoenix-AZ-85053/7940712_zpid/,33.65,-112.124,6529,2017-11-16
400129,23859177,"13807 N 52nd Ave, Glendale, AZ 85306 ",85306,0.8010870218276978,0.9058672487735748,0.7256784964912733,219900,https://www.zillow.com/homedetails/13807-N-52nd-Ave-Glendale-AZ-85306/8097449_zpid/,33.6112,-112.171,6557,2017-12-14
8961777,23857496,"11009 N 79th Dr, Peoria, AZ 85345 ",85345,0.8065805435180664,0.8995711207389832,0.7255765634988052,225000,https://www.zillow.com/homedetails/11009-N-79th-Dr-Peoria-AZ-85345/7681573_zpid/,33.5854,-112.23,6564,2017-12-21
643665,23856653,"2204 W Edgewood Ave, Mesa, AZ 85202 ",85202,0.8103513717651367,0.895338773727417,0.7255390034845277,245000,https://www.zillow.com/homedetails/2204-W-Edgewood-Ave-Mesa-AZ-85202/7602238_zpid/,33.3996,-111.87899999999999,6560,2017-12-17
9017511,23846619,"7346 W Coolidge St, Phoenix, AZ 85033 ",85033,0.7903746664524078,0.9174076616764069,0.7250957745983735,199900,https://www.zillow.com/homedetails/7346-W-Coolidge-St-Phoenix-AZ-85033/7710836_zpid/,33.5042,-112.21799999999999,6544,2017-12-01
398919,23847193,"914 W Mercer Ln, Phoenix, AZ 85029 ",85029,0.8326675593852997,0.8704743385314941,0.7248157429725524,209000,https://www.zillow.com/homedetails/914-W-Mercer-Ln-Phoenix-AZ-85029/7785145_zpid/,33.5851,-112.084,6545,2017-12-02
386131,23834497,"1914 W Voltaire Ave, Phoenix, AZ 85029 ",85029,0.8053678870201111,0.8999521434307098,0.7247925561740107,199000,https://www.zillow.com/homedetails/1914-W-Voltaire-Ave-Phoenix-AZ-85029/7749583_zpid/,33.609,-112.1,6529,2017-11-16
139877,23857282,"9806 W Wrangler Dr, Sun City, AZ 85373 ",85373,0.8209334909915924,0.8827459216117859,0.724675691087354,184900,https://www.zillow.com/homedetails/9806-W-Wrangler-Dr-Sun-City-AZ-85373/8095456_zpid/,33.6403,-112.271,6544,2017-12-01
9026101,23861968,"9032 W Marco Polo Rd, Peoria, AZ 85382 ",85382,0.8077208697795868,0.8971648514270782,0.7246587741303534,239000,https://www.zillow.com/homedetails/9032-W-Marco-Polo-Rd-Peoria-AZ-85382/8101657_zpid/,33.6651,-112.25299999999999,6559,2017-12-16
233580,23858257,"18240 N 32nd Ln, Phoenix, AZ 85053 ",85053,0.818478912115097,0.8847856819629669,0.7241784224280634,181000,https://www.zillow.com/homedetails/18240-N-32nd-Ln-Phoenix-AZ-85053/7941751_zpid/,33.6524,-112.13,6553,2017-12-10
9024754,23854119,"2007 N 70th Dr, Phoenix, AZ 85035 ",85035,0.8109954297542572,0.8926490247249603,0.7239342794265378,166900,https://www.zillow.com/homedetails/2007-N-70th-Dr-Phoenix-AZ-85035/92350230_zpid/,33.4701,-112.211,6556,2017-12-13
419794,23856376,"5539 W Hatcher Rd, Glendale, AZ 85302 ",85302,0.7901516556739807,0.9160094559192657,0.7237863882076301,204999,https://www.zillow.com/homedetails/5539-W-Hatcher-Rd-Glendale-AZ-85302/7734771_zpid/,33.5705,-112.179,6559,2017-12-16
523313,23853404,"9025 W Mulberry Dr, Phoenix, AZ 85037 ",85037,0.8057276904582977,0.8979274332523346,0.7234849969935508,185000,https://www.zillow.com/homedetails/9025-W-Mulberry-Dr-Phoenix-AZ-85037/92351474_zpid/,33.486,-112.25399999999999,6530,2017-11-17
332879,23849200,"5333 N 22nd Dr, Phoenix, AZ 85015 ",85015,0.8152029812335968,0.8874212205410004,0.7234284245949807,240000,https://www.zillow.com/homedetails/5333-N-22nd-Dr-Phoenix-AZ-85015/7764971_zpid/,33.5163,-112.10700000000001,6549,2017-12-06
9023482,23827286,"15606 N 99th Dr, Sun City, AZ 85351 ",85351,0.8098182380199432,0.8930253982543945,0.7231882545214319,192500,https://www.zillow.com/homedetails/15606-N-99th-Dr-Sun-City-AZ-85351/2092083796_zpid/,33.6257,-112.271,6526,2017-11-13
834633,23845436,"3526 W Ocotillo Rd, Phoenix, AZ 85019 ",85019,0.8079432845115662,0.8948523998260498,0.7229899870685159,220000,https://www.zillow.com/homedetails/3526-W-Ocotillo-Rd-Phoenix-AZ-85019/7761449_zpid/,33.535,-112.13600000000001,6537,2017-11-24
419880,23856292,"5616 W Brown St, Glendale, AZ 85302 ",85302,0.7869233191013336,0.9186120629310608,0.7228772535282335,196500,https://www.zillow.com/homedetails/5616-W-Brown-St-Glendale-AZ-85302/7735264_zpid/,33.5783,-112.18,6558,2017-12-15
433435,23843217,"7318 W Glenrosa Ave, Phoenix, AZ 85033 ",85033,0.7974009215831757,0.9065220355987549,0.7228615066219035,154999,https://www.zillow.com/homedetails/7318-W-Glenrosa-Ave-Phoenix-AZ-85033/7711188_zpid/,33.4994,-112.21700000000001,6541,2017-11-28
435965,23838336,"2237 N 94th Ave, Phoenix, AZ 85037 ",85037,0.8237959742546082,0.877345085144043,0.722753349173729,229900,https://www.zillow.com/homedetails/2237-N-94th-Ave-Phoenix-AZ-85037/67773064_zpid/,33.4752,-112.26100000000001,6534,2017-11-21
450725,23853431,"8746 W Granada Rd, Phoenix, AZ 85037 ",85037,0.7861460447311401,0.9192225933074951,0.7226432059561887,209900,https://www.zillow.com/homedetails/8746-W-Granada-Rd-Phoenix-AZ-85037/7487519_zpid/,33.4683,-112.249,6551,2017-12-08
8977168,23856014,"8979 W Bremen St, Peoria, AZ 85382 ",85382,0.7881208658218384,0.9168474078178406,0.7225865728759047,220000,https://www.zillow.com/homedetails/8979-W-Bremen-St-Peoria-AZ-85382/67802266_zpid/,33.6443,-112.25200000000001,6554,2017-12-11
9021915,23857141,"3922 E Willow Ave, Phoenix, AZ 85032 ",85032,0.8021178841590881,0.9008115231990814,0.7225570330145725,230000,https://www.zillow.com/homedetails/3922-E-Willow-Ave-Phoenix-AZ-85032/7813935_zpid/,33.6083,-111.99700000000001,6563,2017-12-20
8977481,23842943,"17255 N 55th Dr, Glendale, AZ 85308 ",85308,0.8134444653987885,0.8876272737979889,0.7220354932079891,249000,https://www.zillow.com/homedetails/17255-N-55th-Dr-Glendale-AZ-85308/8099562_zpid/,33.6425,-112.179,6541,2017-11-28
456948,23848755,"4931 W Cheery Lynn Rd, Phoenix, AZ 85031 ",85031,0.7973882853984833,0.904254138469696,0.7210416570388336,169950,https://www.zillow.com/homedetails/4931-W-Cheery-Lynn-Rd-Phoenix-AZ-85031/7509876_zpid/,33.485,-112.165,6547,2017-12-04
15301,23861388,"9312 W Madison St, Tolleson, AZ 85353 ",85353,0.8102262318134308,0.8898217976093292,0.7209569620624601,164900,https://www.zillow.com/homedetails/9312-W-Madison-St-Tolleson-AZ-85353/7460113_zpid/,33.4457,-112.26100000000001,6553,2017-12-10
9005709,23843235,"7738 W Monterey Way, Phoenix, AZ 85033 ",85033,0.7991766035556793,0.9010868072509766,0.7201274941276665,161000,https://www.zillow.com/homedetails/7738-W-Monterey-Way-Phoenix-AZ-85033/7469325_zpid/,33.4849,-112.226,6540,2017-11-27
434776,23840609,"7725 W Clayton Dr, Phoenix, AZ 85033 ",85033,0.7949700653553009,0.905850350856781,0.7201239126227374,177999,https://www.zillow.com/homedetails/7725-W-Clayton-Dr-Phoenix-AZ-85033/7482121_zpid/,33.5014,-112.227,6535,2017-11-22
422210,23835261,"6538 W Vogel Ave, Glendale, AZ 85302 ",85302,0.7946838140487671,0.9060772359371185,0.720044913677274,209000,https://www.zillow.com/homedetails/6538-W-Vogel-Ave-Glendale-AZ-85302/7703283_zpid/,33.5724,-112.20100000000001,6529,2017-11-16
8944889,23859969,"8231 W Westview Dr, Phoenix, AZ 85033 ",85033,0.8071964979171753,0.8917269110679626,0.7197988397125599,219900,https://www.zillow.com/homedetails/8231-W-Westview-Dr-Phoenix-AZ-85033/7481828_zpid/,33.4965,-112.238,6566,2017-12-23
9023935,23834938,"18241 N 31st St, Phoenix, AZ 85032 ",85032,0.8184234499931335,0.8793650269508362,0.7196929591604082,225000,https://www.zillow.com/homedetails/18241-N-31st-St-Phoenix-AZ-85032/7999264_zpid/,33.6531,-112.016,6530,2017-11-17
9024615,23850383,"4345 W Morrow Dr, Glendale, AZ 85308 ",85308,0.8180189430713654,0.8796852231025696,0.7195991764378622,245000,https://www.zillow.com/homedetails/4345-W-Morrow-Dr-Glendale-AZ-85308/7938791_zpid/,33.6569,-112.154,6552,2017-12-09
9026004,23861172,"7312 W Eugie Ave, Peoria, AZ 85381 ",85381,0.8247415721416473,0.8723821938037872,0.7194898620261148,195000,https://www.zillow.com/homedetails/7312-W-Eugie-Ave-Peoria-AZ-85381/7925183_zpid/,33.6082,-112.21600000000001,6531,2017-11-18
534651,23856233,"1931 W Ashland Ave, Phoenix, AZ 85009 ",85009,0.8208373785018921,0.876382976770401,0.7193679052159005,229900,https://www.zillow.com/homedetails/1931-W-Ashland-Ave-Phoenix-AZ-85009/7519553_zpid/,33.4752,-112.101,6558,2017-12-15
386006,23854095,"1749 W Surrey Ave, Phoenix, AZ 85029 ",85029,0.7844457030296326,0.9164629876613617,0.7189154526566544,220000,https://www.zillow.com/homedetails/1749-W-Surrey-Ave-Phoenix-AZ-85029/7784365_zpid/,33.6053,-112.098,6555,2017-12-12
355855,23833551,"702 E Rose Marie Ln, Phoenix, AZ 85022 ",85022,0.7976785004138947,0.9012255370616913,0.7188882349380767,247000,https://www.zillow.com/homedetails/702-E-Rose-Marie-Ln-Phoenix-AZ-85022/49942677_zpid/,33.6527,-112.065,6527,2017-11-14
9007274,23854421,"8426 W Bluefield Ave, Peoria, AZ 85382 ",85382,0.8007922172546387,0.8976578712463379,0.7188374370514339,229000,https://www.zillow.com/homedetails/8426-W-Bluefield-Ave-Peoria-AZ-85382/8129054_zpid/,33.6509,-112.241,6552,2017-12-09
434089,23853304,"7601 W Earll Dr, Phoenix, AZ 85033 ",85033,0.7899402379989624,0.909980058670044,0.7188298641201243,165000,https://www.zillow.com/homedetails/7601-W-Earll-Dr-Phoenix-AZ-85033/7469553_zpid/,33.4836,-112.22200000000001,6534,2017-11-21
453580,23853046,"4508 N 57th Ave, Phoenix, AZ 85031 ",85031,0.8108440041542053,0.8864595890045166,0.7187804426693134,189950,https://www.zillow.com/homedetails/4508-N-57th-Ave-Phoenix-AZ-85031/7713228_zpid/,33.5028,-112.182,6537,2017-11-24
378692,23849012,"10228 N 36th Ave, Phoenix, AZ 85051 ",85051,0.8035877645015717,0.8940489590167999,0.7184468043312675,210000,https://www.zillow.com/homedetails/10228-N-36th-Ave-Phoenix-AZ-85051/7745264_zpid/,33.5794,-112.13600000000001,6548,2017-12-05
830565,23856396,"3823 W Cavalier Dr, Phoenix, AZ 85019 ",85019,0.8021335899829865,0.8956567347049713,0.7184363520013379,170000,https://www.zillow.com/homedetails/3823-W-Cavalier-Dr-Phoenix-AZ-85019/7758965_zpid/,33.525999999999996,-112.14200000000001,6548,2017-12-05
415297,23835189,"10114 N 66th Ln, Glendale, AZ 85302 ",85302,0.7898477911949158,0.9093240201473236,0.7182275687938446,197500,https://www.zillow.com/homedetails/10114-N-66th-Ln-Glendale-AZ-85302/67083300_zpid/,33.5779,-112.20299999999999,6528,2017-11-15
410268,23845604,"4731 W Shaw Butte Dr, Glendale, AZ 85304 ",85304,0.8133353292942047,0.8828556835651398,0.7180577181117132,227900,https://www.zillow.com/homedetails/4731-W-Shaw-Butte-Dr-Glendale-AZ-85304/7727518_zpid/,33.5947,-112.161,6536,2017-11-23
425299,23848687,"3031 N 81st Ave, Phoenix, AZ 85033 ",85033,0.7953670918941498,0.9026823043823242,0.717963799340879,184900,https://www.zillow.com/homedetails/3031-N-81st-Ave-Phoenix-AZ-85033/7479465_zpid/,33.4829,-112.23299999999999,6543,2017-11-30
337615,23862924,"2310 W Echo Ln, Phoenix, AZ 85021 ",85021,0.8127014636993408,0.8834038972854614,0.7179436403615966,190000,https://www.zillow.com/homedetails/2310-W-Echo-Ln-Phoenix-AZ-85021/7782737_zpid/,33.5598,-112.109,6558,2017-12-15
9023475,23827261,"12202 N Balboa Dr, Sun City, AZ 85351 ",85351,0.8234075903892517,0.8717952966690063,0.7178428645429094,159500,https://www.zillow.com/homedetails/12202-N-Balboa-Dr-Sun-City-AZ-85351/7916635_zpid/,33.5958,-112.274,6526,2017-11-13
9024755,23848698,"3026 N 75th Dr, Phoenix, AZ 85033 ",85033,0.7952924370765686,0.9025813937187195,0.7178161562705263,174000,https://www.zillow.com/homedetails/3026-N-75th-Dr-Phoenix-AZ-85033/7469531_zpid/,33.4832,-112.221,6544,2017-12-01
837297,23835058,"6553 N 41st Ave, Phoenix, AZ 85019 ",85019,0.8062613904476166,0.8903011679649353,0.7178154576005458,199999,https://www.zillow.com/homedetails/6553-N-41st-Ave-Phoenix-AZ-85019/7762442_zpid/,33.5332,-112.147,6531,2017-11-18
1119338,23856054,"2144 N College Ct, Chandler, AZ 85224 ",85224,0.7859058678150177,0.9123986661434174,0.717059465508707,240000,https://www.zillow.com/homedetails/2144-N-College-Ct-Chandler-AZ-85224/8199700_zpid/,33.3387,-111.874,6557,2017-12-14
972401,23856826,"5810 W Frye Rd, Chandler, AZ 85226 ",85226,0.7970252931118011,0.8996418118476868,0.7170372787835344,207000,https://www.zillow.com/homedetails/5810-W-Frye-Rd-Chandler-AZ-85226/8262620_zpid/,33.2971,-111.943,6561,2017-12-18
9024760,23853016,"4016 N 75th Dr, Phoenix, AZ 85033 ",85033,0.7944454848766327,0.9017837047576904,0.7164179925800696,165000,https://www.zillow.com/homedetails/4016-N-75th-Dr-Phoenix-AZ-85033/7478126_zpid/,33.4933,-112.223,6543,2017-11-30
644243,23859318,"2213 W Del Campo Cir, Mesa, AZ 85202 ",85202,0.8112011253833771,0.8830529153347015,0.7163335186925819,220000,https://www.zillow.com/homedetails/2213-W-Del-Campo-Cir-Mesa-AZ-85202/7602126_zpid/,33.4009,-111.87899999999999,6565,2017-12-22
460344,23843171,"5811 W Cheery Lynn Rd, Phoenix, AZ 85031 ",85031,0.8019548952579498,0.8929833471775055,0.7161323666528299,139900,https://www.zillow.com/homedetails/5811-W-Cheery-Lynn-Rd-Phoenix-AZ-85031/7497530_zpid/,33.4852,-112.184,6541,2017-11-28
9021439,23856224,"17630 N 33rd Ln, Phoenix, AZ 85053 ",85053,0.7979110181331635,0.8974578380584717,0.7160914972968229,215000,https://www.zillow.com/homedetails/17630-N-33rd-Ln-Phoenix-AZ-85053/7942069_zpid/,33.6462,-112.131,6558,2017-12-15
356416,23858282,"830 E Michelle Dr, Phoenix, AZ 85022 ",85022,0.7899550199508667,0.9064170122146606,0.7160286689678372,193500,https://www.zillow.com/homedetails/830-E-Michelle-Dr-Phoenix-AZ-85022/8002212_zpid/,33.6507,-112.06200000000001,6551,2017-12-08
502152,23852968,"3805 N 51st Ave, Phoenix, AZ 85031 ",85031,0.7995213568210602,0.8948432207107544,0.7154462659647898,165000,https://www.zillow.com/homedetails/3805-N-51st-Ave-Phoenix-AZ-85031/7508895_zpid/,33.4919,-112.169,6543,2017-11-30
441880,23831779,"3901 N 84th Ln, Phoenix, AZ 85037 ",85037,0.8031005263328552,0.8906823396682739,0.7153074557829697,174000,https://www.zillow.com/homedetails/3901-N-84th-Ln-Phoenix-AZ-85037/67081706_zpid/,33.4925,-112.241,6526,2017-11-13
383025,23856959,"3232 W Camino Vis, Phoenix, AZ 85051 ",85051,0.8069683611392975,0.8861403167247772,0.7150871991268515,199900,https://www.zillow.com/homedetails/3232-W-Camino-Vis-Phoenix-AZ-85051/7739710_zpid/,33.5732,-112.12899999999999,6562,2017-12-19
234163,23837062,"1923 W Kristal Way, Phoenix, AZ 85027 ",85027,0.8038176596164703,0.8889832198619843,0.7145804112277743,220000,https://www.zillow.com/homedetails/1923-W-Kristal-Way-Phoenix-AZ-85027/7969934_zpid/,33.6606,-112.101,6529,2017-11-16
400817,23856413,"11004 N 58th Dr, Glendale, AZ 85304 ",85304,0.7839890718460083,0.9112575054168701,0.7144159258844809,215000,https://www.zillow.com/homedetails/11004-N-58th-Dr-Glendale-AZ-85304/7736132_zpid/,33.5857,-112.186,6550,2017-12-07
405053,23858486,"4501 W Sandra Ter, Glendale, AZ 85306 ",85306,0.794010728597641,0.8997512459754944,0.7144121423736376,245000,https://www.zillow.com/homedetails/4501-W-Sandra-Ter-Glendale-AZ-85306/7950656_zpid/,33.6336,-112.155,6561,2017-12-18
9025717,23858269,"3333 W Grovers Ave, Phoenix, AZ 85053 ",85053,0.7896675765514374,0.9046306014060974,0.7143574546866223,162000,https://www.zillow.com/homedetails/3333-W-Grovers-Ave-Phoenix-AZ-85053/2091717911_zpid/,33.6474,-112.131,6564,2017-12-21
9023486,23827318,"9908 W Crosby Cir N, Sun City, AZ 85351 ",85351,0.82510906457901,0.865660548210144,0.714264365176625,140000,https://www.zillow.com/homedetails/9908-W-Crosby-Cir-N-Sun-City-AZ-85351/7694583_zpid/,33.5838,-112.273,6526,2017-11-13
410719,23854939,"4923 W Larkspur Dr, Glendale, AZ 85304 ",85304,0.7808270752429962,0.9145163595676422,0.7140791343030743,236000,https://www.zillow.com/homedetails/4923-W-Larkspur-Dr-Glendale-AZ-85304/7954371_zpid/,33.5993,-112.165,6557,2017-12-14
9012337,23837926,"3324 E Thunderbird Rd, Phoenix, AZ 85032 ",85032,0.8013299703598022,0.8907129466533661,0.713754979140834,210000,https://www.zillow.com/homedetails/3324-E-Thunderbird-Rd-Phoenix-AZ-85032/8011849_zpid/,33.6116,-112.01100000000001,6529,2017-11-16
223492,23846177,"1102 W Campo Bello Dr, Phoenix, AZ 85023 ",85023,0.8319448530673981,0.8575271964073181,0.7134153374163841,154900,https://www.zillow.com/homedetails/1102-W-Campo-Bello-Dr-Phoenix-AZ-85023/7963601_zpid/,33.6439,-112.088,6544,2017-12-01
9024757,23848700,"3126 N 43rd Ave, Phoenix, AZ 85031 ",85031,0.7921170890331268,0.9002720713615417,0.7131208925047279,175000,https://www.zillow.com/homedetails/3126-N-43rd-Ave-Phoenix-AZ-85031/7509773_zpid/,33.4851,-112.152,6547,2017-12-04
221575,23843969,"9841 N 11th St, Phoenix, AZ 85020 ",85020,0.8180796802043915,0.8716823756694794,0.7131056391274919,169900,https://www.zillow.com/homedetails/9841-N-11th-St-Phoenix-AZ-85020/7787496_zpid/,33.5764,-112.059,6542,2017-11-29
9024756,23848729,"3002 N 70TH Ave, Phoenix, AZ 85033 ",85033,0.787328690290451,0.905702143907547,0.7130852827559826,164900,https://www.zillow.com/homedetails/3002-N-70TH-Ave-Phoenix-AZ-85033/7468637_zpid/,33.4816,-112.211,6548,2017-12-05
411761,23859395,"5271 W Lupine Ave, Glendale, AZ 85304 ",85304,0.7929930984973907,0.8988606333732605,0.712790278775989,240000,https://www.zillow.com/homedetails/5271-W-Lupine-Ave-Glendale-AZ-85304/7737196_zpid/,33.5897,-112.17299999999999,6564,2017-12-21
433071,23853324,"7217 W Sunderland Ave, Phoenix, AZ 85033 ",85033,0.7729663848876953,0.9218566715717316,0.7125642188094048,182000,https://www.zillow.com/homedetails/7217-W-Sunderland-Ave-Phoenix-AZ-85033/55257159_zpid/,33.4887,-112.215,6551,2017-12-08
1346544,23849829,"4852 W Frier Dr, Glendale, AZ 85301 ",85301,0.7907882034778595,0.9008182883262634,0.7123564758855263,229900,https://www.zillow.com/homedetails/4852-W-Frier-Dr-Glendale-AZ-85301/7724567_zpid/,33.5494,-112.164,6550,2017-12-07
9022274,23854949,"5736 W Libby St, Glendale, AZ 85308 ",85308,0.7841382622718811,0.908240795135498,0.712186358821981,235000,https://www.zillow.com/homedetails/5736-W-Libby-St-Glendale-AZ-85308/7900965_zpid/,33.6479,-112.18299999999999,6551,2017-12-08
230933,23837060,"18608 N 17th Ave, Phoenix, AZ 85027 ",85027,0.7970249652862549,0.8929099142551422,0.7116714934129575,219900,https://www.zillow.com/homedetails/18608-N-17th-Ave-Phoenix-AZ-85027/7969674_zpid/,33.6552,-112.096,6529,2017-11-16
447466,23853329,"8314 W Avalon Dr, Phoenix, AZ 85037 ",85037,0.7777665555477142,0.9146034717559814,0.7113479919196308,184900,https://www.zillow.com/homedetails/8314-W-Avalon-Dr-Phoenix-AZ-85037/55257045_zpid/,33.4824,-112.23899999999999,6528,2017-11-15
9023879,23854911,"3779 E Sweetwater Ave, Phoenix, AZ 85032 ",85032,0.7982253134250641,0.8909821808338165,0.7112045305522203,225000,https://www.zillow.com/homedetails/3779-E-Sweetwater-Ave-Phoenix-AZ-85032/7821120_zpid/,33.6042,-111.999,6557,2017-12-14
833683,23856894,"6014 N 41st Ave, Phoenix, AZ 85019 ",85019,0.7920391857624054,0.8976925909519196,0.7110077088025024,177000,https://www.zillow.com/homedetails/6014-N-41st-Ave-Phoenix-AZ-85019/7760550_zpid/,33.5246,-112.147,6560,2017-12-17
837022,23855805,"5743 N 38th Dr, Phoenix, AZ 85019 ",85019,0.7860770523548126,0.9042882025241852,0.7108402047194433,184900,https://www.zillow.com/homedetails/5743-N-38th-Dr-Phoenix-AZ-85019/7719105_zpid/,33.5219,-112.141,6554,2017-12-11
400713,23840251,"10843 N 45th Ln, Glendale, AZ 85304 ",85304,0.813380241394043,0.8737432658672333,0.7106855085075097,220000,https://www.zillow.com/homedetails/10843-N-45th-Ln-Glendale-AZ-85304/7727914_zpid/,33.5861,-112.156,6534,2017-11-21
411351,23831053,"5194 W Paradise Dr, Glendale, AZ 85304 ",85304,0.7913560569286346,0.8980345726013184,0.710665098359371,214900,https://www.zillow.com/homedetails/5194-W-Paradise-Dr-Glendale-AZ-85304/60978690_zpid/,33.5953,-112.171,6526,2017-11-13
225687,23849553,"1306 W Charleston Ave, Phoenix, AZ 85023 ",85023,0.7851559519767761,0.9050601422786713,0.7106133576070466,245000,https://www.zillow.com/homedetails/1306-W-Charleston-Ave-Phoenix-AZ-85023/7956977_zpid/,33.6491,-112.09,6550,2017-12-07
328241,23845148,"2138 W Thomas Rd, Phoenix, AZ 85015 ",85015,0.836620420217514,0.8492311835289001,0.7104841496257652,225000,https://www.zillow.com/homedetails/2138-W-Thomas-Rd-Phoenix-AZ-85015/7518981_zpid/,33.481,-112.10600000000001,6543,2017-11-30
9026268,23865533,"9917 W Prairie Hills Cir, Sun City, AZ 85351 ",85351,0.7988540232181549,0.8892530798912048,0.7103834005302243,198500,https://www.zillow.com/homedetails/9917-W-Prairie-Hills-Cir-Sun-City-AZ-85351/7907838_zpid/,33.6148,-112.274,6561,2017-12-18
391579,23862941,"4119 W Las Palmaritas Dr, Phoenix, AZ 85051 ",85051,0.7837503254413605,0.9058310985565186,0.7099454182885765,199900,https://www.zillow.com/homedetails/4119-W-Las-Palmaritas-Dr-Phoenix-AZ-85051/7752798_zpid/,33.5576,-112.148,6552,2017-12-09
395883,23835126,"3830 W Sharon Ave, Phoenix, AZ 85029 ",85029,0.7912178635597229,0.8972741365432739,0.7099393253431643,179900,https://www.zillow.com/homedetails/3830-W-Sharon-Ave-Phoenix-AZ-85029/7741516_zpid/,33.6095,-112.14200000000001,6530,2017-11-17
1404598,23856830,"6113 N 71st Ln, Glendale, AZ 85303 ",85303,0.7796476483345032,0.9103861451148987,0.7097804171151445,189990,https://www.zillow.com/homedetails/6113-N-71st-Ln-Glendale-AZ-85303/7707065_zpid/,33.5257,-112.214,6561,2017-12-18
419470,23857442,"5428 W Puget Ave, Glendale, AZ 85302 ",85302,0.7866775393486023,0.9022063314914703,0.7097454568424393,180000,http://www.zillow.com/homedetails/5428-W-Puget-Ave-Glendale-AZ-85302/7733603_zpid,33.567,-112.177,6559,2017-12-16
9024048,23836145,"9411 W Glen Oaks Cir, Sun City, AZ 85351 ",85351,0.8106184303760529,0.8740563094615936,0.7085261536360425,140000,https://www.zillow.com/homedetails/9411-W-Glen-Oaks-Cir-Sun-City-AZ-85351/7922837_zpid/,33.6297,-112.26299999999999,6530,2017-11-17
477931,23837214,"1802 N 66th Ave, Phoenix, AZ 85035 ",85035,0.8050148487091064,0.8800108134746552,0.7084217718716772,150000,https://www.zillow.com/homedetails/1802-N-66th-Ave-Phoenix-AZ-85035/7490498_zpid/,33.4678,-112.20200000000001,6531,2017-11-18
693332,23841794,"1343 E Indianola Ave, Phoenix, AZ 85014 ",85014,0.8418490886688232,0.8412895798683167,0.7082388661187196,249900,https://www.zillow.com/homedetails/1343-E-Indianola-Ave-Phoenix-AZ-85014/7534225_zpid/,33.4917,-112.053,6536,2017-11-23
253775,23858223,"950 E Piute Ave, Phoenix, AZ 85024 ",85024,0.8142417669296265,0.86952343583107,0.7080022987778101,204000,https://www.zillow.com/homedetails/950-E-Piute-Ave-Phoenix-AZ-85024/7996577_zpid/,33.6645,-112.06,6564,2017-12-21
327955,23853549,"2119 W Amelia Ave, Phoenix, AZ 85015 ",85015,0.8044789135456085,0.8797939717769623,0.7077756985591064,190000,https://www.zillow.com/homedetails/2119-W-Amelia-Ave-Phoenix-AZ-85015/7515982_zpid/,33.494,-112.105,6551,2017-12-08
413798,23850402,"6136 W Sierra St, Glendale, AZ 85304 ",85304,0.7812817692756653,0.9054642617702484,0.7074227204517438,239899,https://www.zillow.com/homedetails/6136-W-Sierra-St-Glendale-AZ-85304/7698235_zpid/,33.5914,-112.19200000000001,6551,2017-12-08
627067,23856639,"1610 W 7th Ave, Mesa, AZ 85202 ",85202,0.7970407605171204,0.8875290751457214,0.7073968490352023,218900,https://www.zillow.com/homedetails/1610-W-7th-Ave-Mesa-AZ-85202/7604416_zpid/,33.4024,-111.866,6560,2017-12-17
416088,23855713,"4419 W Turquoise Ave, Glendale, AZ 85302 ",85302,0.7993814945220947,0.8844267129898071,0.7069943476250558,242000,https://www.zillow.com/homedetails/4419-W-Turquoise-Ave-Glendale-AZ-85302/7729244_zpid/,33.5755,-112.154,6548,2017-12-05
453411,23853062,"4450 N 50th Ave, Phoenix, AZ 85031 ",85031,0.8125154972076416,0.8699769377708435,0.7068697441520584,149800,https://www.zillow.com/homedetails/4450-N-50th-Ave-Phoenix-AZ-85031/7720779_zpid/,33.501999999999995,-112.167,6533,2017-11-20
836722,23830966,"5221 N 41st Dr, Phoenix, AZ 85019 ",85019,0.7991750240325928,0.8843475878238678,0.706748504752305,179000,https://www.zillow.com/homedetails/5221-N-41st-Dr-Phoenix-AZ-85019/67083438_zpid/,33.5124,-112.148,6526,2017-11-13
393150,23840514,"4228 W Vista Ave, Phoenix, AZ 85051 ",85051,0.7974465787410736,0.8862563669681549,0.7067421077262486,172400,https://www.zillow.com/homedetails/4228-W-Vista-Ave-Phoenix-AZ-85051/7758035_zpid/,33.5467,-112.15,6534,2017-11-21
397286,23862957,"8437 N 36th Ave, Phoenix, AZ 85051 ",85051,0.7933731973171234,0.8903313875198364,0.7063650595884035,187000,https://www.zillow.com/homedetails/8437-N-36th-Ave-Phoenix-AZ-85051/7754435_zpid/,33.5599,-112.137,6550,2017-12-07
9024486,23843769,"6743 W Roma Ave, Phoenix, AZ 85033 ",85033,0.7929239869117737,0.8907504379749298,0.7062973886224899,135000,https://www.zillow.com/homedetails/6743-W-Roma-Ave-Phoenix-AZ-85033/7717104_zpid/,33.5015,-112.205,6542,2017-11-29
9024018,23835783,"1725 W Auburn St, Mesa, AZ 85201 ",85201,0.8059566915035248,0.8761074244976044,0.7061046412497634,189900,https://www.zillow.com/homedetails/1725-W-Auburn-St-Mesa-AZ-85201/7612538_zpid/,33.4176,-111.869,6529,2017-11-16
389426,23859360,"3916 W Northern Ave, Phoenix, AZ 85051 ",85051,0.8009957075119019,0.8815325498580933,0.7061037884683543,182000,https://www.zillow.com/homedetails/3916-W-Northern-Ave-Phoenix-AZ-85051/7754161_zpid/,33.5534,-112.14399999999999,6563,2017-12-20
324902,23848835,"1634 W Indian School Rd, Phoenix, AZ 85015 ",85015,0.809063732624054,0.8720094263553619,0.7055112013704292,229900,https://www.zillow.com/homedetails/1634-W-Indian-School-Rd-Phoenix-AZ-85015/7772093_zpid/,33.4953,-112.095,6547,2017-12-04
386285,23856269,"3631 W Caron St, Phoenix, AZ 85051 ",85051,0.7875850796699524,0.895776093006134,0.7054998855766748,239900,https://www.zillow.com/homedetails/3631-W-Caron-St-Phoenix-AZ-85051/7746596_zpid/,33.5684,-112.13799999999999,6558,2017-12-15
501068,23853288,"7426 W Monte Vista Rd, Phoenix, AZ 85035 ",85035,0.7838289141654968,0.899979829788208,0.7054302127537397,155000,https://www.zillow.com/homedetails/7426-W-Monte-Vista-Rd-Phoenix-AZ-85035/7474922_zpid/,33.471,-112.22,6528,2017-11-15
7389079,23836128,"12207 N Sun Valley Dr, Sun City, AZ 85351 ",85351,0.8269139528274536,0.8527879416942596,0.7051822477899883,209900,https://www.zillow.com/homedetails/12207-N-Sun-Valley-Dr-Sun-City-AZ-85351/7686174_zpid/,33.5952,-112.271,6530,2017-11-17
9021799,23854010,"13014 N Lakeforest Dr, Sun City, AZ 85351 ",85351,0.7943355739116669,0.8876402676105499,0.7050842413995317,225079,https://www.zillow.com/homedetails/13014-N-Lakeforest-Dr-Sun-City-AZ-85351/8095961_zpid/,33.6035,-112.26899999999999,6554,2017-12-11
1672407,23856036,"9529 W Appaloosa Dr, Sun City, AZ 85373 ",85373,0.8223395049571991,0.8569133877754211,0.7046737310944362,192500,https://www.zillow.com/homedetails/9529-W-Appaloosa-Dr-Sun-City-AZ-85373/8095188_zpid/,33.6455,-112.26799999999999,6544,2017-12-01
1349332,23855797,"5601 N 61st Ln, Glendale, AZ 85301 ",85301,0.7919361293315887,0.8895359933376312,0.7044556914649336,164000,https://www.zillow.com/homedetails/5601-N-61st-Ln-Glendale-AZ-85301/7714491_zpid/,33.5189,-112.193,6551,2017-12-08
534315,23853548,"1914 W Granada Rd, Phoenix, AZ 85009 ",85009,0.8222025632858276,0.8565746545791626,0.7042778766406599,189000,https://www.zillow.com/homedetails/1914-W-Granada-Rd-Phoenix-AZ-85009/7519853_zpid/,33.4686,-112.101,6549,2017-12-06
460325,23853200,"5810 W Avalon Dr, Phoenix, AZ 85031 ",85031,0.7798534631729126,0.9030410945415497,0.7042397249656851,150000,https://www.zillow.com/homedetails/5810-W-Avalon-Dr-Phoenix-AZ-85031/7490070_zpid/,33.484,-112.185,6551,2017-12-08
328925,23848851,"2316 W Whitton Ave, Phoenix, AZ 85015 ",85015,0.8120443522930145,0.8671550452709198,0.7041683570746438,195000,https://www.zillow.com/homedetails/2316-W-Whitton-Ave-Phoenix-AZ-85015/7517392_zpid/,33.4899,-112.109,6543,2017-11-30
7437201,23841799,"2038 W Alvarado Rd, Phoenix, AZ 85009 ",85009,0.8424166738986969,0.8352486491203308,0.7036273888703288,235000,https://www.zillow.com/homedetails/2038-W-Alvarado-Rd-Phoenix-AZ-85009/7519729_zpid/,33.4727,-112.104,6539,2017-11-26
1404612,23855827,"6124 N 71st Dr, Glendale, AZ 85303 ",85303,0.7767673134803772,0.9058308899402618,0.7036198268464364,181000,https://www.zillow.com/homedetails/6124-N-71st-Dr-Glendale-AZ-85303/7707087_zpid/,33.5261,-112.213,6551,2017-12-08
9019112,23856813,"4426 W Vogel Ave, Glendale, AZ 85302 ",85302,0.7814428508281708,0.9003622531890869,0.7035816459101554,219900,https://www.zillow.com/homedetails/4426-W-Vogel-Ave-Glendale-AZ-85302/7729451_zpid/,33.5722,-112.155,6561,2017-12-18
9025735,23858371,"14401 N 34th Way, Phoenix, AZ 85032 ",85032,0.8003134429454803,0.8789679110050201,0.7034498350950242,249900,https://www.zillow.com/homedetails/14401-N-34th-Way-Phoenix-AZ-85032/8012303_zpid/,33.6173,-112.008,6556,2017-12-13
423250,23854422,"8602 N 55TH Ave, Glendale, AZ 85302 ",85302,0.7804777026176453,0.9012562930583954,0.7034104410759117,229900,https://www.zillow.com/homedetails/8602-N-55th-Ave-Glendale-AZ-85302/7733439_zpid/,33.5627,-112.178,6554,2017-12-11
379293,23843863,"2626 W Northview Ave, Phoenix, AZ 85051 ",85051,0.8238499760627747,0.8535463809967041,0.7031941655526026,134900,https://www.zillow.com/homedetails/2626-W-Northview-Ave-Phoenix-AZ-85051/7779482_zpid/,33.5439,-112.116,6542,2017-11-29
1130028,23855813,"586 N Apache Dr, Chandler, AZ 85224 ",85224,0.7924207150936127,0.8873466849327087,0.7031518946103237,199900,https://www.zillow.com/homedetails/586-N-Apache-Dr-Chandler-AZ-85224/8185828_zpid/,33.3129,-111.86200000000001,6551,2017-12-08
9023880,23833725,"3454 E Libby St, Phoenix, AZ 85032 ",85032,0.8199146389961243,0.8571285307407379,0.7027722298555705,233000,https://www.zillow.com/homedetails/3454-E-Libby-St-Phoenix-AZ-85032/92349104_zpid/,33.6476,-112.005,6528,2017-11-15
9025891,23860135,"8837 W Paradise Dr, Peoria, AZ 85345 ",85345,0.8018586337566376,0.8762742280960083,0.7026480553372174,229950,https://www.zillow.com/homedetails/8837-W-Paradise-Dr-Peoria-AZ-85345/7685700_zpid/,33.5941,-112.25,6558,2017-12-15
8990554,23839230,"3845 N 59th Ave, Phoenix, AZ 85033 ",85033,0.7940749526023865,0.8847008347511292,0.7025187734222946,176000,https://www.zillow.com/homedetails/3845-N-59th-Ave-Phoenix-AZ-85033/7496809_zpid/,33.493,-112.186,6531,2017-11-18
424042,23835298,"9015 N 57th Ave, Glendale, AZ 85302 ",85302,0.7966445982456207,0.8815376460552216,0.7022722038800522,205000,https://www.zillow.com/homedetails/9015-N-57th-Ave-Glendale-AZ-85302/7734719_zpid/,33.5681,-112.182,6529,2017-11-16
409622,23825573,"4447 W Mercer Ln, Glendale, AZ 85304 ",85304,0.7994141578674316,0.8773332238197327,0.7013526002889705,227000,https://www.zillow.com/homedetails/4447-W-Mercer-Ln-Glendale-AZ-85304/7727953_zpid/,33.5852,-112.156,6526,2017-11-13
9024207,23837704,"3545 W Gardenia Ave, Phoenix, AZ 85051 ",85051,0.800085574388504,0.8765556216239929,0.7013195080105046,224500,https://www.zillow.com/homedetails/3545-W-Gardenia-Ave-Phoenix-AZ-85051/7756303_zpid/,33.5441,-112.13600000000001,6533,2017-11-20
467341,23860892,"3126 W Citrus Way, Phoenix, AZ 85017 ",85017,0.7878741323947906,0.8900248110294342,0.701227525799653,199000,https://www.zillow.com/homedetails/3126-W-Citrus-Way-Phoenix-AZ-85017/7760886_zpid/,33.53,-112.12700000000001,6554,2017-12-11
384150,23834117,"3417 W Diana Ave, Phoenix, AZ 85051 ",85051,0.7902857065200806,0.8871458768844604,0.7010987061000122,179900,https://www.zillow.com/homedetails/3417-W-Diana-Ave-Phoenix-AZ-85051/7753849_zpid/,33.5627,-112.133,6526,2017-11-13
462190,23850105,"2612 W Catalina Dr, Phoenix, AZ 85017 ",85017,0.8242814242839813,0.8504693806171417,0.701026112365013,189900,https://www.zillow.com/homedetails/2612-W-Catalina-Dr-Phoenix-AZ-85017/7519226_zpid/,33.4826,-112.116,6551,2017-12-08
417679,23865761,"4839 W Harmont Dr, Glendale, AZ 85302 ",85302,0.7816228568553925,0.8965181112289429,0.7007390473213668,239900,https://www.zillow.com/homedetails/4839-W-Harmont-Dr-Glendale-AZ-85302/7731800_zpid/,33.5551,-112.164,6555,2017-12-12
416554,23856417,"4528 W Sanna St, Glendale, AZ 85302 ",85302,0.7863166034221649,0.8906907439231873,0.7003649204612419,161500,https://www.zillow.com/homedetails/4528-W-Sanna-St-Glendale-AZ-85302/7729871_zpid/,33.5705,-112.15799999999999,6553,2017-12-10
8954944,23859326,"2414 E Dahlia Dr, Phoenix, AZ 85032 ",85032,0.7887932658195496,0.8878698647022247,0.7003457702012295,225000,https://www.zillow.com/homedetails/2414-E-Dahlia-Dr-Phoenix-AZ-85032/7820475_zpid/,33.6034,-112.03,6564,2017-12-21
9021200,23846457,"3819 N 63rd Ave, Phoenix, AZ 85033 ",85033,0.7907516360282898,0.8849538862705231,0.6997787333780092,164900,https://www.zillow.com/homedetails/3819-N-63rd-Ave-Phoenix-AZ-85033/7496525_zpid/,33.4925,-112.195,6543,2017-11-30
9025997,23861142,"15848 N 99th Dr, Sun City, AZ 85351 ",85351,0.7934949696063995,0.8816147744655609,0.699556888669103,239500,https://www.zillow.com/homedetails/15848-N-99th-Dr-Sun-City-AZ-85351/8091359_zpid/,33.6291,-112.272,6558,2017-12-15
830401,23849161,"3811 W Flower St, Phoenix, AZ 85019 ",85019,0.7893403172492981,0.8861328959465027,0.6994604212114517,148000,https://www.zillow.com/homedetails/3811-W-Flower-St-Phoenix-AZ-85019/7507570_zpid/,33.4861,-112.14200000000001,6549,2017-12-06
324692,23842158,"1622 W Clarendon Ave, Phoenix, AZ 85015 ",85015,0.804698646068573,0.8690848052501678,0.6993513661035795,233500,https://www.zillow.com/homedetails/1622-W-Clarendon-Ave-Phoenix-AZ-85015/7516431_zpid/,33.4916,-112.095,6540,2017-11-27
9025999,23861141,"9232 W Meadow Hills Dr, Sun City, AZ 85351 ",85351,0.8165099024772644,0.8564128279685974,0.6992695546449177,241800,https://www.zillow.com/homedetails/9232-W-Meadow-Hills-Dr-Sun-City-AZ-85351/2091823839_zpid/,33.6111,-112.259,6553,2017-12-10
349796,23859356,"3702 W Tonto St, Phoenix, AZ 85009 ",85009,0.8060711622238159,0.8674457967281342,0.6992230415348111,164800,https://www.zillow.com/homedetails/3702-W-Tonto-St-Phoenix-AZ-85009/7506279_zpid/,33.4394,-112.139,6561,2017-12-18
462534,23856397,"2634 W Luke Ave, Phoenix, AZ 85017 ",85017,0.8220805823802948,0.849921703338623,0.6987041288582674,184900,https://www.zillow.com/homedetails/2634-W-Luke-Ave-Phoenix-AZ-85017/7763828_zpid/,33.5188,-112.116,6552,2017-12-09
9025493,23853409,"5955 W Mitchell Dr, Phoenix, AZ 85033 ",85033,0.7732762396335602,0.9029832780361176,0.6982555136917545,165000,https://www.zillow.com/homedetails/5955-W-Mitchell-Dr-Phoenix-AZ-85033/7489271_zpid/,33.4883,-112.189,6550,2017-12-07
9026095,23861947,"7014 W Canterbury Dr, Peoria, AZ 85345 ",85345,0.7749426960945129,0.9010277390480042,0.6982448653538036,179000,https://www.zillow.com/homedetails/7014-W-Canterbury-Dr-Peoria-AZ-85345/7699778_zpid/,33.5911,-112.21,6556,2017-12-13
420303,23834253,"5729 W Purdue Cir, Glendale, AZ 85302 ",85302,0.783250480890274,0.8911044001579285,0.6979579499471367,220000,https://www.zillow.com/homedetails/5729-W-Purdue-Cir-Glendale-AZ-85302/7734981_zpid/,33.5741,-112.18299999999999,6528,2017-11-15
503053,23856891,"2823 W Marshall Ave, Phoenix, AZ 85017 ",85017,0.8150654733181,0.8553600311279297,0.6971744286286707,175000,https://www.zillow.com/homedetails/2823-W-Marshall-Ave-Phoenix-AZ-85017/7763994_zpid/,33.5174,-112.12,6561,2017-12-18
9025615,23856149,"17636 N 35th St, Phoenix, AZ 85032 ",85032,0.8185023367404938,0.85093754529953,0.6964943692478851,235000,https://www.zillow.com/homedetails/17636-N-35th-St-Phoenix-AZ-85032/7998341_zpid/,33.6469,-112.005,6557,2017-12-14
380026,23830832,"2815 W Echo Ln, Phoenix, AZ 85051 ",85051,0.8098262846469879,0.8600360453128815,0.6964797952382193,179900,https://www.zillow.com/homedetails/2815-W-Echo-Ln-Phoenix-AZ-85051/7750984_zpid/,33.5592,-112.12,6527,2017-11-14
395130,23830853,"3719 W Joan De Arc Ave, Phoenix, AZ 85029 ",85029,0.7908991575241089,0.8802028298377991,0.6961516765690519,205900,https://www.zillow.com/homedetails/3719-W-Joan-De-Arc-Ave-Phoenix-AZ-85029/7741718_zpid/,33.607,-112.139,6526,2017-11-13
9024049,23836147,"9545 W Briarwood Cir N, Sun City, AZ 85351 ",85351,0.812701404094696,0.8561666011810303,0.695807798918807,210000,https://www.zillow.com/homedetails/9545-W-Briarwood-Cir-N-Sun-City-AZ-85351/7904970_zpid/,33.6371,-112.266,6530,2017-11-17
393978,23854231,"3508 W Lupine Ave, Phoenix, AZ 85029 ",85029,0.7803675830364227,0.8914183378219604,0.6956339737604686,189000,https://www.zillow.com/homedetails/3508-W-Lupine-Ave-Phoenix-AZ-85029/7743821_zpid/,33.5904,-112.135,6555,2017-12-12
9023951,23835138,"4206 W North Ln, Phoenix, AZ 85051 ",85051,0.7879719734191895,0.8821739852428436,0.6951283760508744,189000,https://www.zillow.com/homedetails/4206-W-North-Ln-Phoenix-AZ-85051/7746035_zpid/,33.5817,-112.149,6529,2017-11-16
9019232,23843081,"3428 E Sheridan St, Phoenix, AZ 85008 ",85008,0.83255335688591,0.8348821997642517,0.6950839780180207,240000,https://www.zillow.com/homedetails/3428-E-Sheridan-St-Phoenix-AZ-85008/7541233_zpid/,33.4752,-112.007,6540,2017-11-27
211251,23855095,"1126 E Brown St, Phoenix, AZ 85020 ",85020,0.84084352850914,0.8261417150497437,0.694655914731019,149900,https://www.zillow.com/homedetails/1126-E-Brown-St-Phoenix-AZ-85020/7787480_zpid/,33.5777,-112.05799999999999,6547,2017-12-04
333266,23854946,"5719 N 23rd Ave, Phoenix, AZ 85015 ",85015,0.8060681521892548,0.8612039685249329,0.6941890915669457,175000,https://www.zillow.com/homedetails/5719-N-23rd-Ave-Phoenix-AZ-85015/7763242_zpid/,33.5217,-112.10799999999999,6557,2017-12-14
9024051,23836152,"9867 N Balboa Dr, Sun City, AZ 85351 ",85351,0.8092340528964996,0.8574548065662384,0.6938816282931812,140000,https://www.zillow.com/homedetails/9867-N-Balboa-Dr-Sun-City-AZ-85351/7695490_zpid/,33.5723,-112.273,6528,2017-11-15
476328,23852937,"3110 N 45th Dr, Phoenix, AZ 85031 ",85031,0.7753556966781616,0.8949101269245148,0.6938736649258992,210000,https://www.zillow.com/homedetails/3110-N-45th-Dr-Phoenix-AZ-85031/7509435_zpid/,33.4852,-112.15700000000001,6553,2017-12-10
250889,23830838,"3634 W Banff Ln, Phoenix, AZ 85053 ",85053,0.788770467042923,0.8796124458312988,0.6938123197151214,243000,https://www.zillow.com/homedetails/3634-W-Banff-Ln-Phoenix-AZ-85053/7944164_zpid/,33.621,-112.137,6527,2017-11-14
379359,23862932,"11404 N 30th Ave, Phoenix, AZ 85029 ",85029,0.8145383596420288,0.8511347472667694,0.6932819008730071,211500,https://www.zillow.com/homedetails/11404-N-30th-Ave-Phoenix-AZ-85029/7739905_zpid/,33.5896,-112.124,6552,2017-12-09
9020887,23849868,"6702 W Roma Ave, Phoenix, AZ 85033 ",85033,0.7769298553466797,0.892266184091568,0.6932282373369958,159000,https://www.zillow.com/homedetails/6702-W-Roma-Ave-Phoenix-AZ-85033/7717096_zpid/,33.5019,-112.204,6550,2017-12-07
9023654,23853716,"14429 N 38th Pl, Phoenix, AZ 85032 ",85032,0.7924745082855225,0.8746761977672577,0.6931585897346579,249000,https://www.zillow.com/homedetails/14429-N-38th-Pl-Phoenix-AZ-85032/8012626_zpid/,33.6184,-111.99700000000001,6553,2017-12-10
476880,23852925,"1615 N 54th Ave, Phoenix, AZ 85035 ",85035,0.7857218682765961,0.8818910121917725,0.6929210537156578,190000,https://www.zillow.com/homedetails/1615-N-54th-Ave-Phoenix-AZ-85035/7493812_zpid/,33.4668,-112.176,6550,2017-12-07
395893,23850367,"3831 W Columbine Dr, Phoenix, AZ 85029 ",85029,0.7735368311405182,0.895511656999588,0.692711249404856,232900,https://www.zillow.com/homedetails/3831-W-Columbine-Dr-Phoenix-AZ-85029/7743215_zpid/,33.5988,-112.14200000000001,6552,2017-12-09
476441,23858633,"3201 N 54th Dr, Phoenix, AZ 85031 ",85031,0.7763370275497437,0.8922460377216339,0.6926836367678497,192900,https://www.zillow.com/homedetails/3201-N-54th-Dr-Phoenix-AZ-85031/7496896_zpid/,33.486,-112.175,6565,2017-12-22
9019059,23857868,"4402 N 49th Dr, Phoenix, AZ 85031 ",85031,0.7836701273918152,0.8827260136604309,0.6917660075773391,169900,https://www.zillow.com/homedetails/4402-N-49th-Dr-Phoenix-AZ-85031/7720732_zpid/,33.5006,-112.166,6559,2017-12-16
331769,23835049,"5044 N 20th Ave, Phoenix, AZ 85015 ",85015,0.8162039816379547,0.84710493683815,0.6914104223124662,198900,https://www.zillow.com/homedetails/5044-N-20th-Ave-Phoenix-AZ-85015/7765233_zpid/,33.510999999999996,-112.103,6528,2017-11-15
9024752,23848642,"9850 W Royal Oak Rd, Sun City, AZ 85351 ",85351,0.8229867219924927,0.8398047387599945,0.6911481490658495,179900,https://www.zillow.com/homedetails/9850-W-Royal-Oak-Rd-Sun-City-AZ-85351/8096121_zpid/,33.6005,-112.26899999999999,6548,2017-12-05
395279,23858668,"7740 N 41st Ave, Phoenix, AZ 85051 ",85051,0.7984426915645599,0.8651876747608185,0.690802775744511,249900,https://www.zillow.com/homedetails/7740-N-41st-Ave-Phoenix-AZ-85051/7755496_zpid/,33.551,-112.146,6566,2017-12-23
9025492,23853460,"4815 N 69th Dr, Phoenix, AZ 85033 ",85033,0.7774792611598969,0.8873530924320221,0.6898986266919982,165000,https://www.zillow.com/homedetails/4815-N-69th-Dr-Phoenix-AZ-85033/7716502_zpid/,33.508,-112.208,6550,2017-12-07
429014,23853279,"6313 W Osborn Rd, Phoenix, AZ 85033 ",85033,0.772383064031601,0.8931691944599152,0.6898687591155861,160000,https://www.zillow.com/homedetails/6313-W-Osborn-Rd-Phoenix-AZ-85033/7498492_zpid/,33.4875,-112.196,6553,2017-12-10
440855,23854416,"8208 W Fairmount Ave, Phoenix, AZ 85033 ",85033,0.7687833607196808,0.8969797194004059,0.6895830831780403,159990,https://www.zillow.com/homedetails/8208-W-Fairmount-Ave-Phoenix-AZ-85033/7478788_zpid/,33.4907,-112.236,6551,2017-12-08
9024203,23844470,"3326 W Roanoke Ave, Phoenix, AZ 85009 ",85009,0.8368350863456726,0.8239477872848511,0.6895084177168442,172500,https://www.zillow.com/homedetails/3326-W-Roanoke-Ave-Phoenix-AZ-85009/7510426_zpid/,33.4791,-112.131,6543,2017-11-30
450270,23853373,"8713 W Wilshire Dr, Phoenix, AZ 85037 ",85037,0.7674777805805206,0.8978466689586639,0.6890773687940088,200000,https://www.zillow.com/homedetails/8713-W-Wilshire-Dr-Phoenix-AZ-85037/7473941_zpid/,33.4756,-112.24700000000001,6526,2017-11-13
466699,23857060,"3030 W Marshall Ave, Phoenix, AZ 85017 ",85017,0.7975849211215973,0.8630656599998474,0.6883681563537376,148000,https://www.zillow.com/homedetails/3030-W-Marshall-Ave-Phoenix-AZ-85017/7764156_zpid/,33.5177,-112.125,6556,2017-12-13
9023875,23833720,"14623 N 38th St, Phoenix, AZ 85032 ",85032,0.7865706980228424,0.8751058578491211,0.6883326254522615,244900,https://www.zillow.com/homedetails/14623-N-38th-St-Phoenix-AZ-85032/8013505_zpid/,33.6199,-112.0,6528,2017-11-15
9023953,23835041,"3306 W Pierson St, Phoenix, AZ 85017 ",85017,0.8006563186645508,0.8589032590389252,0.6876863214710909,159000,https://www.zillow.com/homedetails/3306-W-Pierson-St-Phoenix-AZ-85017/7766533_zpid/,33.507,-112.13,6527,2017-11-14
7569182,23846194,"11603 N Rio Vista Dr, Sun City, AZ 85351 ",85351,0.8455456793308258,0.8132050037384033,0.687601977321215,164000,https://www.zillow.com/homedetails/11603-N-Rio-Vista-Dr-Sun-City-AZ-85351/7686077_zpid/,33.5899,-112.266,6543,2017-11-30
417610,23855747,"4832 W Beryl Ave, Glendale, AZ 85302 ",85302,0.7804155647754669,0.8809413313865662,0.6875003266680988,217500,https://www.zillow.com/homedetails/4832-W-Beryl-Ave-Glendale-AZ-85302/7728604_zpid/,33.5797,-112.163,6557,2017-12-14
254974,23858174,"3950 W Hearn Rd, Phoenix, AZ 85053 ",85053,0.7852188646793365,0.8748222589492798,0.686926940968366,219900,https://www.zillow.com/homedetails/3950-W-Hearn-Rd-Phoenix-AZ-85053/7945048_zpid/,33.6148,-112.145,6564,2017-12-21
9026266,23865520,"11403 N Arbor Ct, Sun City, AZ 85351 ",85351,0.8169356286525726,0.8407281041145325,0.6868207422606911,190000,https://www.zillow.com/homedetails/11403-N-Arbor-Ct-Sun-City-AZ-85351/7685894_zpid/,33.5879,-112.26799999999999,6559,2017-12-16
1351717,23840567,"6001 W Northview Ave, Glendale, AZ 85301 ",85301,0.8248032033443451,0.8317407369613647,0.68602242419772,179000,https://www.zillow.com/homedetails/6001-W-Northview-Ave-Glendale-AZ-85301/7705497_zpid/,33.5431,-112.189,6534,2017-11-21
261662,23863593,"4827 W Topeka Dr, Glendale, AZ 85308 ",85308,0.7978290319442749,0.8597990572452545,0.6859726495085816,230000,https://www.zillow.com/homedetails/4827-W-Topeka-Dr-Glendale-AZ-85308/7939843_zpid/,33.6597,-112.166,6569,2017-12-26
329193,23858623,"2345 W Campus Dr, Phoenix, AZ 85015 ",85015,0.8207767903804779,0.835358738899231,0.6856430645299945,215900,https://www.zillow.com/homedetails/2345-W-Campus-Dr-Phoenix-AZ-85015/7518989_zpid/,33.4842,-112.11,6566,2017-12-23
17178,23846249,"14813 N 35th St, Phoenix, AZ 85032 ",85032,0.8241076767444611,0.8319706916809082,0.6856334338406356,199900,https://www.zillow.com/homedetails/14813-N-35th-St-Phoenix-AZ-85032/8014278_zpid/,33.6214,-112.006,6543,2017-11-30
8969573,23854200,"3002 N 54th Ln, Phoenix, AZ 85031 ",85031,0.7702706158161163,0.8891118764877319,0.684856752631628,199000,https://www.zillow.com/homedetails/3002-N-54th-Ln-Phoenix-AZ-85031/7497284_zpid/,33.4831,-112.177,6555,2017-12-12
8970322,23833063,"3323 N 63rd Ave, Phoenix, AZ 85033 ",85033,0.7739559412002563,0.8840227127075195,0.6841946306559521,165000,https://www.zillow.com/homedetails/3323-N-63rd-Ave-Phoenix-AZ-85033/7498361_zpid/,33.4857,-112.195,6528,2017-11-15
9025461,23852787,"2114 W Monroe St, Phoenix, AZ 85009 ",85009,0.8257980644702911,0.8281236886978149,0.6838629392686535,229900,https://www.zillow.com/homedetails/2114-W-Monroe-St-Phoenix-AZ-85009/7514471_zpid/,33.4505,-112.105,6550,2017-12-07
9023848,23854287,"4413 N 67th Dr, Phoenix, AZ 85033 ",85033,0.7692860066890717,0.8888607323169708,0.6837881232668463,154900,https://www.zillow.com/homedetails/4413-N-67th-Dr-Phoenix-AZ-85033/7717116_zpid/,33.5007,-112.204,6554,2017-12-11
409973,23835214,"4617 W Christy Dr, Glendale, AZ 85304 ",85304,0.7796893417835236,0.8767656981945038,0.6836048701236441,230000,https://www.zillow.com/homedetails/4617-W-Christy-Dr-Glendale-AZ-85304/7727674_zpid/,33.5841,-112.15899999999999,6530,2017-11-17
431375,23855856,"6744 W Pierson St, Phoenix, AZ 85033 ",85033,0.7687143683433533,0.8887332677841187,0.683182032570393,141900,https://www.zillow.com/homedetails/6744-W-Pierson-St-Phoenix-AZ-85033/7716621_zpid/,33.508,-112.205,6555,2017-12-12
687833,23848475,"3302 E Taylor St, Phoenix, AZ 85008 ",85008,0.8232689797878265,0.8295107781887054,0.6829104920824216,174500,https://www.zillow.com/homedetails/3302-E-Taylor-St-Phoenix-AZ-85008/7544609_zpid/,33.4543,-112.01100000000001,6543,2017-11-30
460884,23859816,"2908 N 53rd Pkwy, Phoenix, AZ 85031 ",85031,0.7780326902866364,0.8774484097957611,0.682683546861127,174900,https://www.zillow.com/homedetails/2908-N-53rd-Pkwy-Phoenix-AZ-85031/7497221_zpid/,33.4825,-112.177,6566,2017-12-23
9017497,23847149,"3044 E Roosevelt St, Phoenix, AZ 85008 ",85008,0.8266730010509491,0.8250970840454102,0.6820854826262064,239900,https://www.zillow.com/homedetails/3044-E-Roosevelt-St-Phoenix-AZ-85008/2098123425_zpid/,33.4588,-112.015,6546,2017-12-03
9023942,23834986,"3552 E Le Marche Ave, Phoenix, AZ 85032 ",85032,0.7969328165054321,0.8557623624801636,0.6819851097906593,205000,https://www.zillow.com/homedetails/3552-E-Le-Marche-Ave-Phoenix-AZ-85032/8007139_zpid/,33.6329,-112.005,6530,2017-11-17
9025833,23859188,"6226 W Maryland Ave, Glendale, AZ 85301 ",85301,0.7952603697776794,0.8568761646747589,0.6814396555729285,195000,https://www.zillow.com/homedetails/6226-W-Maryland-Ave-Glendale-AZ-85301/82775943_zpid/,33.5312,-112.194,6554,2017-12-11
9023943,23835011,"3643 E Winchcomb Dr, Phoenix, AZ 85032 ",85032,0.7880953848361969,0.8640153706073761,0.6809265260032094,248000,https://www.zillow.com/homedetails/3643-E-Winchcomb-Dr-Phoenix-AZ-85032/8012851_zpid/,33.6168,-112.00299999999999,6530,2017-11-17
332059,23858248,"115 E Hartford Ave, Phoenix, AZ 85022 ",85022,0.7854281961917877,0.8663980662822723,0.6804934703841381,215000,https://www.zillow.com/homedetails/115-E-Hartford-Ave-Phoenix-AZ-85022/79527909_zpid/,33.6426,-112.073,6562,2017-12-19
7479105,23854030,"13840 N Bolivar Dr, Sun City, AZ 85351 ",85351,0.7965198159217834,0.8540016710758209,0.6802292538422083,219900,https://www.zillow.com/homedetails/13840-N-Bolivar-Dr-Sun-City-AZ-85351/7908410_zpid/,33.6108,-112.265,6555,2017-12-12
9023846,23854245,"3711 W Catalina Dr, Phoenix, AZ 85019 ",85019,0.7815238237380981,0.8664851784706116,0.6771788098907408,168900,https://www.zillow.com/homedetails/3711-W-Catalina-Dr-Phoenix-AZ-85019/7507461_zpid/,33.4821,-112.139,6556,2017-12-13
422815,23858975,"8324 N 56th Ln, Glendale, AZ 85302 ",85302,0.7843333780765533,0.8631817102432251,0.6770222266889654,242900,https://www.zillow.com/homedetails/8324-N-56th-Ln-Glendale-AZ-85302/7732897_zpid/,33.5576,-112.181,6568,2017-12-25
1864035,23827306,"9916 W Pinehurst Dr, Sun City, AZ 85351 ",85351,0.8230182528495789,0.8224731981754303,0.6769104545779481,179000,https://www.zillow.com/homedetails/9916-W-Pinehurst-Dr-Sun-City-AZ-85351/7694613_zpid/,33.5818,-112.274,6526,2017-11-13
9016577,23857292,"9709 W Oak Ridge Dr, Sun City, AZ 85351 ",85351,0.7934836745262146,0.8526550829410553,0.6765678883155228,125000,https://www.zillow.com/homedetails/9709-W-Oak-Ridge-Dr-Sun-City-AZ-85351/7904524_zpid/,33.6274,-112.26799999999999,6564,2017-12-21
8976427,23854249,"3836 W Vernon Ave, Phoenix, AZ 85009 ",85009,0.7835566699504852,0.8598461151123047,0.673738158627259,168900,https://www.zillow.com/homedetails/3836-W-Vernon-Ave-Phoenix-AZ-85009/7510560_zpid/,33.4744,-112.14200000000001,6556,2017-12-13
1844940,23839763,"7728 W Crittenden Ln, Phoenix, AZ 85033 ",85033,0.7637277841567993,0.8812468647956848,0.6730327153455349,165500,https://www.zillow.com/homedetails/7728-W-Crittenden-Ln-Phoenix-AZ-85033/7478567_zpid/,33.4884,-112.226,6530,2017-11-17
8972923,23832954,"2018 N 22nd Pl, Phoenix, AZ 85006 ",85006,0.8160399198532104,0.8218674957752228,0.6706766853823716,220900,https://www.zillow.com/homedetails/2018-N-22nd-Pl-Phoenix-AZ-85006/7531384_zpid/,33.4701,-112.03399999999999,6528,2017-11-15
26983,23842750,"1927 W Mitchell Dr, Phoenix, AZ 85015 ",85015,0.8058614730834961,0.831627756357193,0.6701767687951303,174999,https://www.zillow.com/homedetails/1927-W-Mitchell-Dr-Phoenix-AZ-85015/7517163_zpid/,33.4885,-112.101,6540,2017-11-27
9022258,23835030,"3023 W Krall St, Phoenix, AZ 85017 ",85017,0.7888391613960266,0.847215861082077,0.6683170493773982,249900,https://www.zillow.com/homedetails/3023-W-Krall-St-Phoenix-AZ-85017/7759497_zpid/,33.534,-112.125,6530,2017-11-17
347157,23863475,"17828 N 1st St, Phoenix, AZ 85022 ",85022,0.8103459477424622,0.8130150437355042,0.6588234461447264,104990,https://www.zillow.com/homedetails/17828-N-1st-St-Phoenix-AZ-85022/7956061_zpid/,33.6483,-112.074,6567,2017-12-24
253328,23860541,"2435 W Paradise Ln, Phoenix, AZ 85023 ",85023,0.7968413531780243,0.8259710967540741,0.6581679264234532,219000,https://www.zillow.com/homedetails/2435-W-Paradise-Ln-Phoenix-AZ-85023/7961316_zpid/,33.6323,-112.113,6570,2017-12-27
220949,23862962,"9206 N 14th St, Phoenix, AZ 85020 ",85020,0.792417049407959,0.8295870721340179,0.6573789399274261,114700,https://www.zillow.com/homedetails/9206-N-14th-St-Phoenix-AZ-85020/7787080_zpid/,33.5698,-112.053,6550,2017-12-07
9026145,23863541,"19625 N 43rd Dr, Glendale, AZ 85308 ",85308,0.7987986505031586,0.8226839601993561,0.6571588371978399,189000,https://www.zillow.com/homedetails/19625-N-43rd-Dr-Glendale-AZ-85308/7938416_zpid/,33.6641,-112.15299999999999,6569,2017-12-26
9025829,23859165,"4109 E Winchcomb Dr, Phoenix, AZ 85032 ",85032,0.7828963100910187,0.8383937776088715,0.6563753948932556,185000,https://www.zillow.com/homedetails/4109-E-Winchcomb-Dr-Phoenix-AZ-85032/8030117_zpid/,33.617,-111.993,6558,2017-12-15
8952180,23860567,"3408 N 67th Ln, Phoenix, AZ 85033 ",85033,0.783255934715271,0.8379871547222137,0.6563584121513379,195000,https://www.zillow.com/homedetails/3408-N-67th-Ln-Phoenix-AZ-85033/7485759_zpid/,33.4878,-112.205,6570,2017-12-27
426855,23856978,"5908 W Britton Ave, Phoenix, AZ 85033 ",85033,0.7745761275291443,0.8468322455883026,0.6559360414545967,169900,https://www.zillow.com/homedetails/5908-W-Britton-Ave-Phoenix-AZ-85033/7489506_zpid/,33.4899,-112.18700000000001,6562,2017-12-19
503203,23857062,"4214 N 31st Ave, Phoenix, AZ 85017 ",85017,0.8272693157196045,0.7925567030906677,0.6556578414348024,135000,https://www.zillow.com/homedetails/4214-N-31st-Ave-Phoenix-AZ-85017/7768398_zpid/,33.497,-112.126,6537,2017-11-24
9022833,23859108,"8602 W Roma Ave, Phoenix, AZ 85037 ",85037,0.7815162539482117,0.8342294692993164,0.6519638897800064,235000,https://www.zillow.com/homedetails/8602-W-Roma-Ave-Phoenix-AZ-85037/7480533_zpid/,33.5006,-112.245,6569,2017-12-26
470510,23860889,"3433 W Citrus Way, Phoenix, AZ 85017 ",85017,0.781235009431839,0.8247276842594147,0.6443061401911025,139900,https://www.zillow.com/homedetails/3433-W-Citrus-Way-Phoenix-AZ-85017/7758681_zpid/,33.5298,-112.133,6570,2017-12-27
220490,23862951,"8815 N 6th St, Phoenix, AZ 85020 ",85020,0.7868684828281403,0.8181350529193878,0.6437646878391989,200000,https://www.zillow.com/homedetails/8815-N-6th-St-Phoenix-AZ-85020/7793860_zpid/,33.5647,-112.06700000000001,6551,2017-12-08
695985,23844261,"28 S 29th Ave, Phoenix, AZ 85009 ",85009,0.8035416305065155,0.7976281046867371,0.6409273877778023,119900,https://www.zillow.com/homedetails/28-S-29th-Ave-Phoenix-AZ-85009/7514868_zpid/,33.4477,-112.12200000000001,6542,2017-11-29
299353,23856265,"3241 N 26th Pl, Phoenix, AZ 85016 ",85016,0.7994458377361298,0.8015473484992981,0.6407936915061949,229000,https://www.zillow.com/homedetails/3241-N-26th-Pl-Phoenix-AZ-85016/7538978_zpid/,33.4873,-112.025,6558,2017-12-15
17301,23859405,"5852 W Orangewood Ave, Glendale, AZ 85301 ",85301,0.8153891563415527,0.7854864597320557,0.6404771417186339,185000,https://www.zillow.com/homedetails/5852-W-Orangewood-Ave-Glendale-AZ-85301/7726635_zpid/,33.5461,-112.186,6564,2017-12-21
9020903,23854046,"14832 N 35th Pl, Phoenix, AZ 85032 ",85032,0.7928280234336853,0.8077223598957062,0.6403849220793045,229900,https://www.zillow.com/homedetails/14832-N-35th-Pl-Phoenix-AZ-85032/8014288_zpid/,33.6219,-112.006,6554,2017-12-11
396390,23860864,"3924 W Sunnyside Ave, Phoenix, AZ 85029 ",85029,0.7744439244270325,0.8239414691925049,0.6380964648996184,225000,https://www.zillow.com/homedetails/3924-W-Sunnyside-Ave-Phoenix-AZ-85029/7744517_zpid/,33.5926,-112.14399999999999,6570,2017-12-27
686694,23841252,"2821 N 28th Pl, Phoenix, AZ 85008 ",85008,0.8251184225082397,0.7719279825687408,0.6369319992670874,235000,https://www.zillow.com/homedetails/2821-N-28th-Pl-Phoenix-AZ-85008/7542846_zpid/,33.4793,-112.02,6539,2017-11-26
316554,23837195,"1843 E Harvard St, Phoenix, AZ 85006 ",85006,0.7989229559898376,0.7934671938419342,0.6339191559851596,119900,https://www.zillow.com/homedetails/1843-E-Harvard-St-Phoenix-AZ-85006/7531029_zpid/,33.4737,-112.041,6529,2017-11-16
255186,23860587,"4022 W Dailey St, Phoenix, AZ 85053 ",85053,0.7689462900161743,0.8237488269805908,0.6334186044119008,239500,https://www.zillow.com/homedetails/4022-W-Dailey-St-Phoenix-AZ-85053/7945098_zpid/,33.6135,-112.146,6570,2017-12-27
318413,23837869,"2142 E Garfield St, Phoenix, AZ 85006 ",85006,0.8229429125785828,0.762205958366394,0.6272519913627903,185000,https://www.zillow.com/homedetails/2142-E-Garfield-St-Phoenix-AZ-85006/7528690_zpid/,33.458,-112.035,6529,2017-11-16
208870,23859079,"2955 N 29th St, Phoenix, AZ 85016 ",85016,0.7946410477161407,0.7831962704658508,0.6223599049303576,167000,https://www.zillow.com/homedetails/2955-N-29th-St-Phoenix-AZ-85016/7538786_zpid/,33.4821,-112.01899999999999,6569,2017-12-26
9024759,23852992,"3920 W Palm Ln, Phoenix, AZ 85009 ",85009,0.7899191081523895,0.7873359024524689,0.621931673881611,84900,https://www.zillow.com/homedetails/3920-W-Palm-Ln-Phoenix-AZ-85009/7512670_zpid/,33.4698,-112.14399999999999,6549,2017-12-06
9023845,23833062,"1333 N 32nd Ave, Phoenix, AZ 85009 ",85009,0.7857578992843628,0.7903569936752319,0.6210292510349547,125000,https://www.zillow.com/homedetails/1333-N-32nd-Ave-Phoenix-AZ-85009/7513099_zpid/,33.464,-112.12700000000001,6528,2017-11-15
1090459,23810641,"631 W Caroline Ln, Chandler, AZ 85225 ",85225,0.6532452702522278,0.9398369491100311,0.6139440418144115,230000,https://www.zillow.com/homedetails/631-W-Caroline-Ln-Chandler-AZ-85225/8183658_zpid/,33.3304,-111.851,6509,2017-10-27
361380,23818137,"8601 W Flavia Hvn, Tolleson, AZ 85353 ",85353,0.6532452702522278,0.9362458884716034,0.6115981984371697,245000,https://www.zillow.com/homedetails/8601-W-Flavia-Hvn-Tolleson-AZ-85353/59271170_zpid/,33.4241,-112.245,6515,2017-11-02
9022216,23813716,"8333 W Watkins St, Tolleson, AZ 85353 ",85353,0.6532452702522278,0.9356464147567749,0.6112065950683174,194900,https://www.zillow.com/homedetails/8333-W-Watkins-St-Tolleson-AZ-85353/54886336_zpid/,33.4265,-112.24,6510,2017-10-28
314137,23854820,"1718 W Cocopah St, Phoenix, AZ 85007 ",85007,0.8177664875984192,0.7467895746231079,0.6106994874146565,154900,https://www.zillow.com/homedetails/1718-W-Cocopah-St-Phoenix-AZ-85007/7501240_zpid/,33.4318,-112.096,6557,2017-12-14
8972668,23857766,"3022 W Polk St, Phoenix, AZ 85009 ",85009,0.7862443625926971,0.7764830589294434,0.6105054277320079,239000,https://www.zillow.com/homedetails/3022-W-Polk-St-Phoenix-AZ-85009/71629217_zpid/,33.4533,-112.125,6564,2017-12-21
350131,22705127,"6405 W Preston Ln, Phoenix, AZ 85043 ",85043,0.6532452702522278,0.928379625082016,0.6064595990833634,187000,https://www.zillow.com/homedetails/6405-W-Preston-Ln-Phoenix-AZ-85043/55257428_zpid/,33.4235,-112.198,6474,2017-09-22
43395,23752723,"7911 W Hilton Ave, Phoenix, AZ 85043 ",85043,0.6532452702522278,0.9253495037555695,0.6044801866585718,232000,https://www.zillow.com/homedetails/7911-W-Hilton-Ave-Phoenix-AZ-85043/50893343_zpid/,33.4289,-112.23,6497,2017-10-15
9024732,23848478,"1438 E Roosevelt St, Phoenix, AZ 85006 ",85006,0.8423482477664948,0.7150695323944092,0.6023375676436373,164900,https://www.zillow.com/homedetails/1438-E-Roosevelt-St-Phoenix-AZ-85006/7530669_zpid/,33.459,-112.05,6545,2017-12-02
9021527,23824183,"7384 W Greer Ave, Peoria, AZ 85345 ",85345,0.6532452702522278,0.9220194220542908,0.602304826537658,209900,https://www.zillow.com/homedetails/7384-W-Greer-Ave-Peoria-AZ-85345/7701234_zpid/,33.5882,-112.21799999999999,6522,2017-11-09
9021871,23807926,"12120 N 89th Dr, Peoria, AZ 85345 ",85345,0.6552858054637909,0.918693333864212,0.6020067012554255,249900,https://www.zillow.com/homedetails/12120-N-89th-Dr-Peoria-AZ-85345/7685583_zpid/,33.5947,-112.25200000000001,6507,2017-10-25
9018003,23819878,"1842 W Alamo Dr, Chandler, AZ 85224 ",85224,0.6537737846374512,0.9203647077083588,0.6017103182052352,244500,https://www.zillow.com/homedetails/1842-W-Alamo-Dr-Chandler-AZ-85224/8199834_zpid/,33.3482,-111.875,6516,2017-11-03
43124,23755414,"7301 W Payson Rd, Phoenix, AZ 85043 ",85043,0.6495395004749298,0.924255758523941,0.600340623702718,195000,https://www.zillow.com/homedetails/7301-W-Payson-Rd-Phoenix-AZ-85043/60975135_zpid/,33.4225,-112.21700000000001,6500,2017-10-18
9023033,23823351,"437 E Wescott Dr, Phoenix, AZ 85024 ",85024,0.6532452702522278,0.9178613722324371,0.599588600158059,225000,https://www.zillow.com/homedetails/437-E-Wescott-Dr-Phoenix-AZ-85024/2092120604_zpid/,33.6585,-112.068,6521,2017-11-08
8988163,23818314,"2650 E Hartford Ave, Phoenix, AZ 85032 ",85032,0.6532452702522278,0.9178237617015839,0.5995640312566675,249500,https://www.zillow.com/homedetails/2650-E-Hartford-Ave-Phoenix-AZ-85032/59266670_zpid/,33.6425,-112.025,6515,2017-11-02
7449241,23819586,"11935 N 68th Ave, Peoria, AZ 85345 ",85345,0.6505143046379089,0.9197263121604919,0.5982951224122708,245000,https://www.zillow.com/homedetails/11935-N-68th-Ave-Peoria-AZ-85345/7700139_zpid/,33.594,-112.204,6516,2017-11-03
9012841,23819608,"8121 W Hatcher Rd, Peoria, AZ 85345 ",85345,0.6532452702522278,0.9135923385620117,0.5967998741043061,239000,https://www.zillow.com/homedetails/8121-W-Hatcher-Rd-Peoria-AZ-85345/7682649_zpid/,33.57,-112.234,6515,2017-11-02
1421999,23820040,"8134 W Mclellan Rd, Glendale, AZ 85303 ",85303,0.6525548696517944,0.9134156405925751,0.5960538242847981,222500,https://www.zillow.com/homedetails/8134-W-Mclellan-Rd-Glendale-AZ-85303/7462575_zpid/,33.5326,-112.235,6516,2017-11-03
484854,23817893,"2833 N 73rd Dr, Phoenix, AZ 85035 ",85035,0.6505143046379089,0.9157686531543732,0.5957206086159115,190000,https://www.zillow.com/homedetails/2833-N-73rd-Dr-Phoenix-AZ-85035/92692586_zpid/,33.4796,-112.21600000000001,6514,2017-11-01
422412,23760087,"6622 W Golden Ln, Glendale, AZ 85302 ",85302,0.6532452702522278,0.9117728471755981,0.5956112999618668,190000,https://www.zillow.com/homedetails/6622-W-Golden-Ln-Glendale-AZ-85302/50187805_zpid/,33.5652,-112.20200000000001,6502,2017-10-20
9011928,23753384,"7411 W Wolf St, Phoenix, AZ 85033 ",85033,0.6532452702522278,0.9108328819274902,0.5949972721093388,229900,https://www.zillow.com/homedetails/7411-W-Wolf-St-Phoenix-AZ-85033/95184996_zpid/,33.5059,-112.219,6494,2017-10-12
9021813,23820289,"8528 W Eva St, Peoria, AZ 85345 ",85345,0.6532452702522278,0.9095388352870941,0.5941519422620143,186000,https://www.zillow.com/homedetails/8528-W-Eva-St-Peoria-AZ-85345/7696910_zpid/,33.5674,-112.243,6516,2017-11-03
8945979,23814510,"9605 W Campana Dr, Sun City, AZ 85351 ",85351,0.6552858054637909,0.9066466689109802,0.5941126927083946,194300,https://www.zillow.com/homedetails/9605-W-Campana-Dr-Sun-City-AZ-85351/7905011_zpid/,33.6372,-112.26700000000001,6512,2017-10-30
264257,23752112,"7723 W Oraibi Dr, Glendale, AZ 85308 ",85308,0.6552858054637909,0.9055477380752563,0.5933925789305583,244995,https://www.zillow.com/homedetails/7723-W-Oraibi-Dr-Glendale-AZ-85308/7891683_zpid/,33.6615,-112.22399999999999,6495,2017-10-13
410898,23823665,"5031 W Windrose Dr, Glendale, AZ 85304 ",85304,0.6505143046379089,0.9114344120025635,0.592901122746909,229000,https://www.zillow.com/homedetails/5031-W-Windrose-Dr-Glendale-AZ-85304/7954728_zpid/,33.6006,-112.167,6521,2017-11-08
345142,23753531,"1739 E Bluefield Ave, Phoenix, AZ 85022 ",85022,0.6537737846374512,0.9067873656749725,0.5928338079187512,224900,https://www.zillow.com/homedetails/1739-E-Bluefield-Ave-Phoenix-AZ-85022/8001407_zpid/,33.6526,-112.044,6498,2017-10-16
484005,23821708,"2696 N 73rd Gln, Phoenix, AZ 85035 ",85035,0.6505143046379089,0.9112022817134857,0.5927501186733242,210000,https://www.zillow.com/homedetails/2696-N-73rd-Gln-Phoenix-AZ-85035/95155175_zpid/,33.4779,-112.21799999999999,6513,2017-10-31
9021585,23824122,"12612 N 79th Ave, Peoria, AZ 85381 ",85381,0.6505143046379089,0.9105774760246277,0.5923436736351029,225000,https://www.zillow.com/homedetails/12612-N-79th-Ave-Peoria-AZ-85381/8101178_zpid/,33.5997,-112.229,6522,2017-11-09
1864574,23822334,"9873 W Escuda Dr, Peoria, AZ 85382 ",85382,0.6552858054637909,0.9032394886016846,0.5918800158150574,245000,https://www.zillow.com/homedetails/9873-W-Escuda-Dr-Peoria-AZ-85382/7896125_zpid/,33.6652,-112.271,6519,2017-11-06
9006564,23814082,"16612 N 28th Way, Phoenix, AZ 85032 ",85032,0.6558142900466919,0.9023401141166687,0.591767541320074,194900,https://www.zillow.com/homedetails/16612-N-28th-Way-Phoenix-AZ-85032/8005824_zpid/,33.6376,-112.021,6511,2017-10-29
9019398,23819886,"2116 E Vista Dr, Phoenix, AZ 85022 ",85022,0.6558142900466919,0.9020037353038788,0.5915469392877775,249900,https://www.zillow.com/homedetails/2116-E-Vista-Dr-Phoenix-AZ-85022/8010925_zpid/,33.6222,-112.037,6516,2017-11-03
258476,23717515,"614 W Rosemonte Dr, Phoenix, AZ 85027 ",85027,0.6536551117897034,0.9046069085597992,0.5913009299403935,234900,https://www.zillow.com/homedetails/614-W-Rosemonte-Dr-Phoenix-AZ-85027/7968459_zpid/,33.657,-112.08200000000001,6494,2017-10-12
8969477,23756066,"9324 W Mountain View Rd, Peoria, AZ 85345 ",85345,0.6552858054637909,0.9020165801048279,0.5910786612356862,214000,https://www.zillow.com/homedetails/9324-W-Mountain-View-Rd-Peoria-AZ-85345/7697441_zpid/,33.5733,-112.26100000000001,6500,2017-10-18
246567,22745687,"3407 W Port Au Prince Ln, Phoenix, AZ 85053 ",85053,0.6536551117897034,0.9033275246620178,0.5904646541156673,175000,https://www.zillow.com/homedetails/3407-W-Port-Au-Prince-Ln-Phoenix-AZ-85053/7943671_zpid/,33.6229,-112.132,6491,2017-10-09
350177,22541766,"6408 W Cordes Rd, Phoenix, AZ 85043 ",85043,0.6532452702522278,0.9038265943527222,0.5904204478890946,169900,https://www.zillow.com/homedetails/6408-W-Cordes-Rd-Phoenix-AZ-85043/49641248_zpid/,33.4216,-112.197,6442,2017-08-21
1114416,23820184,"1617 W Stottler Dr, Chandler, AZ 85224 ",85224,0.6537737846374512,0.9029505848884583,0.5903254212231275,229900,https://www.zillow.com/homedetails/1617-W-Stottler-Dr-Chandler-AZ-85224/8193816_zpid/,33.3325,-111.87,6516,2017-11-03
9023645,23828731,"7328 W Heatherbrae Dr, Phoenix, AZ 85033 ",85033,0.6505143046379089,0.9063102304935455,0.5895677693757317,174900,https://www.zillow.com/homedetails/7328-W-Heatherbrae-Dr-Phoenix-AZ-85033/7711026_zpid/,33.4977,-112.21700000000001,6519,2017-11-06
9021916,23821887,"5114 W Vogel Ave, Glendale, AZ 85302 ",85302,0.6525548696517944,0.9032903015613556,0.5894464849931005,152000,https://www.zillow.com/homedetails/5114-W-Vogel-Ave-Glendale-AZ-85302/92348849_zpid/,33.5721,-112.17,6518,2017-11-05
9023660,23829074,"3140 E Michigan Ave, Phoenix, AZ 85032 ",85032,0.6518514305353165,0.9041354656219482,0.5893619966633814,205000,https://www.zillow.com/homedetails/3140-E-Michigan-Ave-Phoenix-AZ-85032/7999282_zpid/,33.652,-112.014,6523,2017-11-10
8970849,23830064,"3715 E Delcoa Dr, Phoenix, AZ 85032 ",85032,0.6558142900466919,0.8982453048229218,0.5890821068702188,220000,https://www.zillow.com/homedetails/3715-E-Delcoa-Dr-Phoenix-AZ-85032/7813615_zpid/,33.6109,-112.00200000000001,6507,2017-10-25
1109968,23827087,"1231 W Tulsa St, Chandler, AZ 85224 ",85224,0.6523799747228622,0.9022905826568604,0.5886363075063592,245000,https://www.zillow.com/homedetails/1231-W-Tulsa-St-Chandler-AZ-85224/8185626_zpid/,33.3123,-111.865,6524,2017-11-11
450658,23828592,"8740 W Earll Dr, Phoenix, AZ 85037 ",85037,0.6505143046379089,0.9047433435916901,0.588548487032325,129999,https://www.zillow.com/homedetails/8740-W-Earll-Dr-Phoenix-AZ-85037/7479995_zpid/,33.4838,-112.249,6509,2017-10-27
432541,22734473,"7113 W Sheila Ln, Phoenix, AZ 85033 ",85033,0.6532452702522278,0.899395227432251,0.5875256784075447,189000,https://www.zillow.com/homedetails/7113-W-Sheila-Ln-Phoenix-AZ-85033/55257199_zpid/,33.4878,-112.213,6485,2017-10-03
9021086,23815044,"8137 W Aster Dr, Peoria, AZ 85381 ",85381,0.6505143046379089,0.9025776982307434,0.5871397037462565,239000,https://www.zillow.com/homedetails/8137-W-Aster-Dr-Peoria-AZ-85381/8100990_zpid/,33.6013,-112.235,6512,2017-10-30
448364,23512346,"8402 W Fairmount Ave, Phoenix, AZ 85037 ",85037,0.6505143046379089,0.902316689491272,0.5869699138275948,170000,https://www.zillow.com/homedetails/8402-W-Fairmount-Ave-Phoenix-AZ-85037/7470144_zpid/,33.4902,-112.24,6492,2017-10-10
556782,23855491,"2520 W Jefferson St, Phoenix, AZ 85009 ",85009,0.7904305458068848,0.7425529956817627,0.586936569667273,148900,https://www.zillow.com/homedetails/2520-W-Jefferson-St-Phoenix-AZ-85009/7515080_zpid/,33.4476,-112.11399999999999,6554,2017-12-11
9023830,23833574,"4019 W Woodridge Dr, Glendale, AZ 85308 ",85308,0.6522613316774368,0.899582028388977,0.586762571790084,217500,https://www.zillow.com/homedetails/4019-W-Woodridge-Dr-Glendale-AZ-85308/7946693_zpid/,33.64,-112.146,6524,2017-11-11
1349271,23815006,"5556 W Gardenia Ave, Glendale, AZ 85301 ",85301,0.6525548696517944,0.8990980386734009,0.5867108034307051,174900,https://www.zillow.com/homedetails/5556-W-Gardenia-Ave-Glendale-AZ-85301/2136646466_zpid/,33.5451,-112.18,6512,2017-10-30
9019482,23822508,"8505 W Oraibi Dr, Peoria, AZ 85382 ",85382,0.6552858054637909,0.8953279256820679,0.586695680934799,240000,https://www.zillow.com/homedetails/8505-W-Oraibi-Dr-Peoria-AZ-85382/8105887_zpid/,33.6616,-112.242,6518,2017-11-05
1356715,23831093,"7327 N 47th Ave, Glendale, AZ 85301 ",85301,0.6491206139326096,0.9035562872886658,0.5865170119274881,189500,https://www.zillow.com/homedetails/7327-N-47th-Ave-Glendale-AZ-85301/7725576_zpid/,33.545,-112.16,6523,2017-11-10
8989019,22747254,"2049 N 77th Gln, Phoenix, AZ 85035 ",85035,0.6505143046379089,0.90140101313591,0.5863742532600131,168250,https://www.zillow.com/homedetails/2049-N-77th-Gln-Phoenix-AZ-85035/95149994_zpid/,33.4706,-112.226,6487,2017-10-05
1356244,23823740,"6825 N 60th Ave, Glendale, AZ 85301 ",85301,0.6505143046379089,0.9013643264770508,0.5863503880636358,182000,https://www.zillow.com/homedetails/6825-N-60th-Ave-Glendale-AZ-85301/7707716_zpid/,33.5378,-112.189,6521,2017-11-08
1092802,23820224,"731 W Palomino Dr, Chandler, AZ 85225 ",85225,0.6537737846374512,0.8959442973136902,0.585744894079113,245900,https://www.zillow.com/homedetails/731-W-Palomino-Dr-Chandler-AZ-85225/8177603_zpid/,33.3404,-111.855,6516,2017-11-03
450692,23753402,"8742 W Edgemont Ave, Phoenix, AZ 85037 ",85037,0.6495395004749298,0.9013049602508545,0.5854331736569165,190000,https://www.zillow.com/homedetails/8742-W-Edgemont-Ave-Phoenix-AZ-85037/7473770_zpid/,33.4794,-112.249,6494,2017-10-12
9023260,23825739,"6913 W Beryl Ave, Peoria, AZ 85345 ",85345,0.647080659866333,0.9044733047485352,0.585267182868165,197000,https://www.zillow.com/homedetails/6913-W-Beryl-Ave-Peoria-AZ-85345/7701889_zpid/,33.5787,-112.208,6524,2017-11-11
457725,23828275,"5216 W Mulberry Dr, Phoenix, AZ 85031 ",85031,0.6491206139326096,0.9014692902565002,0.5851622991326932,175000,https://www.zillow.com/homedetails/5216-W-Mulberry-Dr-Phoenix-AZ-85031/7497059_zpid/,33.4869,-112.17200000000001,6523,2017-11-10
1469883,23825764,"8507 W Oraibi Dr, Peoria, AZ 85382 ",85382,0.6551382541656494,0.8924183249473572,0.5846573833914448,237500,https://www.zillow.com/homedetails/8507-W-Oraibi-Dr-Peoria-AZ-85382/8105886_zpid/,33.6613,-112.242,6524,2017-11-11
1850559,23861126,"13093 N 99th Dr, Sun City, AZ 85351 ",85351,0.7955330908298492,0.7344256639480591,0.5842599184253636,92500,https://www.zillow.com/homedetails/13093-N-99th-Dr-Sun-City-AZ-85351/7916579_zpid/,33.6043,-112.27,6551,2017-12-08
348914,23822646,"3525 W Melvin St, Phoenix, AZ 85009 ",85009,0.6505143046379089,0.8976957201957703,0.5839639071995784,159900,https://www.zillow.com/homedetails/3525-W-Melvin-St-Phoenix-AZ-85009/7505973_zpid/,33.4521,-112.13600000000001,6520,2017-11-07
413653,23822290,"6114 W Shaw Butte Dr, Glendale, AZ 85304 ",85304,0.6495395004749298,0.8986994028091431,0.5837407611777685,249999,https://www.zillow.com/homedetails/6114-W-Shaw-Butte-Dr-Glendale-AZ-85304/7698065_zpid/,33.596,-112.191,6519,2017-11-06
