property_id,transaction_id,address,zipcode,ypred,list,url,lat,long,date_listed,transaction_date
43124,23755414,"7301 W Payson Rd, Phoenix, AZ 85043 ",85043,0.7743655025959015,195000,https://www.zillow.com/homedetails/7301-W-Payson-Rd-Phoenix-AZ-85043/60975135_zpid/,33.4225,-112.21700000000001,2017-10-18,2017-10-18
359488,23526402,"2409 S 90th Gln, Tolleson, AZ 85353 ",85353,0.7627453505992889,204900,https://www.zillow.com/homedetails/2409-S-90th-Gln-Tolleson-AZ-85353/67772730_zpid/,33.425,-112.25399999999999,2017-10-11,2017-10-11
1090459,23810641,"631 W Caroline Ln, Chandler, AZ 85225 ",85225,0.7537960052490235,230000,https://www.zillow.com/homedetails/631-W-Caroline-Ln-Chandler-AZ-85225/8183658_zpid/,33.3304,-111.851,2017-10-27,2017-10-27
380868,23801450,"12018 N 42nd Dr, Phoenix, AZ 85029 ",85029,0.751991730928421,189000,https://www.zillow.com/homedetails/12018-N-42nd-Dr-Phoenix-AZ-85029/7744164_zpid/,33.595,-112.15100000000001,2017-10-21,2017-10-21
424819,23757935,"9632 N 53rd Ave, Glendale, AZ 85302 ",85302,0.7498792469501495,195000,https://www.zillow.com/homedetails/9632-N-53rd-Ave-Glendale-AZ-85302/7734288_zpid/,33.5739,-112.17399999999999,2017-10-20,2017-10-20
409540,23803892,"4430 W Poinsettia Dr, Glendale, AZ 85304 ",85304,0.7492573499679566,214900,https://www.zillow.com/homedetails/4430-W-Poinsettia-Dr-Glendale-AZ-85304/7727257_zpid/,33.5933,-112.154,2017-10-24,2017-10-24
397538,23810931,"4046 W Cactus Rd, Phoenix, AZ 85029 ",85029,0.7423061668872833,225000,https://www.zillow.com/homedetails/4046-W-Cactus-Rd-Phoenix-AZ-85029/7742480_zpid/,33.5968,-112.146,2017-10-27,2017-10-27
401493,23754956,"11221 N 58th Ave, Glendale, AZ 85304 ",85304,0.74195237159729,209000,https://www.zillow.com/homedetails/11221-N-58th-Ave-Glendale-AZ-85304/7736227_zpid/,33.588,-112.184,2017-10-17,2017-10-17
1859,23650472,"9128 W Alvarado St, Phoenix, AZ 85037 ",85037,0.739539498090744,214000,https://www.zillow.com/homedetails/9128-W-Alvarado-St-Phoenix-AZ-85037/60047210_zpid/,33.4712,-112.257,2017-10-12,2017-10-12
43395,23752723,"7911 W Hilton Ave, Phoenix, AZ 85043 ",85043,0.7390223801136017,232000,https://www.zillow.com/homedetails/7911-W-Hilton-Ave-Phoenix-AZ-85043/50893343_zpid/,33.4289,-112.23,2017-10-15,2017-10-15
412062,23570538,"5339 W Cholla St, Glendale, AZ 85304 ",85304,0.7363116919994355,209000,https://www.zillow.com/homedetails/5339-W-Cholla-St-Glendale-AZ-85304/7736846_zpid/,33.5891,-112.175,2017-10-12,2017-10-12
359160,23759845,"15 N 86th Ln, Tolleson, AZ 85353 ",85353,0.7347509801387787,219000,https://www.zillow.com/homedetails/15-N-86th-Ln-Tolleson-AZ-85353/95078499_zpid/,33.4485,-112.24600000000001,2017-10-21,2017-10-21
8987452,23806670,"13360 N 79th Ave, Peoria, AZ 85381 ",85381,0.7321046888828278,219000,https://www.zillow.com/homedetails/13360-N-79th-Ave-Peoria-AZ-85381/8100973_zpid/,33.6063,-112.229,2017-10-25,2017-10-25
240420,23756210,"3114 W Lisbon Ln, Phoenix, AZ 85053 ",85053,0.731456458568573,209999,https://www.zillow.com/homedetails/3114-W-Lisbon-Ln-Phoenix-AZ-85053/7953236_zpid/,33.6198,-112.125,2017-10-18,2017-10-18
402515,23808878,"15205 N 51st Dr, Glendale, AZ 85306 ",85306,0.7312740206718444,189900,https://www.zillow.com/homedetails/15205-N-51st-Dr-Glendale-AZ-85306/7910980_zpid/,33.6226,-112.169,2017-10-26,2017-10-26
449589,23828600,"8551 W Sheridan St, Phoenix, AZ 85037 ",85037,0.7278997361660003,220000,https://www.zillow.com/homedetails/8551-W-Sheridan-St-Phoenix-AZ-85037/7487376_zpid/,33.4745,-112.245,2017-10-23,2017-10-23
8958977,23756263,"2545 E Piute Ave, Phoenix, AZ 85050 ",85050,0.7275186657905579,159000,https://www.zillow.com/homedetails/2545-E-Piute-Ave-Phoenix-AZ-85050/7994601_zpid/,33.6629,-112.027,2017-10-13,2017-10-13
448390,23828570,"8403 W Lewis Ave, Phoenix, AZ 85037 ",85037,0.7270205616950989,160000,https://www.zillow.com/homedetails/8403-W-Lewis-Ave-Phoenix-AZ-85037/81985441_zpid/,33.4738,-112.24,2017-10-19,2017-10-19
524898,23810672,"9134 W Cypress St, Phoenix, AZ 85037 ",85037,0.7257576048374176,214900,https://www.zillow.com/homedetails/9134-W-Cypress-St-Phoenix-AZ-85037/67762994_zpid/,33.4719,-112.257,2017-10-27,2017-10-27
8966098,22734768,"7726 W Piute Ave, Glendale, AZ 85308 ",85308,0.7256409347057342,245000,https://www.zillow.com/homedetails/7726-W-Piute-Ave-Glendale-AZ-85308/7891754_zpid/,33.6608,-112.22399999999999,2017-10-02,2017-10-02
9016183,23796927,"5349 W Sanna St, Glendale, AZ 85302 ",85302,0.7248516917228699,215000,https://www.zillow.com/homedetails/5349-W-Sanna-St-Glendale-AZ-85302/7734030_zpid/,33.5697,-112.175,2017-10-23,2017-10-23
359302,23814410,"2021 S 83rd Dr, Tolleson, AZ 85353 ",85353,0.724727463722229,197900,https://www.zillow.com/homedetails/2021-S-83rd-Dr-Tolleson-AZ-85353/59271300_zpid/,33.4288,-112.23899999999999,2017-10-29,2017-10-29
392666,23759961,"4208 W El Camino Dr, Phoenix, AZ 85051 ",85051,0.7245788693428039,215000,https://www.zillow.com/homedetails/4208-W-El-Camino-Dr-Phoenix-AZ-85051/7752812_zpid/,33.5573,-112.15,2017-10-21,2017-10-21
434848,23811348,"2008 N 89th Dr, Phoenix, AZ 85037 ",85037,0.7238111674785614,170000,https://www.zillow.com/homedetails/2008-N-89th-Dr-Phoenix-AZ-85037/7486878_zpid/,33.469,-112.25200000000001,2017-10-27,2017-10-27
501566,23807411,"7828 W Bonitos Dr, Phoenix, AZ 85035 ",85035,0.7236067533493042,162999,https://www.zillow.com/homedetails/7828-W-Bonitos-Dr-Phoenix-AZ-85035/82823203_zpid/,33.4717,-112.228,2017-10-19,2017-10-19
629600,23810385,"1646 W Pecos Ave, Mesa, AZ 85202 ",85202,0.7216492533683777,214900,https://www.zillow.com/homedetails/1646-W-Pecos-Ave-Mesa-AZ-85202/8191480_zpid/,33.3602,-111.87,2017-10-27,2017-10-27
352598,23759699,"7130 W Whyman Ave, Phoenix, AZ 85043 ",85043,0.7216115653514862,184900,https://www.zillow.com/homedetails/7130-W-Whyman-Ave-Phoenix-AZ-85043/50186003_zpid/,33.428000000000004,-112.214,2017-10-21,2017-10-21
9022078,23810726,"1132 E Villa Maria Dr, Phoenix, AZ 85022 ",85022,0.7193640947341919,215000,https://www.zillow.com/homedetails/1132-E-Villa-Maria-Dr-Phoenix-AZ-85022/8002438_zpid/,33.6518,-112.057,2017-10-27,2017-10-27
9022216,23813716,"8333 W Watkins St, Tolleson, AZ 85353 ",85353,0.7171031713485718,194900,https://www.zillow.com/homedetails/8333-W-Watkins-St-Tolleson-AZ-85353/54886336_zpid/,33.4265,-112.24,2017-10-28,2017-10-28
9022109,23811012,"13037 N 56th Ave, Glendale, AZ 85304 ",85304,0.7170336544513702,214900,https://www.zillow.com/homedetails/13037-N-56th-Ave-Glendale-AZ-85304/7896749_zpid/,33.6024,-112.177,2017-10-27,2017-10-27
522482,23828673,"9013 W Virginia Ave, Phoenix, AZ 85037 ",85037,0.7169427335262298,174900,https://www.zillow.com/homedetails/9013-W-Virginia-Ave-Phoenix-AZ-85037/7473884_zpid/,33.4743,-112.25399999999999,2017-10-26,2017-10-26
640835,22743106,"622 W Portobello Ave, Mesa, AZ 85210 ",85210,0.7160261690616607,240000,https://www.zillow.com/homedetails/622-W-Portobello-Ave-Mesa-AZ-85210/8190949_zpid/,33.3608,-111.84700000000001,2017-10-06,2017-10-06
345142,23753531,"1739 E Bluefield Ave, Phoenix, AZ 85022 ",85022,0.714903998374939,224900,https://www.zillow.com/homedetails/1739-E-Bluefield-Ave-Phoenix-AZ-85022/8001407_zpid/,33.6526,-112.044,2017-10-16,2017-10-16
8945113,23759637,"7920 W Sweetwater Ave, Peoria, AZ 85381 ",85381,0.7144081711769104,229900,https://www.zillow.com/homedetails/7920-W-Sweetwater-Ave-Peoria-AZ-85381/8100881_zpid/,33.6029,-112.23,2017-10-19,2017-10-19
8458,23753315,"2712 W Saint Moritz Ln, Phoenix, AZ 85053 ",85053,0.7142838120460511,235000,https://www.zillow.com/homedetails/2712-W-Saint-Moritz-Ln-Phoenix-AZ-85053/7943035_zpid/,33.6179,-112.118,2017-10-11,2017-10-11
520341,22734448,"8921 W Edgemont Ave, Phoenix, AZ 85037 ",85037,0.7132659137248993,199000,https://www.zillow.com/homedetails/8921-W-Edgemont-Ave-Phoenix-AZ-85037/7487901_zpid/,33.4783,-112.25200000000001,2017-10-02,2017-10-02
8959592,22744660,"8143 W Windrose Dr, Peoria, AZ 85381 ",85381,0.7126763343811036,237500,https://www.zillow.com/homedetails/8143-W-Windrose-Dr-Peoria-AZ-85381/8101003_zpid/,33.6006,-112.235,2017-10-07,2017-10-07
1867405,23806135,"7571 W Comet Ave, Peoria, AZ 85345 ",85345,0.7122311472892762,212000,https://www.zillow.com/homedetails/7571-W-Comet-Ave-Peoria-AZ-85345/7682477_zpid/,33.5791,-112.22200000000001,2017-10-25,2017-10-25
1413516,22924606,"7311 N 73rd Dr, Glendale, AZ 85303 ",85303,0.7119681060314178,248700,https://www.zillow.com/homedetails/7311-N-73rd-Dr-Glendale-AZ-85303/59270763_zpid/,33.5425,-112.21600000000001,2017-10-07,2017-10-07
8967033,23805180,"9409 S Calle Maravilla, Guadalupe, AZ 85283 ",85283,0.7114834666252137,119997,https://www.zillow.com/homedetails/9409-S-Calle-Maravilla-Guadalupe-AZ-85283/8143091_zpid/,33.3614,-111.96600000000001,2017-10-20,2017-10-20
629569,23810381,"1645 W Peralta Ave, Mesa, AZ 85202 ",85202,0.7113257825374604,229900,https://www.zillow.com/homedetails/1645-W-Peralta-Ave-Mesa-AZ-85202/8191627_zpid/,33.3572,-111.87,2017-10-27,2017-10-27
421276,23815020,"6266 W Cochise Dr, Glendale, AZ 85302 ",85302,0.7110100448131561,232000,https://www.zillow.com/homedetails/6266-W-Cochise-Dr-Glendale-AZ-85302/7703780_zpid/,33.5806,-112.193,2017-10-30,2017-10-30
1118311,23754280,"2019 W Western Dr, Chandler, AZ 85224 ",85224,0.7107909739017486,236500,https://www.zillow.com/homedetails/2019-W-Western-Dr-Chandler-AZ-85224/8197093_zpid/,33.3558,-111.87899999999999,2017-10-12,2017-10-12
9012332,23806934,"2231 E Claire Dr, Phoenix, AZ 85022 ",85022,0.7099767029285431,217500,https://www.zillow.com/homedetails/2231-E-Claire-Dr-Phoenix-AZ-85022/8014060_zpid/,33.6202,-112.03399999999999,2017-10-25,2017-10-25
349893,23809734,"18437 N 8th Pl, Phoenix, AZ 85022 ",85022,0.708854365348816,215000,https://www.zillow.com/homedetails/18437-N-8th-Pl-Phoenix-AZ-85022/8002699_zpid/,33.6545,-112.061,2017-10-27,2017-10-27
409707,23564615,"4513 W Sunnyside Ave, Glendale, AZ 85304 ",85304,0.7088454604148865,239900,https://www.zillow.com/homedetails/4513-W-Sunnyside-Ave-Glendale-AZ-85304/7726914_zpid/,33.5922,-112.156,2017-10-13,2017-10-13
395310,23807125,"3734 W Sierra St, Phoenix, AZ 85029 ",85029,0.7076226234436035,219000,https://www.zillow.com/homedetails/3734-W-Sierra-St-Phoenix-AZ-85029/7743992_zpid/,33.5908,-112.14,2017-10-24,2017-10-24
9019405,22734801,"12802 N 21st Ave, Phoenix, AZ 85029 ",85029,0.7074039936065674,219900,https://www.zillow.com/homedetails/12802-N-21st-Ave-Phoenix-AZ-85029/7739025_zpid/,33.6019,-112.104,2017-10-03,2017-10-03
450692,23753402,"8742 W Edgemont Ave, Phoenix, AZ 85037 ",85037,0.7067178666591645,190000,https://www.zillow.com/homedetails/8742-W-Edgemont-Ave-Phoenix-AZ-85037/7473770_zpid/,33.4794,-112.249,2017-10-12,2017-10-12
258476,23717515,"614 W Rosemonte Dr, Phoenix, AZ 85027 ",85027,0.7063392102718353,234900,https://www.zillow.com/homedetails/614-W-Rosemonte-Dr-Phoenix-AZ-85027/7968459_zpid/,33.657,-112.08200000000001,2017-10-12,2017-10-12
422412,23760087,"6622 W Golden Ln, Glendale, AZ 85302 ",85302,0.7060130655765533,190000,https://www.zillow.com/homedetails/6622-W-Golden-Ln-Glendale-AZ-85302/50187805_zpid/,33.5652,-112.20200000000001,2017-10-20,2017-10-20
354125,22802972,"2231 E Everett Dr, Phoenix, AZ 85022 ",85022,0.7050379037857055,206900,https://www.zillow.com/homedetails/2231-E-Everett-Dr-Phoenix-AZ-85022/8014080_zpid/,33.6195,-112.03399999999999,2017-10-10,2017-10-10
353672,22728286,"2201 E Nisbet Rd, Phoenix, AZ 85022 ",85022,0.7032491624355316,199900,https://www.zillow.com/homedetails/2201-E-Nisbet-Rd-Phoenix-AZ-85022/8010593_zpid/,33.6231,-112.035,2017-09-28,2017-09-28
9012587,22734105,"4946 W Charleston Ave, Glendale, AZ 85308 ",85308,0.7028996348381042,245000,https://www.zillow.com/homedetails/4946-W-Charleston-Ave-Glendale-AZ-85308/7949618_zpid/,33.6487,-112.167,2017-10-02,2017-10-02
402261,23811006,"14814 N 62nd Ave, Glendale, AZ 85306 ",85306,0.7028304636478424,200000,https://www.zillow.com/homedetails/14814-N-62nd-Ave-Glendale-AZ-85306/8098781_zpid/,33.6185,-112.191,2017-10-27,2017-10-27
527735,23828743,"9507 W Monte Vista Rd, Phoenix, AZ 85037 ",85037,0.7020765662193298,214900,https://www.zillow.com/homedetails/9507-W-Monte-Vista-Rd-Phoenix-AZ-85037/60974973_zpid/,33.4697,-112.265,2017-10-24,2017-10-24
394541,22734836,"3622 W Charter Oak Rd, Phoenix, AZ 85029 ",85029,0.7016431629657746,223000,https://www.zillow.com/homedetails/3622-W-Charter-Oak-Rd-Phoenix-AZ-85029/7742894_zpid/,33.5978,-112.137,2017-10-03,2017-10-03
1115786,23756148,"1723 N Longmore St, Chandler, AZ 85224 ",85224,0.7016261637210846,229900,https://www.zillow.com/homedetails/1723-N-Longmore-St-Chandler-AZ-85224/8193731_zpid/,33.3324,-111.868,2017-10-18,2017-10-18
469895,23526992,"3401 W Tuckey Ln, Phoenix, AZ 85017 ",85017,0.701608169078827,169000,https://www.zillow.com/homedetails/3401-W-Tuckey-Ln-Phoenix-AZ-85017/7760733_zpid/,33.5332,-112.132,2017-10-11,2017-10-11
422815,22722094,"8324 N 56th Ln, Glendale, AZ 85302 ",85302,0.7007887780666351,215000,https://www.zillow.com/homedetails/8324-N-56th-Ln-Glendale-AZ-85302/7732897_zpid/,33.5576,-112.181,2017-09-26,2017-09-26
501356,23828460,"7762 W Pipestone Pl, Phoenix, AZ 85035 ",85035,0.6995910108089447,185000,https://www.zillow.com/homedetails/7762-W-Pipestone-Pl-Phoenix-AZ-85035/95118267_zpid/,33.4726,-112.226,2017-10-25,2017-10-25
404051,23755789,"13002 N 55th Dr, Glendale, AZ 85304 ",85304,0.699304860830307,249900,https://www.zillow.com/homedetails/13002-N-55th-Dr-Glendale-AZ-85304/7896792_zpid/,33.6019,-112.175,2017-10-18,2017-10-18
378956,23753283,"11206 N 37th Ave, Phoenix, AZ 85029 ",85029,0.6991707384586334,224900,https://www.zillow.com/homedetails/11206-N-37th-Ave-Phoenix-AZ-85029/7743882_zpid/,33.5877,-112.139,2017-10-11,2017-10-11
247335,23797270,"2232 W Sequoia Dr, Phoenix, AZ 85027 ",85027,0.6985808551311493,229995,https://www.zillow.com/homedetails/2232-W-Sequoia-Dr-Phoenix-AZ-85027/7970402_zpid/,33.663000000000004,-112.10799999999999,2017-10-24,2017-10-24
8982670,23753363,"1934 N Iowa St, Chandler, AZ 85225 ",85225,0.698424756526947,215500,https://www.zillow.com/homedetails/1934-N-Iowa-St-Chandler-AZ-85225/8182675_zpid/,33.3331,-111.85,2017-10-13,2017-10-13
9019581,23796917,"18428 N 55th Dr, Glendale, AZ 85308 ",85308,0.6979574143886567,199995,https://www.zillow.com/homedetails/18428-N-55th-Dr-Glendale-AZ-85308/7901123_zpid/,33.6531,-112.178,2017-10-23,2017-10-23
1347860,22924091,"5172 W Morten Ave, Glendale, AZ 85301 ",85301,0.6972818434238434,239000,https://www.zillow.com/homedetails/5172-W-Morten-Ave-Glendale-AZ-85301/52425448_zpid/,33.5473,-112.17,2017-10-10,2017-10-10
345778,23810944,"17441 N 20th St, Phoenix, AZ 85022 ",85022,0.6968203663825989,235000,https://www.zillow.com/homedetails/17441-N-20th-St-Phoenix-AZ-85022/8000666_zpid/,33.6457,-112.039,2017-10-27,2017-10-27
8989019,22747254,"2049 N 77th Gln, Phoenix, AZ 85035 ",85035,0.6968034625053405,168250,https://www.zillow.com/homedetails/2049-N-77th-Gln-Phoenix-AZ-85035/95149994_zpid/,33.4706,-112.226,2017-10-05,2017-10-05
9021871,23807926,"12120 N 89th Dr, Peoria, AZ 85345 ",85345,0.6961508989334106,249900,https://www.zillow.com/homedetails/12120-N-89th-Dr-Peoria-AZ-85345/7685583_zpid/,33.5947,-112.25200000000001,2017-10-25,2017-10-25
1112291,23816172,"1411 W El Alba Way, Chandler, AZ 85224 ",85224,0.695649391412735,239000,https://www.zillow.com/homedetails/1411-W-El-Alba-Way-Chandler-AZ-85224/8176088_zpid/,33.3384,-111.866,2017-10-31,2017-10-31
390375,23759015,"3010 W Sahuaro Dr, Phoenix, AZ 85029 ",85029,0.6949541389942169,215000,https://www.zillow.com/homedetails/3010-W-Sahuaro-Dr-Phoenix-AZ-85029/7739762_zpid/,33.5843,-112.124,2017-10-20,2017-10-20
1093584,23758033,"781 W Del Rio St, Chandler, AZ 85225 ",85225,0.6945147454738617,249900,https://www.zillow.com/homedetails/781-W-Del-Rio-St-Chandler-AZ-85225/8186554_zpid/,33.3158,-111.854,2017-10-20,2017-10-20
9018003,23819878,"1842 W Alamo Dr, Chandler, AZ 85224 ",85224,0.694075083732605,244500,https://www.zillow.com/homedetails/1842-W-Alamo-Dr-Chandler-AZ-85224/8199834_zpid/,33.3482,-111.875,2017-11-03,2017-11-03
1880517,23820223,"844 W Harrison St, Chandler, AZ 85225 ",85225,0.6930306077003479,229000,https://www.zillow.com/homedetails/844-W-Harrison-St-Chandler-AZ-85225/8186376_zpid/,33.3168,-111.85600000000001,2017-11-03,2017-11-03
9018492,23649027,"8938 W Vogel Ave, Peoria, AZ 85345 ",85345,0.6928556740283967,195000,https://www.zillow.com/homedetails/8938-W-Vogel-Ave-Peoria-AZ-85345/7696649_zpid/,33.5716,-112.25200000000001,2017-10-13,2017-10-13
8992552,23527037,"6029 W Mary Jane Ln, Glendale, AZ 85306 ",85306,0.6925975024700165,239000,https://www.zillow.com/homedetails/6029-W-Mary-Jane-Ln-Glendale-AZ-85306/8097193_zpid/,33.6273,-112.189,2017-10-11,2017-10-11
9011928,23753384,"7411 W Wolf St, Phoenix, AZ 85033 ",85033,0.6924104392528534,229900,https://www.zillow.com/homedetails/7411-W-Wolf-St-Phoenix-AZ-85033/95184996_zpid/,33.5059,-112.219,2017-10-12,2017-10-12
8969477,23756066,"9324 W Mountain View Rd, Peoria, AZ 85345 ",85345,0.6922479331493377,214000,https://www.zillow.com/homedetails/9324-W-Mountain-View-Rd-Peoria-AZ-85345/7697441_zpid/,33.5733,-112.26100000000001,2017-10-18,2017-10-18
349598,23800467,"18407 N 16th Pl, Phoenix, AZ 85022 ",85022,0.6916872203350067,240000,https://www.zillow.com/homedetails/18407-N-16th-Pl-Phoenix-AZ-85022/8001275_zpid/,33.6534,-112.04700000000001,2017-10-24,2017-10-24
231524,23650293,"17459 N 28th Ave, Phoenix, AZ 85053 ",85053,0.6914568781852722,199000,https://www.zillow.com/homedetails/17459-N-28th-Ave-Phoenix-AZ-85053/7942436_zpid/,33.6449,-112.119,2017-10-14,2017-10-14
527842,23828736,"9515 W Monte Vista Rd, Phoenix, AZ 85037 ",85037,0.6911935389041901,228000,https://www.zillow.com/homedetails/9515-W-Monte-Vista-Rd-Phoenix-AZ-85037/60974977_zpid/,33.4699,-112.265,2017-10-26,2017-10-26
1414927,22731466,"7413 N 67th Dr, Glendale, AZ 85303 ",85303,0.6907662272453308,214900,https://www.zillow.com/homedetails/7413-N-67th-Dr-Glendale-AZ-85303/7705033_zpid/,33.5447,-112.20299999999999,2017-09-29,2017-09-29
8968871,23512069,"15611 N 33rd Pl, Phoenix, AZ 85032 ",85032,0.6902464747428894,210000,https://www.zillow.com/homedetails/15611-N-33rd-Pl-Phoenix-AZ-85032/55267923_zpid/,33.6291,-112.01,2017-10-10,2017-10-10
391605,23759518,"4120 W Ironwood Dr, Phoenix, AZ 85051 ",85051,0.6895367085933686,245000,https://www.zillow.com/homedetails/4120-W-Ironwood-Dr-Phoenix-AZ-85051/7746405_zpid/,33.5754,-112.147,2017-10-21,2017-10-21
9021166,23755396,"7624 W Comet Ave, Peoria, AZ 85345 ",85345,0.6893682241439819,214900,https://www.zillow.com/homedetails/7624-W-Comet-Ave-Peoria-AZ-85345/7682505_zpid/,33.5791,-112.223,2017-10-17,2017-10-17
9019690,23756231,"3644 W Libby St, Glendale, AZ 85308 ",85308,0.689209371805191,175000,https://www.zillow.com/homedetails/3644-W-Libby-St-Glendale-AZ-85308/7948081_zpid/,33.6483,-112.13799999999999,2017-10-19,2017-10-19
340412,23810957,"15866 N 18th St, Phoenix, AZ 85022 ",85022,0.6887239992618561,199900,https://www.zillow.com/homedetails/15866-N-18th-St-Phoenix-AZ-85022/8004252_zpid/,33.6319,-112.044,2017-10-27,2017-10-27
246567,22745687,"3407 W Port Au Prince Ln, Phoenix, AZ 85053 ",85053,0.6886922597885132,175000,https://www.zillow.com/homedetails/3407-W-Port-Au-Prince-Ln-Phoenix-AZ-85053/7943671_zpid/,33.6229,-112.132,2017-10-09,2017-10-09
830554,23800544,"3821 W Tuckey Ln, Phoenix, AZ 85019 ",85019,0.688689786195755,185000,https://www.zillow.com/homedetails/3821-W-Tuckey-Ln-Phoenix-AZ-85019/7758572_zpid/,33.5334,-112.14200000000001,2017-10-24,2017-10-24
1414969,23527039,"7414 W Tuckey Ln, Glendale, AZ 85303 ",85303,0.6886747539043426,204900,https://www.zillow.com/homedetails/7414-W-Tuckey-Ln-Glendale-AZ-85303/7706691_zpid/,33.533,-112.219,2017-10-11,2017-10-11
9021673,23796925,"4918 W Echo Ln, Glendale, AZ 85302 ",85302,0.6879810512065887,239900,https://www.zillow.com/homedetails/4918-W-Echo-Ln-Glendale-AZ-85302/92348539_zpid/,33.56,-112.165,2017-10-23,2017-10-23
9021565,23760091,"6974 W Juniper Ave, Peoria, AZ 85382 ",85382,0.6877613723278045,219900,https://www.zillow.com/homedetails/6974-W-Juniper-Ave-Peoria-AZ-85382/7903019_zpid/,33.6365,-112.21,2017-10-21,2017-10-21
9022220,23813743,"3934 W Sheridan St, Phoenix, AZ 85009 ",85009,0.6877394616603851,175000,https://www.zillow.com/homedetails/3934-W-Sheridan-St-Phoenix-AZ-85009/7512512_zpid/,33.4754,-112.145,2017-10-28,2017-10-28
9006564,23814082,"16612 N 28th Way, Phoenix, AZ 85032 ",85032,0.6872924387454986,194900,https://www.zillow.com/homedetails/16612-N-28th-Way-Phoenix-AZ-85032/8005824_zpid/,33.6376,-112.021,2017-10-29,2017-10-29
415049,23811004,"10006 N 66th Ave, Glendale, AZ 85302 ",85302,0.6859799087047577,199900,https://www.zillow.com/homedetails/10006-N-66th-Ave-Glendale-AZ-85302/7706542_zpid/,33.5765,-112.20100000000001,2017-10-27,2017-10-27
9016137,23757899,"3207 W Sunnyside Ave, Phoenix, AZ 85029 ",85029,0.6854396820068359,234900,https://www.zillow.com/homedetails/3207-W-Sunnyside-Ave-Phoenix-AZ-85029/7749041_zpid/,33.5936,-112.12899999999999,2017-10-19,2017-10-19
420568,22722083,"5807 W Puget Ave, Glendale, AZ 85302 ",85302,0.6851475059986114,200000,https://www.zillow.com/homedetails/5807-W-Puget-Ave-Glendale-AZ-85302/7733279_zpid/,33.5668,-112.185,2017-09-25,2017-09-25
1466628,23756048,"17464 N 92nd Gln, Peoria, AZ 85382 ",85382,0.6849060416221618,249900,https://www.zillow.com/homedetails/17464-N-92nd-Gln-Peoria-AZ-85382/95078061_zpid/,33.6427,-112.258,2017-10-18,2017-10-18
398347,23819805,"4148 W Bloomfield Rd, Phoenix, AZ 85029 ",85029,0.6845362901687622,228900,https://www.zillow.com/homedetails/4148-W-Bloomfield-Rd-Phoenix-AZ-85029/7742599_zpid/,33.5988,-112.149,2017-11-03,2017-11-03
396990,23512234,"4008 W Windrose Dr, Phoenix, AZ 85029 ",85029,0.6840403139591217,194999,https://www.zillow.com/homedetails/4008-W-Windrose-Dr-Phoenix-AZ-85029/7742420_zpid/,33.6012,-112.146,2017-10-10,2017-10-10
8973719,22726972,"9226 W Coolbrook Ave, Peoria, AZ 85382 ",85382,0.6836427748203278,239900,https://www.zillow.com/homedetails/9226-W-Coolbrook-Ave-Peoria-AZ-85382/95165053_zpid/,33.6421,-112.258,2017-09-27,2017-09-27
8996157,22735450,"11202 N 69th Dr, Peoria, AZ 85345 ",85345,0.6833612322807312,208900,https://www.zillow.com/homedetails/11202-N-69th-Dr-Peoria-AZ-85345/7699586_zpid/,33.5869,-112.208,2017-10-03,2017-10-03
527753,23797429,"9509 W Elm St, Phoenix, AZ 85037 ",85037,0.6832975924015046,205000,https://www.zillow.com/homedetails/9509-W-Elm-St-Phoenix-AZ-85037/55256235_zpid/,33.5056,-112.265,2017-10-24,2017-10-24
9021812,23806145,"8837 W Brown St, Peoria, AZ 85345 ",85345,0.6831517934799194,194000,https://www.zillow.com/homedetails/8837-W-Brown-St-Peoria-AZ-85345/7684187_zpid/,33.5763,-112.25,2017-10-25,2017-10-25
8970849,23830064,"3715 E Delcoa Dr, Phoenix, AZ 85032 ",85032,0.6828889310359955,220000,https://www.zillow.com/homedetails/3715-E-Delcoa-Dr-Phoenix-AZ-85032/7813615_zpid/,33.6109,-112.00200000000001,2017-10-25,2017-10-25
527019,22747540,"9424 W Pierson St, Phoenix, AZ 85037 ",85037,0.682806646823883,212000,https://www.zillow.com/homedetails/9424-W-Pierson-St-Phoenix-AZ-85037/52423672_zpid/,33.5071,-112.26299999999999,2017-10-10,2017-10-10
445578,23821358,"4653 N 99th Dr, Phoenix, AZ 85037 ",85037,0.6820771753787994,210000,https://www.zillow.com/homedetails/4653-N-99th-Dr-Phoenix-AZ-85037/7484444_zpid/,33.5037,-112.273,2017-10-25,2017-10-25
352186,23759913,"2024 E Danbury Rd, Phoenix, AZ 85022 ",85022,0.6816477239131927,242000,https://www.zillow.com/homedetails/2024-E-Danbury-Rd-Phoenix-AZ-85022/8000757_zpid/,33.6429,-112.039,2017-10-21,2017-10-21
9012276,23755797,"5861 W Grovers Ave, Glendale, AZ 85308 ",85308,0.6809423804283142,207000,https://www.zillow.com/homedetails/5861-W-Grovers-Ave-Glendale-AZ-85308/8099781_zpid/,33.6472,-112.186,2017-10-18,2017-10-18
330786,22738433,"1001 E Bluefield Ave, Phoenix, AZ 85022 ",85022,0.6807889819145203,207500,https://www.zillow.com/homedetails/1001-E-Bluefield-Ave-Phoenix-AZ-85022/8002596_zpid/,33.6522,-112.06,2017-10-04,2017-10-04
9021756,23800765,"8749 W Fullam St, Peoria, AZ 85382 ",85382,0.6806461811065674,199500,https://www.zillow.com/homedetails/8749-W-Fullam-St-Peoria-AZ-85382/7898649_zpid/,33.6501,-112.24799999999999,2017-10-24,2017-10-24
253112,22738546,"3806 W Mauna Loa Ln, Phoenix, AZ 85053 ",85053,0.6805048525333405,234500,https://www.zillow.com/homedetails/3806-W-Mauna-Loa-Ln-Phoenix-AZ-85053/7943940_zpid/,33.6207,-112.14,2017-10-05,2017-10-05
8989113,22740158,"19153 N 75th Dr, Glendale, AZ 85308 ",85308,0.6800266206264496,235000,https://www.zillow.com/homedetails/19153-N-75th-Dr-Glendale-AZ-85308/7892099_zpid/,33.6583,-112.221,2017-10-05,2017-10-05
645527,23807613,"708 W Emelita Ave, Mesa, AZ 85210 ",85210,0.6798803746700287,195000,https://www.zillow.com/homedetails/708-W-Emelita-Ave-Mesa-AZ-85210/7598409_zpid/,33.3985,-111.84700000000001,2017-10-25,2017-10-25
384597,23810903,"13633 N 20th Ln, Phoenix, AZ 85029 ",85029,0.6796097338199616,209000,https://www.zillow.com/homedetails/13633-N-20th-Ln-Phoenix-AZ-85029/7749596_zpid/,33.61,-112.103,2017-10-27,2017-10-27
8954944,23798695,"2414 E Dahlia Dr, Phoenix, AZ 85032 ",85032,0.6795263051986694,232000,https://www.zillow.com/homedetails/2414-E-Dahlia-Dr-Phoenix-AZ-85032/7820475_zpid/,33.6034,-112.03,2017-10-19,2017-10-19
432541,22734473,"7113 W Sheila Ln, Phoenix, AZ 85033 ",85033,0.6791214227676392,189000,https://www.zillow.com/homedetails/7113-W-Sheila-Ln-Phoenix-AZ-85033/55257199_zpid/,33.4878,-112.213,2017-10-03,2017-10-03
417704,23817192,"4843 W Mountain View Rd, Glendale, AZ 85302 ",85302,0.6788859188556671,199900,https://www.zillow.com/homedetails/4843-W-Mountain-View-Rd-Glendale-AZ-85302/7730118_zpid/,33.5747,-112.164,2017-11-01,2017-11-01
395088,22745777,"7623 N 40th Dr, Phoenix, AZ 85051 ",85051,0.6783431112766266,179900,https://www.zillow.com/homedetails/7623-N-40th-Dr-Phoenix-AZ-85051/7757964_zpid/,33.5484,-112.145,2017-10-09,2017-10-09
264257,23752112,"7723 W Oraibi Dr, Glendale, AZ 85308 ",85308,0.6777935326099396,244995,https://www.zillow.com/homedetails/7723-W-Oraibi-Dr-Glendale-AZ-85308/7891683_zpid/,33.6615,-112.22399999999999,2017-10-13,2017-10-13
392592,23803343,"3302 W Pershing Ave, Phoenix, AZ 85029 ",85029,0.6776628971099854,189900,https://www.zillow.com/homedetails/3302-W-Pershing-Ave-Phoenix-AZ-85029/7745089_zpid/,33.6058,-112.12899999999999,2017-10-22,2017-10-22
422357,23752505,"6612 W Brown St, Glendale, AZ 85302 ",85302,0.6776536881923676,199000,https://www.zillow.com/homedetails/6612-W-Brown-St-Glendale-AZ-85302/7706362_zpid/,33.5783,-112.20100000000001,2017-10-14,2017-10-14
444887,22730839,"4607 N 92nd Ln, Phoenix, AZ 85037 ",85037,0.6775019466876984,214900,https://www.zillow.com/homedetails/4607-N-92nd-Ln-Phoenix-AZ-85037/7466411_zpid/,33.5044,-112.259,2017-09-28,2017-09-28
422454,22731449,"6652 W Delmonico Ln, Glendale, AZ 85302 ",85302,0.6772286355495453,235000,https://www.zillow.com/homedetails/6652-W-Delmonico-Ln-Glendale-AZ-85302/50187742_zpid/,33.5645,-112.20200000000001,2017-09-29,2017-09-29
352271,23806193,"6938 W Villa St, Phoenix, AZ 85043 ",85043,0.6768961250782013,189000,https://www.zillow.com/homedetails/6938-W-Villa-St-Phoenix-AZ-85043/7476296_zpid/,33.455999999999996,-112.209,2017-10-25,2017-10-25
22933,22734467,"8739 W Fairmount Ave, Phoenix, AZ 85037 ",85037,0.6766970992088318,170000,https://www.zillow.com/homedetails/8739-W-Fairmount-Ave-Phoenix-AZ-85037/7471067_zpid/,33.492,-112.24799999999999,2017-10-03,2017-10-03
526828,22737450,"9418 W Sheridan St, Phoenix, AZ 85037 ",85037,0.6766851782798767,214500,https://www.zillow.com/homedetails/9418-W-Sheridan-St-Phoenix-AZ-85037/67773035_zpid/,33.475,-112.262,2017-09-28,2017-09-28
701826,23809249,"2733 W Jacinto Cir, Mesa, AZ 85202 ",85202,0.67658851146698,205000,https://www.zillow.com/homedetails/2733-W-Jacinto-Cir-Mesa-AZ-85202/8250117_zpid/,33.3796,-111.891,2017-10-26,2017-10-26
401171,22726857,"14216 N 45th Dr, Glendale, AZ 85306 ",85306,0.6764378070831298,199900,https://www.zillow.com/homedetails/14216-N-45th-Dr-Glendale-AZ-85306/7952135_zpid/,33.6149,-112.15700000000001,2017-09-26,2017-09-26
243121,23752741,"3214 W Villa Rita Dr, Phoenix, AZ 85053 ",85053,0.6759779155254364,220000,https://www.zillow.com/homedetails/3214-W-Villa-Rita-Dr-Phoenix-AZ-85053/7941484_zpid/,33.6505,-112.12799999999999,2017-10-14,2017-10-14
17301,23755286,"5852 W Orangewood Ave, Glendale, AZ 85301 ",85301,0.6753509402275085,179900,https://www.zillow.com/homedetails/5852-W-Orangewood-Ave-Glendale-AZ-85301/7726635_zpid/,33.5461,-112.186,2017-10-18,2017-10-18
390721,23808934,"4031 W North Ln, Phoenix, AZ 85051 ",85051,0.6751950919628144,184900,https://www.zillow.com/homedetails/4031-W-North-Ln-Phoenix-AZ-85051/7746050_zpid/,33.5813,-112.146,2017-10-26,2017-10-26
9020269,23829609,"18028 N 19th St, Phoenix, AZ 85022 ",85022,0.6747990667819976,144990,https://www.zillow.com/homedetails/18028-N-19th-St-Phoenix-AZ-85022/8001127_zpid/,33.6505,-112.042,2017-11-09,2017-11-09
424532,23814472,"9410 N 49th Ave, Glendale, AZ 85302 ",85302,0.6746956646442414,221000,https://www.zillow.com/homedetails/9410-N-49th-Ave-Glendale-AZ-85302/7730248_zpid/,33.5719,-112.165,2017-10-28,2017-10-28
8959309,23803780,"4201 W Mission Ln, Phoenix, AZ 85051 ",85051,0.6729781985282898,219000,https://www.zillow.com/homedetails/4201-W-Mission-Ln-Phoenix-AZ-85051/7746195_zpid/,33.5703,-112.149,2017-10-19,2017-10-19
422451,22733384,"6639 W Brown St, Glendale, AZ 85302 ",85302,0.6723710417747497,199900,https://www.zillow.com/homedetails/6639-W-Brown-St-Glendale-AZ-85302/7706586_zpid/,33.5781,-112.20200000000001,2017-10-02,2017-10-02
390775,23814136,"4034 W Hatcher Rd, Phoenix, AZ 85051 ",85051,0.6717454791069031,225000,https://www.zillow.com/homedetails/4034-W-Hatcher-Rd-Phoenix-AZ-85051/7746477_zpid/,33.5721,-112.147,2017-10-29,2017-10-29
354621,23808089,"2310 E Winchcomb Dr, Phoenix, AZ 85022 ",85022,0.6712004184722901,224900,https://www.zillow.com/homedetails/2310-E-Winchcomb-Dr-Phoenix-AZ-85022/8010116_zpid/,33.6168,-112.03399999999999,2017-10-25,2017-10-25
9021439,23809744,"17630 N 33rd Ln, Phoenix, AZ 85053 ",85053,0.6711074769496918,224500,https://www.zillow.com/homedetails/17630-N-33rd-Ln-Phoenix-AZ-85053/7942069_zpid/,33.6462,-112.131,2017-10-26,2017-10-26
352180,23814095,"2023 E Paradise Ln, Phoenix, AZ 85022 ",85022,0.6706975519657135,195000,https://www.zillow.com/homedetails/2023-E-Paradise-Ln-Phoenix-AZ-85022/8008391_zpid/,33.6333,-112.038,2017-10-29,2017-10-29
9004987,23813468,"11048 N 16th Ave, Phoenix, AZ 85029 ",85029,0.6706613659858703,209900,https://www.zillow.com/homedetails/11048-N-16th-Ave-Phoenix-AZ-85029/7784826_zpid/,33.5871,-112.09299999999999,2017-10-26,2017-10-26
229334,22738886,"16290 N 29th Ave, Phoenix, AZ 85053 ",85053,0.6705368041992188,221900,https://www.zillow.com/homedetails/16290-N-29th-Ave-Phoenix-AZ-85053/7954076_zpid/,33.6347,-112.12,2017-10-04,2017-10-04
9021060,23754387,"3522 W Michelle Dr, Glendale, AZ 85308 ",85308,0.6704503774642945,232500,https://www.zillow.com/homedetails/3522-W-Michelle-Dr-Glendale-AZ-85308/7947823_zpid/,33.6498,-112.135,2017-10-16,2017-10-16
12224,23796679,"2809 W Loma Ln, Phoenix, AZ 85051 ",85051,0.6700868129730224,179999,https://www.zillow.com/homedetails/2809-W-Loma-Ln-Phoenix-AZ-85051/7751044_zpid/,33.5538,-112.12,2017-10-23,2017-10-23
13738,23752919,"5444 W Gardenia Ave, Glendale, AZ 85301 ",85301,0.6699030995368958,160000,https://www.zillow.com/homedetails/5444-W-Gardenia-Ave-Glendale-AZ-85301/7726172_zpid/,33.5452,-112.177,2017-10-15,2017-10-15
411761,23811017,"5271 W Lupine Ave, Glendale, AZ 85304 ",85304,0.6696955919265747,241000,https://www.zillow.com/homedetails/5271-W-Lupine-Ave-Glendale-AZ-85304/7737196_zpid/,33.5897,-112.17299999999999,2017-10-27,2017-10-27
416034,23808888,"4413 W Mission Ln, Glendale, AZ 85302 ",85302,0.6694486439228058,184500,https://www.zillow.com/homedetails/4413-W-Mission-Ln-Glendale-AZ-85302/7729654_zpid/,33.5689,-112.155,2017-10-26,2017-10-26
431225,23756305,"6723 W Earll Dr, Phoenix, AZ 85033 ",85033,0.6691015899181366,153900,https://www.zillow.com/homedetails/6723-W-Earll-Dr-Phoenix-AZ-85033/7468541_zpid/,33.4834,-112.204,2017-10-18,2017-10-18
393461,22738571,"4244 W Butler Dr, Phoenix, AZ 85051 ",85051,0.6690441071987152,185900,https://www.zillow.com/homedetails/4244-W-Butler-Dr-Phoenix-AZ-85051/7752975_zpid/,33.5601,-112.15100000000001,2017-09-29,2017-09-29
390730,22745703,"4032 W North Ln, Phoenix, AZ 85051 ",85051,0.668854397535324,195000,https://www.zillow.com/homedetails/4032-W-North-Ln-Phoenix-AZ-85051/7746045_zpid/,33.5817,-112.146,2017-10-08,2017-10-08
829370,23809963,"3650 W Berridge Ln, Phoenix, AZ 85019 ",85019,0.6688424348831177,164900,https://www.zillow.com/homedetails/3650-W-Berridge-Ln-Phoenix-AZ-85019/7759146_zpid/,33.5257,-112.13799999999999,2017-10-26,2017-10-26
448532,23828597,"8415 W Granada Rd, Phoenix, AZ 85037 ",85037,0.6687112748622894,149900,https://www.zillow.com/homedetails/8415-W-Granada-Rd-Phoenix-AZ-85037/7487944_zpid/,33.4684,-112.241,2017-10-24,2017-10-24
391398,23818338,"4112 W Camino Acequia, Phoenix, AZ 85051 ",85051,0.6679882705211639,220986,https://www.zillow.com/homedetails/4112-W-Camino-Acequia-Phoenix-AZ-85051/7745955_zpid/,33.5781,-112.146,2017-11-02,2017-11-02
9012841,23819608,"8121 W Hatcher Rd, Peoria, AZ 85345 ",85345,0.6679209530353546,239000,https://www.zillow.com/homedetails/8121-W-Hatcher-Rd-Peoria-AZ-85345/7682649_zpid/,33.57,-112.234,2017-11-02,2017-11-02
400671,23831009,"14003 N 54th Ave, Glendale, AZ 85306 ",85306,0.667259806394577,120000,https://www.zillow.com/homedetails/14003-N-54th-Ave-Glendale-AZ-85306/8097997_zpid/,33.6132,-112.176,2017-11-14,2017-11-14
1406067,23813622,"6732 N 79th Ave, Glendale, AZ 85303 ",85303,0.6670613527297974,215000,https://www.zillow.com/homedetails/6732-N-79th-Ave-Glendale-AZ-85303/7462444_zpid/,33.5339,-112.229,2017-10-28,2017-10-28
830401,23753647,"3811 W Flower St, Phoenix, AZ 85019 ",85019,0.6667398929595947,150000,https://www.zillow.com/homedetails/3811-W-Flower-St-Phoenix-AZ-85019/7507570_zpid/,33.4861,-112.14200000000001,2017-10-16,2017-10-16
409171,23815122,"6610 W Caribbean Ln, Glendale, AZ 85306 ",85306,0.6666349470615387,210000,https://www.zillow.com/homedetails/6610-W-Caribbean-Ln-Glendale-AZ-85306/8100447_zpid/,33.6248,-112.199,2017-10-30,2017-10-30
361380,23818137,"8601 W Flavia Hvn, Tolleson, AZ 85353 ",85353,0.6665055096149445,245000,https://www.zillow.com/homedetails/8601-W-Flavia-Hvn-Tolleson-AZ-85353/59271170_zpid/,33.4241,-112.245,2017-11-02,2017-11-02
221405,23805257,"9801 N 2nd Pl, Phoenix, AZ 85020 ",85020,0.6659849882125854,225000,https://www.zillow.com/homedetails/9801-N-2nd-Pl-Phoenix-AZ-85020/55261037_zpid/,33.5752,-112.071,2017-10-22,2017-10-22
237867,23806247,"1650 W Muriel Dr, Phoenix, AZ 85023 ",85023,0.6658972084522248,195000,https://www.zillow.com/homedetails/1650-W-Muriel-Dr-Phoenix-AZ-85023/7958466_zpid/,33.646,-112.095,2017-10-25,2017-10-25
403656,22738452,"12633 N 47th Dr, Glendale, AZ 85304 ",85304,0.6657412111759186,186999,https://www.zillow.com/homedetails/12633-N-47th-Dr-Glendale-AZ-85304/7954518_zpid/,33.601,-112.161,2017-09-28,2017-09-28
485536,22747620,"4501 W Granada Rd, Phoenix, AZ 85035 ",85035,0.6653423190116883,160000,https://www.zillow.com/homedetails/4501-W-Granada-Rd-Phoenix-AZ-85035/7494981_zpid/,33.468,-112.156,2017-10-10,2017-10-10
9008452,23753560,"6758 W Vogel Ave, Peoria, AZ 85345 ",85345,0.6651973247528076,169900,https://www.zillow.com/homedetails/6758-W-Vogel-Ave-Peoria-AZ-85345/7702576_zpid/,33.5724,-112.205,2017-10-16,2017-10-16
410753,23759090,"4934 W Becker Ln, Glendale, AZ 85304 ",85304,0.6649939179420471,238500,https://www.zillow.com/homedetails/4934-W-Becker-Ln-Glendale-AZ-85304/67083499_zpid/,33.5826,-112.166,2017-10-20,2017-10-20
9018879,23808777,"4021 W Roosevelt St, Phoenix, AZ 85009 ",85009,0.6646386861801148,179990,https://www.zillow.com/homedetails/4021-W-Roosevelt-St-Phoenix-AZ-85009/2092569655_zpid/,33.4585,-112.147,2017-10-26,2017-10-26
9021895,23808688,"10205 N 87th Ln, Peoria, AZ 85345 ",85345,0.6642951965332031,189950,https://www.zillow.com/homedetails/10205-N-87th-Ln-Peoria-AZ-85345/7684497_zpid/,33.5776,-112.24799999999999,2017-10-26,2017-10-26
230962,23796591,"19225 N 13th St, Phoenix, AZ 85024 ",85024,0.6641868233680726,228000,https://www.zillow.com/homedetails/19225-N-13th-St-Phoenix-AZ-85024/7995445_zpid/,33.6614,-112.054,2017-10-23,2017-10-23
419880,23820028,"5616 W Brown St, Glendale, AZ 85302 ",85302,0.6640992581844329,199900,https://www.zillow.com/homedetails/5616-W-Brown-St-Glendale-AZ-85302/7735264_zpid/,33.5783,-112.18,2017-11-03,2017-11-03
8984109,23818995,"7426 W Carol Ave, Peoria, AZ 85345 ",85345,0.6640284180641174,197000,https://www.zillow.com/homedetails/7426-W-Carol-Ave-Peoria-AZ-85345/7702134_zpid/,33.5726,-112.219,2017-11-02,2017-11-02
833557,23560179,"5747 N 38th Dr, Phoenix, AZ 85019 ",85019,0.6635660052299499,198900,https://www.zillow.com/homedetails/5747-N-38th-Dr-Phoenix-AZ-85019/7719106_zpid/,33.5221,-112.141,2017-10-13,2017-10-13
340686,23813814,"1605 E Juniper Ave, Phoenix, AZ 85022 ",85022,0.6635648369789123,209900,https://www.zillow.com/homedetails/1605-E-Juniper-Ave-Phoenix-AZ-85022/8004980_zpid/,33.6389,-112.04799999999999,2017-10-28,2017-10-28
224188,23754064,"14213 N 35th Dr, Phoenix, AZ 85053 ",85053,0.6634869754314423,200000,https://www.zillow.com/homedetails/14213-N-35th-Dr-Phoenix-AZ-85053/7944539_zpid/,33.6154,-112.135,2017-10-16,2017-10-16
236208,23512189,"2919 W Libby St, Phoenix, AZ 85053 ",85053,0.6632100224494935,219000,https://www.zillow.com/homedetails/2919-W-Libby-St-Phoenix-AZ-85053/7940817_zpid/,33.6477,-112.12200000000001,2017-10-07,2017-10-07
422582,23760094,"8112 N 60th Ln, Glendale, AZ 85302 ",85302,0.663046133518219,185000,https://www.zillow.com/homedetails/8112-N-60th-Ln-Glendale-AZ-85302/7704280_zpid/,33.5545,-112.19,2017-10-21,2017-10-21
448364,23512346,"8402 W Fairmount Ave, Phoenix, AZ 85037 ",85037,0.6627777576446533,170000,https://www.zillow.com/homedetails/8402-W-Fairmount-Ave-Phoenix-AZ-85037/7470144_zpid/,33.4902,-112.24,2017-10-10,2017-10-10
8992548,23569558,"4746 W Nicolet Ave, Glendale, AZ 85301 ",85301,0.6627136290073394,157900,https://www.zillow.com/homedetails/4746-W-Nicolet-Ave-Glendale-AZ-85301/7725721_zpid/,33.5426,-112.162,2017-10-13,2017-10-13
9019728,22738893,"17413 N 8th Ave, Phoenix, AZ 85023 ",85023,0.6626404225826263,189500,https://www.zillow.com/homedetails/17413-N-8th-Ave-Phoenix-AZ-85023/7963487_zpid/,33.6445,-112.085,2017-10-04,2017-10-04
497370,23828357,"6740 W Encanto Blvd, Phoenix, AZ 85035 ",85035,0.6625303983688354,195000,https://www.zillow.com/homedetails/6740-W-Encanto-Blvd-Phoenix-AZ-85035/7475724_zpid/,33.4737,-112.205,2017-10-17,2017-10-17
9015638,22704145,"8444 W Lewis Ave, Phoenix, AZ 85037 ",85037,0.662495905160904,176900,https://www.zillow.com/homedetails/8444-W-Lewis-Ave-Phoenix-AZ-85037/82823102_zpid/,33.4743,-112.241,2017-09-21,2017-09-21
8996162,23760270,"8420 W Butler Dr, Peoria, AZ 85345 ",85345,0.6621115624904632,237500,https://www.zillow.com/homedetails/8420-W-Butler-Dr-Peoria-AZ-85345/7683722_zpid/,33.5593,-112.241,2017-10-21,2017-10-21
394229,22745774,"7201 N 37th Ave, Phoenix, AZ 85051 ",85051,0.6620463013648987,164900,https://www.zillow.com/homedetails/7201-N-37th-Ave-Phoenix-AZ-85051/7756316_zpid/,33.5423,-112.13799999999999,2017-10-09,2017-10-09
8969496,23512165,"2433 E Karen Dr, Phoenix, AZ 85032 ",85032,0.6620329976081848,247900,https://www.zillow.com/homedetails/2433-E-Karen-Dr-Phoenix-AZ-85032/8013849_zpid/,33.6257,-112.029,2017-10-02,2017-10-02
486236,22747377,"4809 W Monte Vista Rd, Phoenix, AZ 85035 ",85035,0.6618074834346771,172900,https://www.zillow.com/homedetails/4809-W-Monte-Vista-Rd-Phoenix-AZ-85035/87791786_zpid/,33.4713,-112.163,2017-10-10,2017-10-10
476523,23755651,"3215 N 53rd Dr, Phoenix, AZ 85031 ",85031,0.6614426910877228,179000,https://www.zillow.com/homedetails/3215-N-53rd-Dr-Phoenix-AZ-85031/7497049_zpid/,33.4867,-112.17299999999999,2017-10-18,2017-10-18
388766,22745700,"3835 W Ruth Ave, Phoenix, AZ 85051 ",85051,0.6613969683647156,162500,https://www.zillow.com/homedetails/3835-W-Ruth-Ave-Phoenix-AZ-85051/7752429_zpid/,33.5625,-112.14200000000001,2017-10-08,2017-10-08
457253,23807220,"5007 W Pinchot Ave, Phoenix, AZ 85031 ",85031,0.6613823533058166,174999,https://www.zillow.com/homedetails/5007-W-Pinchot-Ave-Phoenix-AZ-85031/7510296_zpid/,33.4836,-112.167,2017-10-23,2017-10-23
391373,23814123,"3128 W Eugie Ave, Phoenix, AZ 85029 ",85029,0.6607135236263275,202000,https://www.zillow.com/homedetails/3128-W-Eugie-Ave-Phoenix-AZ-85029/7747973_zpid/,33.6085,-112.12700000000001,2017-10-29,2017-10-29
9019065,23797419,"8139 W Heatherbrae Dr, Phoenix, AZ 85033 ",85033,0.660561466217041,178000,https://www.zillow.com/homedetails/8139-W-Heatherbrae-Dr-Phoenix-AZ-85033/7481875_zpid/,33.4976,-112.236,2017-10-24,2017-10-24
9019087,22731125,"3117 E Charleston Ave, Phoenix, AZ 85032 ",85032,0.6603964328765869,239999,https://www.zillow.com/homedetails/3117-E-Charleston-Ave-Phoenix-AZ-85032/7999065_zpid/,33.6498,-112.015,2017-09-30,2017-09-30
9022653,23819042,"9669 N 82nd Ln, Peoria, AZ 85345 ",85345,0.6602244079113007,202000,https://www.zillow.com/homedetails/9669-N-82nd-Ln-Peoria-AZ-85345/67765071_zpid/,33.5728,-112.236,2017-11-02,2017-11-02
394344,23808915,"3601 W Voltaire Ave, Phoenix, AZ 85029 ",85029,0.6596252799034119,210000,https://www.zillow.com/homedetails/3601-W-Voltaire-Ave-Phoenix-AZ-85029/7741380_zpid/,33.6085,-112.13600000000001,2017-10-26,2017-10-26
243287,22690475,"3218 W Angela Dr, Phoenix, AZ 85053 ",85053,0.659494262933731,209000,https://www.zillow.com/homedetails/3218-W-Angela-Dr-Phoenix-AZ-85053/7942085_zpid/,33.6461,-112.12899999999999,2017-09-18,2017-09-18
1413226,22747483,"7301 W Cavalier Dr, Glendale, AZ 85303 ",85303,0.658990079164505,179900,https://www.zillow.com/homedetails/7301-W-Cavalier-Dr-Glendale-AZ-85303/7707198_zpid/,33.5243,-112.21600000000001,2017-10-10,2017-10-10
252431,23804898,"824 E Piute Ave, Phoenix, AZ 85024 ",85024,0.6588927090168,239900,https://www.zillow.com/homedetails/824-E-Piute-Ave-Phoenix-AZ-85024/7996367_zpid/,33.6639,-112.06200000000001,2017-10-21,2017-10-21
9021889,23808090,"2926 E Charleston Ave, Phoenix, AZ 85032 ",85032,0.6586235523223877,175000,https://www.zillow.com/homedetails/2926-E-Charleston-Ave-Phoenix-AZ-85032/7998861_zpid/,33.6495,-112.01899999999999,2017-10-25,2017-10-25
973060,23815015,"600 N Aspen Dr, Chandler, AZ 85226 ",85226,0.6576694548130035,244900,https://www.zillow.com/homedetails/600-N-Aspen-Dr-Chandler-AZ-85226/8262023_zpid/,33.3128,-111.945,2017-10-30,2017-10-30
392024,23756985,"4134 W Linger Ln, Phoenix, AZ 85051 ",85051,0.6575029730796814,235000,https://www.zillow.com/homedetails/4134-W-Linger-Ln-Phoenix-AZ-85051/7755387_zpid/,33.5528,-112.148,2017-10-19,2017-10-19
391229,23512195,"3120 W Clinton St, Phoenix, AZ 85029 ",85029,0.6574527442455291,182000,https://www.zillow.com/homedetails/3120-W-Clinton-St-Phoenix-AZ-85029/7740856_zpid/,33.5834,-112.126,2017-10-07,2017-10-07
379293,23800540,"2626 W Northview Ave, Phoenix, AZ 85051 ",85051,0.6574020206928253,129900,https://www.zillow.com/homedetails/2626-W-Northview-Ave-Phoenix-AZ-85051/7779482_zpid/,33.5439,-112.116,2017-10-24,2017-10-24
1344284,22924285,"4622 W Palmaire Ave, Glendale, AZ 85301 ",85301,0.6573911786079407,200000,https://www.zillow.com/homedetails/4622-W-Palmaire-Ave-Glendale-AZ-85301/7725531_zpid/,33.5407,-112.15899999999999,2017-10-07,2017-10-07
435285,23650449,"7821 W Cheery Lynn Rd, Phoenix, AZ 85033 ",85033,0.6565796494483948,175000,https://www.zillow.com/homedetails/7821-W-Cheery-Lynn-Rd-Phoenix-AZ-85033/7469425_zpid/,33.4823,-112.226,2017-10-14,2017-10-14
827449,23813741,"2928 N 40th Dr, Phoenix, AZ 85019 ",85019,0.6565498769283294,174999,https://www.zillow.com/homedetails/2928-N-40th-Dr-Phoenix-AZ-85019/7509157_zpid/,33.4817,-112.146,2017-10-28,2017-10-28
521769,23828681,"9002 W Clarendon Ave, Phoenix, AZ 85037 ",85037,0.6563592851161957,169000,https://www.zillow.com/homedetails/9002-W-Clarendon-Ave-Phoenix-AZ-85037/7470545_zpid/,33.4905,-112.25399999999999,2017-10-25,2017-10-25
556883,23809047,"2529 N 40th Ave, Phoenix, AZ 85009 ",85009,0.6557467758655549,149899,https://www.zillow.com/homedetails/2529-N-40th-Ave-Phoenix-AZ-85009/88889007_zpid/,33.4758,-112.146,2017-10-26,2017-10-26
8982625,23797411,"6105 W Indianola Ave, Phoenix, AZ 85033 ",85033,0.6555678963661193,199900,https://www.zillow.com/homedetails/6105-W-Indianola-Ave-Phoenix-AZ-85033/7496565_zpid/,33.4922,-112.191,2017-10-24,2017-10-24
829808,23512219,"3721 W Osborn Rd, Phoenix, AZ 85019 ",85019,0.6555436074733734,160000,https://www.zillow.com/homedetails/3721-W-Osborn-Rd-Phoenix-AZ-85019/7507721_zpid/,33.4875,-112.14,2017-10-10,2017-10-10
386285,23809974,"3631 W Caron St, Phoenix, AZ 85051 ",85051,0.6552995443344116,245000,https://www.zillow.com/homedetails/3631-W-Caron-St-Phoenix-AZ-85051/7746596_zpid/,33.5684,-112.13799999999999,2017-10-26,2017-10-26
391123,23564599,"3113 W Shangri La Rd, Phoenix, AZ 85029 ",85029,0.6547805368900299,220000,https://www.zillow.com/homedetails/3113-W-Shangri-La-Rd-Phoenix-AZ-85029/7740593_zpid/,33.588,-112.126,2017-10-13,2017-10-13
7419652,23752910,"4450 N 37TH Ave, Phoenix, AZ 85019 ",85019,0.6545937061309814,240000,https://www.zillow.com/homedetails/4450-N-37TH-Ave-Phoenix-AZ-85019/95137035_zpid/,33.5016,-112.139,2017-10-15,2017-10-15
9022041,23810319,"3120 W Pierce St, Phoenix, AZ 85009 ",85009,0.654386180639267,124900,https://www.zillow.com/homedetails/3120-W-Pierce-St-Phoenix-AZ-85009/7513849_zpid/,33.4559,-112.12700000000001,2017-10-27,2017-10-27
9019258,22732947,"3101 W Dailey St, Phoenix, AZ 85053 ",85053,0.6539349615573883,219000,https://www.zillow.com/homedetails/3101-W-Dailey-St-Phoenix-AZ-85053/7943122_zpid/,33.6127,-112.125,2017-10-01,2017-10-01
40221,23817839,"2920 S 72nd Ln, Phoenix, AZ 85043 ",85043,0.6523696184158325,224900,https://www.zillow.com/homedetails/2920-S-72nd-Ln-Phoenix-AZ-85043/67788653_zpid/,33.4217,-112.21700000000001,2017-11-01,2017-11-01
334383,22732912,"12827 N 22nd Pl, Phoenix, AZ 85022 ",85022,0.6523215770721436,218000,https://www.zillow.com/homedetails/12827-N-22nd-Pl-Phoenix-AZ-85022/7815663_zpid/,33.6034,-112.03299999999999,2017-10-01,2017-10-01
9019399,23759454,"15032 N 26th St, Phoenix, AZ 85032 ",85032,0.6523156762123108,240000,https://www.zillow.com/homedetails/15032-N-26th-St-Phoenix-AZ-85032/8013907_zpid/,33.6237,-112.027,2017-10-20,2017-10-20
9020909,23752409,"3770 E Pershing Ave, Phoenix, AZ 85032 ",85032,0.6517814636230469,215000,https://www.zillow.com/homedetails/3770-E-Pershing-Ave-Phoenix-AZ-85032/7814096_zpid/,33.6066,-112.0,2017-10-13,2017-10-13
457960,23512295,"5355 W Earll Dr, Phoenix, AZ 85031 ",85031,0.6517672419548035,179900,https://www.zillow.com/homedetails/5355-W-Earll-Dr-Phoenix-AZ-85031/7496878_zpid/,33.4846,-112.175,2017-10-10,2017-10-10
1413178,23818822,"7273 W Glenn Dr, Glendale, AZ 85303 ",85303,0.6517244398593902,209900,https://www.zillow.com/homedetails/7273-W-Glenn-Dr-Glendale-AZ-85303/95091643_zpid/,33.5393,-112.215,2017-11-02,2017-11-02
402683,23818661,"12027 N 49th Dr, Glendale, AZ 85304 ",85304,0.6514947056770325,229000,https://www.zillow.com/homedetails/12027-N-49th-Dr-Glendale-AZ-85304/7727409_zpid/,33.5959,-112.165,2017-11-02,2017-11-02
326650,23796634,"1822 W Turney Ave, Phoenix, AZ 85015 ",85015,0.651193442940712,199900,https://www.zillow.com/homedetails/1822-W-Turney-Ave-Phoenix-AZ-85015/7772298_zpid/,33.5007,-112.09899999999999,2017-10-23,2017-10-23
1119289,23832093,"2139 N College Ct, Chandler, AZ 85224 ",85224,0.64971644282341,235000,https://www.zillow.com/homedetails/2139-N-College-Ct-Chandler-AZ-85224/8199701_zpid/,33.3387,-111.87299999999999,2017-11-09,2017-11-09
350131,22705127,"6405 W Preston Ln, Phoenix, AZ 85043 ",85043,0.6494887173175812,187000,https://www.zillow.com/homedetails/6405-W-Preston-Ln-Phoenix-AZ-85043/55257428_zpid/,33.4235,-112.198,2017-09-22,2017-09-22
337572,22740038,"2307 W Alice Ave, Phoenix, AZ 85021 ",85021,0.6494838833808899,217900,https://www.zillow.com/homedetails/2307-W-Alice-Ave-Phoenix-AZ-85021/7782260_zpid/,33.5637,-112.109,2017-10-05,2017-10-05
486075,23803976,"4735 W Hubbell St, Phoenix, AZ 85035 ",85035,0.6487065970897674,160000,https://www.zillow.com/homedetails/4735-W-Hubbell-St-Phoenix-AZ-85035/7494702_zpid/,33.4699,-112.162,2017-10-22,2017-10-22
237433,23754381,"2957 W Michelle Dr, Phoenix, AZ 85053 ",85053,0.6486023724079132,230000,https://www.zillow.com/homedetails/2957-W-Michelle-Dr-Phoenix-AZ-85053/7940747_zpid/,33.6492,-112.124,2017-10-16,2017-10-16
339679,23527007,"7027 N 23rd Ln, Phoenix, AZ 85021 ",85021,0.648388671875,149750,https://www.zillow.com/homedetails/7027-N-23rd-Ln-Phoenix-AZ-85021/7779133_zpid/,33.5397,-112.11,2017-10-11,2017-10-11
388525,23754065,"2330 W Columbine Dr, Phoenix, AZ 85029 ",85029,0.6480027318000794,219900,https://www.zillow.com/homedetails/2330-W-Columbine-Dr-Phoenix-AZ-85029/7738746_zpid/,33.5996,-112.109,2017-10-16,2017-10-16
329115,23755232,"2335 W Campus Dr, Phoenix, AZ 85015 ",85015,0.6477470219135284,212800,https://www.zillow.com/homedetails/2335-W-Campus-Dr-Phoenix-AZ-85015/7518987_zpid/,33.484,-112.11,2017-10-17,2017-10-17
9016805,23811096,"8432 W Wethersfield Rd, Peoria, AZ 85381 ",85381,0.6475629687309266,237900,https://www.zillow.com/homedetails/8432-W-Wethersfield-Rd-Peoria-AZ-85381/7914507_zpid/,33.5961,-112.241,2017-10-27,2017-10-27
9018341,23569410,"18613 N 68th Ave, Glendale, AZ 85308 ",85308,0.6475489437580109,249900,https://www.zillow.com/homedetails/18613-N-68th-Ave-Glendale-AZ-85308/7891573_zpid/,33.6545,-112.205,2017-10-13,2017-10-13
344412,23649622,"2406 W Tonto St, Phoenix, AZ 85009 ",85009,0.6474561810493469,195000,https://www.zillow.com/homedetails/2406-W-Tonto-St-Phoenix-AZ-85009/7515658_zpid/,33.4388,-112.111,2017-10-12,2017-10-12
833447,23561389,"5713 N 42nd Ave, Phoenix, AZ 85019 ",85019,0.647380393743515,165000,https://www.zillow.com/homedetails/5713-N-42nd-Ave-Phoenix-AZ-85019/7718429_zpid/,33.5207,-112.148,2017-10-13,2017-10-13
481368,23814944,"2346 N 47th Ln, Phoenix, AZ 85035 ",85035,0.6468179762363434,174900,https://www.zillow.com/homedetails/2346-N-47th-Ln-Phoenix-AZ-85035/7499146_zpid/,33.4749,-112.162,2017-10-29,2017-10-29
9020435,22875945,"3838 W Carol Ave, Phoenix, AZ 85051 ",85051,0.6466215014457702,219990,https://www.zillow.com/homedetails/3838-W-Carol-Ave-Phoenix-AZ-85051/7746969_zpid/,33.5731,-112.14200000000001,2017-10-10,2017-10-10
344279,23649625,"2322 W Papago St, Phoenix, AZ 85009 ",85009,0.6465213894844055,125000,https://www.zillow.com/homedetails/2322-W-Papago-St-Phoenix-AZ-85009/81972695_zpid/,33.4343,-112.11,2017-10-14,2017-10-14
958689,23817165,"3608 W Elgin St, Chandler, AZ 85226 ",85226,0.6464261174201965,249499,https://www.zillow.com/homedetails/3608-W-Elgin-St-Chandler-AZ-85226/8155921_zpid/,33.2976,-111.904,2017-11-01,2017-11-01
1466691,23821671,"17797 N 89th Dr, Peoria, AZ 85382 ",85382,0.6463973045349121,242000,https://www.zillow.com/homedetails/17797-N-89th-Dr-Peoria-AZ-85382/71616751_zpid/,33.6449,-112.251,2017-11-05,2017-11-05
1373477,22734771,"8762 W Mclellan Rd, Glendale, AZ 85305 ",85305,0.6460957229137421,220000,https://www.zillow.com/homedetails/8762-W-Mclellan-Rd-Glendale-AZ-85305/7461585_zpid/,33.532,-112.249,2017-10-02,2017-10-02
394868,23527465,"3656 W Windrose Dr, Phoenix, AZ 85029 ",85029,0.6457263886928558,229900,https://www.zillow.com/homedetails/3656-W-Windrose-Dr-Phoenix-AZ-85029/7742970_zpid/,33.6016,-112.137,2017-10-12,2017-10-12
1358037,23823771,"7832 N 54th Ln, Glendale, AZ 85301 ",85301,0.6450798332691192,219900,https://www.zillow.com/homedetails/7832-N-54th-Ln-Glendale-AZ-85301/50188196_zpid/,33.5516,-112.177,2017-11-06,2017-11-06
9019686,22738495,"17452 N 55th Ave, Glendale, AZ 85308 ",85308,0.6446166157722473,249900,https://www.zillow.com/homedetails/17452-N-55th-Ave-Glendale-AZ-85308/8099766_zpid/,33.6452,-112.178,2017-10-04,2017-10-04
459700,22721620,"5715 W Roma Ave, Phoenix, AZ 85031 ",85031,0.6445947408676147,139900,https://www.zillow.com/homedetails/5715-W-Roma-Ave-Phoenix-AZ-85031/7712868_zpid/,33.4993,-112.18299999999999,2017-09-26,2017-09-26
9021919,23808899,"7642 N 46th Ave, Glendale, AZ 85301 ",85301,0.6442253649234772,210000,https://www.zillow.com/homedetails/7642-N-46th-Ave-Glendale-AZ-85301/7725090_zpid/,33.5496,-112.15700000000001,2017-10-26,2017-10-26
342845,23806367,"1927 W Palm Ln, Phoenix, AZ 85009 ",85009,0.6442249119281769,210000,https://www.zillow.com/homedetails/1927-W-Palm-Ln-Phoenix-AZ-85009/7519865_zpid/,33.4691,-112.102,2017-10-25,2017-10-25
9021253,23756561,"2832 N 28th Dr, Phoenix, AZ 85008 ",85008,0.6441572785377503,139900,https://www.zillow.com/homedetails/2832-N-28th-Dr-Phoenix-AZ-85008/7513343_zpid/,33.4797,-112.021,2017-10-13,2017-10-13
9004346,22704088,"2412 N 73rd Ln, Phoenix, AZ 85035 ",85035,0.6441146731376648,219000,https://www.zillow.com/homedetails/2412-N-73rd-Ln-Phoenix-AZ-85035/95085660_zpid/,33.4744,-112.21799999999999,2017-09-21,2017-09-21
9022548,23818007,"6803 W Cherry Hills Dr, Peoria, AZ 85345 ",85345,0.6438109636306762,235000,https://www.zillow.com/homedetails/6803-W-Cherry-Hills-Dr-Peoria-AZ-85345/7700208_zpid/,33.5936,-112.205,2017-11-02,2017-11-02
9022117,23811077,"15145 N 86th Dr, Peoria, AZ 85381 ",85381,0.6437869668006897,209900,https://www.zillow.com/homedetails/15145-N-86th-Dr-Peoria-AZ-85381/7908510_zpid/,33.6217,-112.245,2017-10-27,2017-10-27
460843,23755985,"2901 N 55th Ave, Phoenix, AZ 85031 ",85031,0.6435057878494262,169000,https://www.zillow.com/homedetails/2901-N-55th-Ave-Phoenix-AZ-85031/7497233_zpid/,33.4808,-112.178,2017-10-18,2017-10-18
9020725,23815067,"9537 W Sunnyslope Ln, Peoria, AZ 85345 ",85345,0.6434587776660919,224000,https://www.zillow.com/homedetails/9537-W-Sunnyslope-Ln-Peoria-AZ-85345/7697879_zpid/,33.5693,-112.265,2017-10-30,2017-10-30
223069,23526873,"13828 N 41st Ave, Phoenix, AZ 85053 ",85053,0.6429926991462708,243000,https://www.zillow.com/homedetails/13828-N-41st-Ave-Phoenix-AZ-85053/7945205_zpid/,33.6119,-112.147,2017-10-11,2017-10-11
1349271,23815006,"5556 W Gardenia Ave, Glendale, AZ 85301 ",85301,0.6426056623458862,174900,https://www.zillow.com/homedetails/5556-W-Gardenia-Ave-Glendale-AZ-85301/2136646466_zpid/,33.5451,-112.18,2017-10-30,2017-10-30
9019302,22733399,"4718 W Nicolet Ave, Glendale, AZ 85301 ",85301,0.6421105861663818,169000,https://www.zillow.com/homedetails/4718-W-Nicolet-Ave-Glendale-AZ-85301/7725715_zpid/,33.5429,-112.161,2017-10-02,2017-10-02
389751,23821705,"2641 W Wethersfield Rd, Phoenix, AZ 85029 ",85029,0.6415458440780639,149000,https://www.zillow.com/homedetails/2641-W-Wethersfield-Rd-Phoenix-AZ-85029/7748488_zpid/,33.5968,-112.115,2017-11-03,2017-11-03
8977947,23799668,"5619 W Mariposa St, Phoenix, AZ 85031 ",85031,0.6413299262523651,199900,https://www.zillow.com/homedetails/5619-W-Mariposa-St-Phoenix-AZ-85031/7713521_zpid/,33.5077,-112.18,2017-10-13,2017-10-13
362517,23822656,"8838 W Hilton Ave, Tolleson, AZ 85353 ",85353,0.641308718919754,184900,https://www.zillow.com/homedetails/8838-W-Hilton-Ave-Tolleson-AZ-85353/62726881_zpid/,33.4279,-112.251,2017-11-06,2017-11-06
454952,23752844,"4630 W Indianola Ave, Phoenix, AZ 85031 ",85031,0.6411642760038376,159000,https://www.zillow.com/homedetails/4630-W-Indianola-Ave-Phoenix-AZ-85031/7508079_zpid/,33.4927,-112.15899999999999,2017-10-15,2017-10-15
1407968,23823746,"6861 W State Ave, Glendale, AZ 85303 ",85303,0.6411389410495758,159888,https://www.zillow.com/homedetails/6861-W-State-Ave-Glendale-AZ-85303/7704780_zpid/,33.5438,-112.20700000000001,2017-11-07,2017-11-07
9022772,23820307,"8547 W Cinnabar Ave, Peoria, AZ 85345 ",85345,0.6410265684127807,249900,https://www.zillow.com/homedetails/8547-W-Cinnabar-Ave-Peoria-AZ-85345/62728560_zpid/,33.576,-112.243,2017-11-03,2017-11-03
644243,23819377,"2213 W Del Campo Cir, Mesa, AZ 85202 ",85202,0.6409611344337464,215000,https://www.zillow.com/homedetails/2213-W-Del-Campo-Cir-Mesa-AZ-85202/7602126_zpid/,33.4009,-111.87899999999999,2017-11-03,2017-11-03
405626,23823339,"4809 W Beverly Ln, Glendale, AZ 85306 ",85306,0.6408014118671417,220000,https://www.zillow.com/homedetails/4809-W-Beverly-Ln-Glendale-AZ-85306/7951167_zpid/,33.6329,-112.162,2017-11-08,2017-11-08
9021366,23757591,"9106 W Long Hills Dr, Sun City, AZ 85351 ",85351,0.6402940154075623,159500,https://www.zillow.com/homedetails/9106-W-Long-Hills-Dr-Sun-City-AZ-85351/7904820_zpid/,33.6259,-112.256,2017-10-17,2017-10-17
379528,22745656,"11438 N 30th Ave, Phoenix, AZ 85029 ",85029,0.6401523530483246,239900,https://www.zillow.com/homedetails/11438-N-30th-Ave-Phoenix-AZ-85029/7739912_zpid/,33.5907,-112.124,2017-10-10,2017-10-10
390740,23814265,"3037 W Charter Oak Rd, Phoenix, AZ 85029 ",85029,0.6398926854133606,229000,https://www.zillow.com/homedetails/3037-W-Charter-Oak-Rd-Phoenix-AZ-85029/7747216_zpid/,33.5977,-112.124,2017-10-28,2017-10-28
973844,23809132,"628 N Dustin Ln, Chandler, AZ 85226 ",85226,0.6396670281887055,239900,https://www.zillow.com/homedetails/628-N-Dustin-Ln-Chandler-AZ-85226/8157254_zpid/,33.3139,-111.95200000000001,2017-10-05,2017-10-05
386525,23810920,"2019 W Willow Ave, Phoenix, AZ 85029 ",85029,0.6396657407283783,189000,https://www.zillow.com/homedetails/2019-W-Willow-Ave-Phoenix-AZ-85029/7749707_zpid/,33.6066,-112.102,2017-10-27,2017-10-27
1885528,22710615,"8223 W Carol Ave, Peoria, AZ 85345 ",85345,0.6394188523292541,205000,https://www.zillow.com/homedetails/8223-W-Carol-Ave-Peoria-AZ-85345/60978276_zpid/,33.5706,-112.236,2017-09-21,2017-09-21
450658,23828592,"8740 W Earll Dr, Phoenix, AZ 85037 ",85037,0.6391423642635345,129999,https://www.zillow.com/homedetails/8740-W-Earll-Dr-Phoenix-AZ-85037/7479995_zpid/,33.4838,-112.249,2017-10-27,2017-10-27
502874,23757862,"4315 N 51st Ave, Phoenix, AZ 85031 ",85031,0.6390376269817353,149900,https://www.zillow.com/homedetails/4315-N-51st-Ave-Phoenix-AZ-85031/7720846_zpid/,33.4993,-112.169,2017-10-20,2017-10-20
233478,23794869,"19046 N 15th Ave, Phoenix, AZ 85027 ",85027,0.6389717400074005,229900,https://www.zillow.com/homedetails/19046-N-15th-Ave-Phoenix-AZ-85027/7969522_zpid/,33.6598,-112.09200000000001,2017-10-22,2017-10-22
9022473,23817353,"1710 E Mitchell Dr, Phoenix, AZ 85016 ",85016,0.6389006316661835,160000,https://www.zillow.com/homedetails/1710-E-Mitchell-Dr-Phoenix-AZ-85016/7540510_zpid/,33.4889,-112.045,2017-11-01,2017-11-01
415299,23818783,"10119 N 65th Ln, Glendale, AZ 85302 ",85302,0.6387256443500519,179998,https://www.zillow.com/homedetails/10119-N-65th-Ln-Glendale-AZ-85302/65235466_zpid/,33.5779,-112.2,2017-11-02,2017-11-02
42499,23811581,"6906 W Garfield St, Phoenix, AZ 85043 ",85043,0.6382915496826171,169000,https://www.zillow.com/homedetails/6906-W-Garfield-St-Phoenix-AZ-85043/7476239_zpid/,33.4575,-112.208,2017-10-28,2017-10-28
503463,22747409,"5608 N 31st Dr, Phoenix, AZ 85017 ",85017,0.6378027081489563,166900,https://www.zillow.com/homedetails/5608-N-31st-Dr-Phoenix-AZ-85017/7764292_zpid/,33.5186,-112.12700000000001,2017-10-10,2017-10-10
9019605,22737585,"9213 W Fillmore St, Tolleson, AZ 85353 ",85353,0.6377433896064758,195000,https://www.zillow.com/homedetails/9213-W-Fillmore-St-Tolleson-AZ-85353/7476932_zpid/,33.4532,-112.258,2017-10-04,2017-10-04
384676,23814267,"3501 W Ironwood Dr, Phoenix, AZ 85051 ",85051,0.6373473107814789,239900,https://www.zillow.com/homedetails/3501-W-Ironwood-Dr-Phoenix-AZ-85051/7745307_zpid/,33.5759,-112.134,2017-10-29,2017-10-29
255668,23837407,"412 W Sandra Ter, Phoenix, AZ 85023 ",85023,0.6369940638542175,229999,https://www.zillow.com/homedetails/412-W-Sandra-Ter-Phoenix-AZ-85023/7965434_zpid/,33.6344,-112.08,2017-11-20,2017-11-20
655,23759939,"2207 W Marlette Ave, Phoenix, AZ 85015 ",85015,0.6369305372238159,170000,https://www.zillow.com/homedetails/2207-W-Marlette-Ave-Phoenix-AZ-85015/7773096_zpid/,33.5291,-112.10700000000001,2017-10-20,2017-10-20
261913,23649326,"5308 N 78th Pl, Scottsdale, AZ 85250 ",85250,0.6369042932987213,229000,https://www.zillow.com/homedetails/5308-N-78th-Pl-Scottsdale-AZ-85250/7842267_zpid/,33.5142,-111.913,2017-10-13,2017-10-13
1123157,23828059,"2620 W Megan St, Chandler, AZ 85224 ",85224,0.6358751475811004,219900,https://www.zillow.com/homedetails/2620-W-Megan-St-Chandler-AZ-85224/8184484_zpid/,33.3201,-111.887,2017-11-14,2017-11-14
440736,23821179,"2519 N 87th Ave, Phoenix, AZ 85037 ",85037,0.6357777416706085,185000,https://www.zillow.com/homedetails/2519-N-87th-Ave-Phoenix-AZ-85037/7487259_zpid/,33.4754,-112.24600000000001,2017-11-04,2017-11-04
8987564,23814063,"14067 N 35th St, Phoenix, AZ 85032 ",85032,0.635479074716568,215000,https://www.zillow.com/homedetails/14067-N-35th-St-Phoenix-AZ-85032/8011904_zpid/,33.6149,-112.007,2017-10-29,2017-10-29
149903,23800141,"8309 E Indian School Rd, Scottsdale, AZ 85251 ",85251,0.6354304730892182,239850,https://www.zillow.com/homedetails/8309-E-Indian-School-Rd-Scottsdale-AZ-85251/7577019_zpid/,33.4948,-111.902,2017-10-15,2017-10-15
9022735,23819777,"13216 N 31st Way, Phoenix, AZ 85032 ",85032,0.6353809475898743,145000,https://www.zillow.com/homedetails/13216-N-31st-Way-Phoenix-AZ-85032/50188555_zpid/,33.6068,-112.014,2017-11-03,2017-11-03
460344,23756288,"5811 W Cheery Lynn Rd, Phoenix, AZ 85031 ",85031,0.6353636741638183,144900,https://www.zillow.com/homedetails/5811-W-Cheery-Lynn-Rd-Phoenix-AZ-85031/7497530_zpid/,33.4852,-112.184,2017-10-18,2017-10-18
9019387,22734485,"6810 W Merrell St, Phoenix, AZ 85033 ",85033,0.6352250099182128,185000,https://www.zillow.com/homedetails/6810-W-Merrell-St-Phoenix-AZ-85033/7468727_zpid/,33.4824,-112.206,2017-10-02,2017-10-02
1346544,22724803,"4852 W Frier Dr, Glendale, AZ 85301 ",85301,0.6347281396389007,235000,https://www.zillow.com/homedetails/4852-W-Frier-Dr-Glendale-AZ-85301/7724567_zpid/,33.5494,-112.164,2017-09-27,2017-09-27
502001,23811351,"3601 N 51st Ave, Phoenix, AZ 85031 ",85031,0.634576016664505,179800,https://www.zillow.com/homedetails/3601-N-51st-Ave-Phoenix-AZ-85031/7508530_zpid/,33.4902,-112.169,2017-10-27,2017-10-27
9021086,23815044,"8137 W Aster Dr, Peoria, AZ 85381 ",85381,0.6345495164394379,239000,https://www.zillow.com/homedetails/8137-W-Aster-Dr-Peoria-AZ-85381/8100990_zpid/,33.6013,-112.235,2017-10-30,2017-10-30
484005,23821708,"2696 N 73rd Gln, Phoenix, AZ 85035 ",85035,0.634189224243164,210000,https://www.zillow.com/homedetails/2696-N-73rd-Gln-Phoenix-AZ-85035/95155175_zpid/,33.4779,-112.21799999999999,2017-10-31,2017-10-31
9005267,23756302,"6502 W Orange Dr, Glendale, AZ 85301 ",85301,0.634176743030548,199999,https://www.zillow.com/homedetails/6502-W-Orange-Dr-Glendale-AZ-85301/7714917_zpid/,33.5133,-112.198,2017-10-16,2017-10-16
9021611,23794811,"1134 W 2nd Pl, Mesa, AZ 85201 ",85201,0.6339820623397827,234900,https://www.zillow.com/homedetails/1134-W-2nd-Pl-Mesa-AZ-85201/7611239_zpid/,33.4186,-111.85600000000001,2017-10-22,2017-10-22
829049,23814294,"3625 W San Juan Ave, Phoenix, AZ 85019 ",85019,0.6339506030082702,150000,https://www.zillow.com/homedetails/3625-W-San-Juan-Ave-Phoenix-AZ-85019/7719375_zpid/,33.5186,-112.13799999999999,2017-10-29,2017-10-29
9019191,23648849,"10602 N 80th Ln, Peoria, AZ 85345 ",85345,0.6337294638156891,190000,https://www.zillow.com/homedetails/10602-N-80th-Ln-Peoria-AZ-85345/7681416_zpid/,33.5814,-112.23200000000001,2017-10-12,2017-10-12
9006569,23813547,"2520 E Hillery Dr, Phoenix, AZ 85032 ",85032,0.6336087644100189,240000,https://www.zillow.com/homedetails/2520-E-Hillery-Dr-Phoenix-AZ-85032/8013787_zpid/,33.6223,-112.027,2017-10-26,2017-10-26
9021200,23755671,"3819 N 63rd Ave, Phoenix, AZ 85033 ",85033,0.6336019158363342,169900,https://www.zillow.com/homedetails/3819-N-63rd-Ave-Phoenix-AZ-85033/7496525_zpid/,33.4925,-112.195,2017-10-18,2017-10-18
9021367,23757594,"9414 W Timberline Dr, Sun City, AZ 85351 ",85351,0.6335783839225769,178500,https://www.zillow.com/homedetails/9414-W-Timberline-Dr-Sun-City-AZ-85351/7922214_zpid/,33.6158,-112.26299999999999,2017-10-12,2017-10-12
470397,23835033,"3425 W Citrus Way, Phoenix, AZ 85017 ",85017,0.6333701908588409,149900,https://www.zillow.com/homedetails/3425-W-Citrus-Way-Phoenix-AZ-85017/7758679_zpid/,33.5297,-112.133,2017-11-16,2017-11-16
8948906,23828565,"7614 W Weldon Ave, Phoenix, AZ 85033 ",85033,0.6331162869930267,159900,https://www.zillow.com/homedetails/7614-W-Weldon-Ave-Phoenix-AZ-85033/7478212_zpid/,33.4914,-112.22399999999999,2017-10-24,2017-10-24
483706,22742318,"2639 N 63rd Ave, Phoenix, AZ 85035 ",85035,0.6329521775245667,197000,https://www.zillow.com/homedetails/2639-N-63rd-Ave-Phoenix-AZ-85035/7491672_zpid/,33.4781,-112.195,2017-10-06,2017-10-06
413653,23822290,"6114 W Shaw Butte Dr, Glendale, AZ 85304 ",85304,0.6327240884304046,249999,https://www.zillow.com/homedetails/6114-W-Shaw-Butte-Dr-Glendale-AZ-85304/7698065_zpid/,33.596,-112.191,2017-11-06,2017-11-06
379250,23806503,"2622 W Northview Ave, Phoenix, AZ 85051 ",85051,0.6326229691505432,169900,https://www.zillow.com/homedetails/2622-W-Northview-Ave-Phoenix-AZ-85051/7779483_zpid/,33.5439,-112.115,2017-10-25,2017-10-25
8985320,23825569,"4348 W Bluefield Ave, Glendale, AZ 85308 ",85308,0.6322001576423645,248000,https://www.zillow.com/homedetails/4348-W-Bluefield-Ave-Glendale-AZ-85308/7949163_zpid/,33.6517,-112.154,2017-11-09,2017-11-09
8992065,23759230,"1935 W Utopia Rd, Phoenix, AZ 85027 ",85027,0.6321731269359588,224000,https://www.zillow.com/homedetails/1935-W-Utopia-Rd-Phoenix-AZ-85027/7969900_zpid/,33.662,-112.102,2017-10-20,2017-10-20
359603,23837384,"2538 S 88th Ln, Tolleson, AZ 85353 ",85353,0.6318341791629791,209900,https://www.zillow.com/homedetails/2538-S-88th-Ln-Tolleson-AZ-85353/67772866_zpid/,33.4242,-112.251,2017-11-20,2017-11-20
441326,23650432,"3042 N 87th Ave, Phoenix, AZ 85037 ",85037,0.6317104756832123,204999,https://www.zillow.com/homedetails/3042-N-87th-Ave-Phoenix-AZ-85037/7479842_zpid/,33.483000000000004,-112.24700000000001,2017-10-13,2017-10-13
388893,23756003,"2420 W Willow Ave, Phoenix, AZ 85029 ",85029,0.6315451383590698,179900,https://www.zillow.com/homedetails/2420-W-Willow-Ave-Phoenix-AZ-85029/7738239_zpid/,33.6079,-112.111,2017-10-18,2017-10-18
7415543,23760080,"5627 W Mission Ln, Glendale, AZ 85302 ",85302,0.6314552128314972,223900,https://www.zillow.com/homedetails/5627-W-Mission-Ln-Glendale-AZ-85302/7734682_zpid/,33.569,-112.18,2017-10-20,2017-10-20
403204,22738450,"12401 N 47th Dr, Glendale, AZ 85304 ",85304,0.6314338624477387,234900,https://www.zillow.com/homedetails/12401-N-47th-Dr-Glendale-AZ-85304/7954440_zpid/,33.5982,-112.161,2017-09-26,2017-09-26
8969573,22741412,"3002 N 54th Ln, Phoenix, AZ 85031 ",85031,0.6314220368862152,210000,https://www.zillow.com/homedetails/3002-N-54th-Ln-Phoenix-AZ-85031/7497284_zpid/,33.4831,-112.177,2017-10-06,2017-10-06
9019057,23796416,"3122 N 63rd Ave, Phoenix, AZ 85033 ",85033,0.6312208294868469,160000,https://www.zillow.com/homedetails/3122-N-63rd-Ave-Phoenix-AZ-85033/7498587_zpid/,33.4849,-112.195,2017-10-23,2017-10-23
7380359,22747336,"3611 W Maricopa St, Phoenix, AZ 85009 ",85009,0.6308344602584839,146600,https://www.zillow.com/homedetails/3611-W-Maricopa-St-Phoenix-AZ-85009/7506371_zpid/,33.4383,-112.137,2017-10-10,2017-10-10
440456,23828490,"8111 W College Dr, Phoenix, AZ 85033 ",85033,0.6308130472898483,153000,https://www.zillow.com/homedetails/8111-W-College-Dr-Phoenix-AZ-85033/7482592_zpid/,33.5078,-112.234,2017-10-25,2017-10-25
433199,23828411,"7230 W Turney Ave, Phoenix, AZ 85033 ",85033,0.6308065235614777,178900,https://www.zillow.com/homedetails/7230-W-Turney-Ave-Phoenix-AZ-85033/7711378_zpid/,33.5008,-112.215,2017-10-26,2017-10-26
389548,23813548,"2610 W Corrine Dr, Phoenix, AZ 85029 ",85029,0.6306690275669098,189900,https://www.zillow.com/homedetails/2610-W-Corrine-Dr-Phoenix-AZ-85029/7748242_zpid/,33.601,-112.115,2017-10-26,2017-10-26
1406073,22738291,"6732 W Medlock Dr, Glendale, AZ 85303 ",85303,0.6306554973125458,190000,https://www.zillow.com/homedetails/6732-W-Medlock-Dr-Glendale-AZ-85303/7709112_zpid/,33.5116,-112.205,2017-09-26,2017-09-26
410256,23810938,"4730 W Shaw Butte Dr, Glendale, AZ 85304 ",85304,0.6304943442344666,240000,https://www.zillow.com/homedetails/4730-W-Shaw-Butte-Dr-Glendale-AZ-85304/7727507_zpid/,33.5952,-112.161,2017-10-27,2017-10-27
835193,22740118,"3633 W Mariposa St, Phoenix, AZ 85019 ",85019,0.6303320050239563,180000,https://www.zillow.com/homedetails/3633-W-Mariposa-St-Phoenix-AZ-85019/7506850_zpid/,33.5075,-112.13799999999999,2017-10-05,2017-10-05
830198,23815075,"3747 W Oregon Ave, Phoenix, AZ 85019 ",85019,0.6302805602550506,169900,https://www.zillow.com/homedetails/3747-W-Oregon-Ave-Phoenix-AZ-85019/50188145_zpid/,33.5141,-112.14,2017-10-30,2017-10-30
8946582,23808705,"9637 W Tonto Ln, Peoria, AZ 85382 ",85382,0.6302051663398742,234900,https://www.zillow.com/homedetails/9637-W-Tonto-Ln-Peoria-AZ-85382/7895900_zpid/,33.6617,-112.26799999999999,2017-10-25,2017-10-25
1404598,23821104,"6113 N 71st Ln, Glendale, AZ 85303 ",85303,0.6299646914005279,194990,https://www.zillow.com/homedetails/6113-N-71st-Ln-Glendale-AZ-85303/7707065_zpid/,33.5257,-112.214,2017-11-04,2017-11-04
9021813,23820289,"8528 W Eva St, Peoria, AZ 85345 ",85345,0.6298737585544586,186000,https://www.zillow.com/homedetails/8528-W-Eva-St-Peoria-AZ-85345/7696910_zpid/,33.5674,-112.243,2017-11-03,2017-11-03
405327,23817884,"4634 W Kings Ave, Glendale, AZ 85306 ",85306,0.6297670662403106,215000,https://www.zillow.com/homedetails/4634-W-Kings-Ave-Glendale-AZ-85306/7950561_zpid/,33.6372,-112.15700000000001,2017-11-01,2017-11-01
322674,23758532,"4248 N 4th Ave, Phoenix, AZ 85013 ",85013,0.6294730871915817,199900,https://www.zillow.com/homedetails/4248-N-4th-Ave-Phoenix-AZ-85013/7770331_zpid/,33.4974,-112.08200000000001,2017-10-20,2017-10-20
9018977,23810709,"4415 W Keating Cir, Glendale, AZ 85308 ",85308,0.6294301331043244,235000,https://www.zillow.com/homedetails/4415-W-Keating-Cir-Glendale-AZ-85308/7950373_zpid/,33.6423,-112.154,2017-10-26,2017-10-26
402050,23823691,"14629 N 63rd Dr, Glendale, AZ 85306 ",85306,0.6291935026645661,220000,https://www.zillow.com/homedetails/14629-N-63rd-Dr-Glendale-AZ-85306/8098816_zpid/,33.6179,-112.193,2017-11-06,2017-11-06
411351,23831053,"5194 W Paradise Dr, Glendale, AZ 85304 ",85304,0.6287384748458862,214900,https://www.zillow.com/homedetails/5194-W-Paradise-Dr-Glendale-AZ-85304/60978690_zpid/,33.5953,-112.171,2017-11-13,2017-11-13
9012601,23824429,"8709 W C P Hayes Dr, Tolleson, AZ 85353 ",85353,0.6286008536815644,215000,https://www.zillow.com/homedetails/8709-W-C-P-Hayes-Dr-Tolleson-AZ-85353/7476816_zpid/,33.4541,-112.24799999999999,2017-11-09,2017-11-09
9024040,23836165,"2215 S 99th Ln, Tolleson, AZ 85353 ",85353,0.6280694127082824,227000,https://www.zillow.com/homedetails/2215-S-99th-Ln-Tolleson-AZ-85353/95076703_zpid/,33.4261,-112.273,2017-11-18,2017-11-18
408932,23816436,"6425 W Monte Cristo Ave, Glendale, AZ 85306 ",85306,0.6280197978019715,214900,https://www.zillow.com/homedetails/6425-W-Monte-Cristo-Ave-Glendale-AZ-85306/7902187_zpid/,33.631,-112.197,2017-10-31,2017-10-31
481614,23813543,"2502 N 47th Ln, Phoenix, AZ 85035 ",85035,0.6280062675476075,131900,https://www.zillow.com/homedetails/2502-N-47th-Ln-Phoenix-AZ-85035/7499147_zpid/,33.4751,-112.162,2017-10-28,2017-10-28
440716,23758544,"8150 W Clarendon Ave, Phoenix, AZ 85033 ",85033,0.627986878156662,159000,https://www.zillow.com/homedetails/8150-W-Clarendon-Ave-Phoenix-AZ-85033/7479062_zpid/,33.4895,-112.235,2017-10-20,2017-10-20
484960,23758546,"2837 N 72nd Dr, Phoenix, AZ 85035 ",85035,0.6277399182319641,169900,https://www.zillow.com/homedetails/2837-N-72nd-Dr-Phoenix-AZ-85035/7474537_zpid/,33.4793,-112.21600000000001,2017-10-20,2017-10-20
423300,23817510,"8615 N 51st Dr, Glendale, AZ 85302 ",85302,0.6275135338306427,189900,https://www.zillow.com/homedetails/8615-N-51st-Dr-Glendale-AZ-85302/7733952_zpid/,33.5628,-112.169,2017-11-01,2017-11-01
481066,22742303,"2332 N 72nd Dr, Phoenix, AZ 85035 ",85035,0.6272944867610931,165000,https://www.zillow.com/homedetails/2332-N-72nd-Dr-Phoenix-AZ-85035/7474687_zpid/,33.4742,-112.21600000000001,2017-10-06,2017-10-06
383046,23830799,"13002 N 26th Ave, Phoenix, AZ 85029 ",85029,0.6270927667617798,210000,https://www.zillow.com/homedetails/13002-N-26th-Ave-Phoenix-AZ-85029/7738395_zpid/,33.6038,-112.11399999999999,2017-11-10,2017-11-10
8850973,23814108,"2525 E Michigan Ave, Phoenix, AZ 85032 ",85032,0.6266908764839172,225000,https://www.zillow.com/homedetails/2525-E-Michigan-Ave-Phoenix-AZ-85032/7999906_zpid/,33.6507,-112.027,2017-10-29,2017-10-29
256281,23819820,"4218 W Boca Raton Rd, Phoenix, AZ 85053 ",85053,0.6266099989414216,168000,https://www.zillow.com/homedetails/4218-W-Boca-Raton-Rd-Phoenix-AZ-85053/7945462_zpid/,33.6112,-112.15,2017-11-03,2017-11-03
9020415,23814144,"4822 N 64th Dr, Phoenix, AZ 85033 ",85033,0.6265614330768585,225000,https://www.zillow.com/homedetails/4822-N-64th-Dr-Phoenix-AZ-85033/7712268_zpid/,33.5082,-112.198,2017-10-29,2017-10-29
9022227,23813828,"2926 E Michigan Ave, Phoenix, AZ 85032 ",85032,0.6264904022216797,199500,https://www.zillow.com/homedetails/2926-E-Michigan-Ave-Phoenix-AZ-85032/7999122_zpid/,33.6525,-112.01899999999999,2017-10-28,2017-10-28
1342305,22747361,"4413 W Maryland Ave, Glendale, AZ 85301 ",85301,0.6262153327465058,234500,https://www.zillow.com/homedetails/4413-W-Maryland-Ave-Glendale-AZ-85301/7724234_zpid/,33.5309,-112.154,2017-10-06,2017-10-06
354848,22739897,"2320 E Beck Ln, Phoenix, AZ 85022 ",85022,0.6262103319168091,170000,https://www.zillow.com/homedetails/2320-E-Beck-Ln-Phoenix-AZ-85022/8007959_zpid/,33.626999999999995,-112.03299999999999,2017-10-04,2017-10-04
218427,23813727,"7308 N 16th Pl, Phoenix, AZ 85020 ",85020,0.6261177718639374,238000,https://www.zillow.com/homedetails/7308-N-16th-Pl-Phoenix-AZ-85020/7806951_zpid/,33.5439,-112.046,2017-10-28,2017-10-28
642352,23818179,"2143 W Plata Ave, Mesa, AZ 85202 ",85202,0.6255942702293396,248900,https://www.zillow.com/homedetails/2143-W-Plata-Ave-Mesa-AZ-85202/8171521_zpid/,33.3607,-111.88,2017-11-02,2017-11-02
404082,23831516,"16245 N 43rd Dr, Glendale, AZ 85306 ",85306,0.6255823135375976,244900,https://www.zillow.com/homedetails/16245-N-43rd-Dr-Glendale-AZ-85306/7950704_zpid/,33.6339,-112.152,2017-11-14,2017-11-14
351584,22747358,"4213 W Culver St, Phoenix, AZ 85009 ",85009,0.6252956688404083,149900,https://www.zillow.com/homedetails/4213-W-Culver-St-Phoenix-AZ-85009/7506504_zpid/,33.463,-112.149,2017-10-10,2017-10-10
330099,22738563,"3820 N 23rd Ave, Phoenix, AZ 85015 ",85015,0.6251033455133438,245000,https://www.zillow.com/homedetails/3820-N-23rd-Ave-Phoenix-AZ-85015/7516043_zpid/,33.4921,-112.10799999999999,2017-10-05,2017-10-05
1354557,23800556,"6504 N 61st Ave, Glendale, AZ 85301 ",85301,0.6250541985034943,125000,https://www.zillow.com/homedetails/6504-N-61st-Ave-Glendale-AZ-85301/7707995_zpid/,33.5315,-112.191,2017-10-24,2017-10-24
330130,23649302,"3841 N 21st Ave, Phoenix, AZ 85015 ",85015,0.6250194847583771,165000,https://www.zillow.com/homedetails/3841-N-21st-Ave-Phoenix-AZ-85015/7516223_zpid/,33.4929,-112.104,2017-10-13,2017-10-13
9016917,22713964,"16415 N 29th Pl, Phoenix, AZ 85032 ",85032,0.6249991834163666,239000,https://www.zillow.com/homedetails/16415-N-29th-Pl-Phoenix-AZ-85032/8005881_zpid/,33.6358,-112.01899999999999,2017-09-24,2017-09-24
9013787,22693106,"5647 W Villa Theresa Dr, Glendale, AZ 85308 ",85308,0.6249620974063873,210000,https://www.zillow.com/homedetails/5647-W-Villa-Theresa-Dr-Glendale-AZ-85308/7901269_zpid/,33.6537,-112.182,2017-09-19,2017-09-19
209311,23681046,"3420 E Cambridge Ave, Phoenix, AZ 85008 ",85008,0.6249575555324555,200000,http://www.zillow.com/homedetails/3420-E-Cambridge-Ave-Phoenix-AZ-85008/81975682_zpid,33.478,-112.008,2017-10-06,2017-10-06
435667,22734446,"7942 W Verde Ln, Phoenix, AZ 85033 ",85033,0.6249136805534363,175000,https://www.zillow.com/homedetails/7942-W-Verde-Ln-Phoenix-AZ-85033/7479526_zpid/,33.4815,-112.23100000000001,2017-10-02,2017-10-02
406153,23823704,"5114 W Acoma Dr, Glendale, AZ 85306 ",85306,0.6247990012168885,240000,https://www.zillow.com/homedetails/5114-W-Acoma-Dr-Glendale-AZ-85306/7910898_zpid/,33.6179,-112.17,2017-11-08,2017-11-08
484854,23817893,"2833 N 73rd Dr, Phoenix, AZ 85035 ",85035,0.6247031211853027,190000,https://www.zillow.com/homedetails/2833-N-73rd-Dr-Phoenix-AZ-85035/92692586_zpid/,33.4796,-112.21600000000001,2017-11-01,2017-11-01
7449241,23819586,"11935 N 68th Ave, Peoria, AZ 85345 ",85345,0.6246080994606018,245000,https://www.zillow.com/homedetails/11935-N-68th-Ave-Peoria-AZ-85345/7700139_zpid/,33.594,-112.204,2017-11-03,2017-11-03
9022423,23821993,"8509 W Watkins St, Tolleson, AZ 85353 ",85353,0.6245028376579285,200000,https://www.zillow.com/homedetails/8509-W-Watkins-St-Tolleson-AZ-85353/59271432_zpid/,33.4257,-112.244,2017-11-06,2017-11-06
8985061,23798423,"1918 E Willetta St, Phoenix, AZ 85006 ",85006,0.6243993103504181,220000,https://www.zillow.com/homedetails/1918-E-Willetta-St-Phoenix-AZ-85006/7528826_zpid/,33.464,-112.04,2017-10-12,2017-10-12
1414144,23831100,"7341 N 70th Dr, Glendale, AZ 85303 ",85303,0.6241085529327393,183000,https://www.zillow.com/homedetails/7341-N-70th-Dr-Glendale-AZ-85303/7704927_zpid/,33.5435,-112.211,2017-11-10,2017-11-10
9021735,23800650,"4211 N 10th St, Phoenix, AZ 85014 ",85014,0.624099177122116,175000,https://www.zillow.com/homedetails/4211-N-10th-St-Phoenix-AZ-85014/7769742_zpid/,33.4967,-112.06,2017-10-24,2017-10-24
402127,23814880,"14638 N 62nd Ave, Glendale, AZ 85306 ",85306,0.62394500374794,230000,https://www.zillow.com/homedetails/14638-N-62nd-Ave-Glendale-AZ-85306/8098778_zpid/,33.6177,-112.191,2017-10-30,2017-10-30
407931,23816227,"6025 W Evans Dr, Glendale, AZ 85306 ",85306,0.6239437580108642,229900,https://www.zillow.com/homedetails/6025-W-Evans-Dr-Glendale-AZ-85306/8098871_zpid/,33.6168,-112.18799999999999,2017-10-31,2017-10-31
426687,22730847,"4834 N 81st Dr, Phoenix, AZ 85033 ",85033,0.6237386405467987,179900,https://www.zillow.com/homedetails/4834-N-81st-Dr-Phoenix-AZ-85033/7482505_zpid/,33.5079,-112.235,2017-09-29,2017-09-29
1367,22703940,"18821 N 45th Ave, Glendale, AZ 85308 ",85308,0.623428338766098,214900,https://www.zillow.com/homedetails/18821-N-45th-Ave-Glendale-AZ-85308/7938702_zpid/,33.6571,-112.15700000000001,2017-09-20,2017-09-20
9020593,23816971,"3544 W Libby St, Glendale, AZ 85308 ",85308,0.6233186364173889,239900,https://www.zillow.com/homedetails/3544-W-Libby-St-Glendale-AZ-85308/7948073_zpid/,33.6483,-112.13600000000001,2017-11-01,2017-11-01
9016683,23754755,"2816 N 32nd Pl, Phoenix, AZ 85008 ",85008,0.6225236058235168,185000,https://www.zillow.com/homedetails/2816-N-32nd-Pl-Phoenix-AZ-85008/7540834_zpid/,33.4793,-112.012,2017-10-17,2017-10-17
410068,23831025,"4632 W Mescal St, Glendale, AZ 85304 ",85304,0.6223506093025207,204900,https://www.zillow.com/homedetails/4632-W-Mescal-St-Glendale-AZ-85304/7727760_zpid/,33.5869,-112.16,2017-11-10,2017-11-10
435016,22734461,"7750 W Clarendon Ave, Phoenix, AZ 85033 ",85033,0.6222461283206939,167900,https://www.zillow.com/homedetails/7750-W-Clarendon-Ave-Phoenix-AZ-85033/7478454_zpid/,33.4911,-112.227,2017-10-03,2017-10-03
9017508,23796415,"6407 W Mulberry Dr, Phoenix, AZ 85033 ",85033,0.6221620202064514,162500,https://www.zillow.com/homedetails/6407-W-Mulberry-Dr-Phoenix-AZ-85033/7498482_zpid/,33.4866,-112.197,2017-10-23,2017-10-23
9020195,23820290,"8638 W Laurel Ln, Peoria, AZ 85345 ",85345,0.6221490859985351,247700,https://www.zillow.com/homedetails/8638-W-Laurel-Ln-Peoria-AZ-85345/7685468_zpid/,33.5934,-112.245,2017-11-03,2017-11-03
8988163,23818314,"2650 E Hartford Ave, Phoenix, AZ 85032 ",85032,0.6218205273151398,249500,https://www.zillow.com/homedetails/2650-E-Hartford-Ave-Phoenix-AZ-85032/59266670_zpid/,33.6425,-112.025,2017-11-02,2017-11-02
9021845,23828309,"6123 W Indianola Ave, Phoenix, AZ 85033 ",85033,0.6218142092227936,184900,https://www.zillow.com/homedetails/6123-W-Indianola-Ave-Phoenix-AZ-85033/7496562_zpid/,33.4921,-112.19200000000001,2017-10-25,2017-10-25
1114416,23820184,"1617 W Stottler Dr, Chandler, AZ 85224 ",85224,0.6217539340257645,229900,https://www.zillow.com/homedetails/1617-W-Stottler-Dr-Chandler-AZ-85224/8193816_zpid/,33.3325,-111.87,2017-11-03,2017-11-03
9022859,23821620,"5030 W Taro Dr, Glendale, AZ 85308 ",85308,0.6216008305549622,228000,https://www.zillow.com/homedetails/5030-W-Taro-Dr-Glendale-AZ-85308/7939791_zpid/,33.6587,-112.16799999999999,2017-11-04,2017-11-04
9016577,23797077,"9709 W Oak Ridge Dr, Sun City, AZ 85351 ",85351,0.6214582979679107,129900,https://www.zillow.com/homedetails/9709-W-Oak-Ridge-Dr-Sun-City-AZ-85351/7904524_zpid/,33.6274,-112.26799999999999,2017-10-24,2017-10-24
1091335,23835959,"680 W Shawnee Dr, Chandler, AZ 85225 ",85225,0.6213734924793244,234999,https://www.zillow.com/homedetails/680-W-Shawnee-Dr-Chandler-AZ-85225/8200512_zpid/,33.3447,-111.853,2017-11-17,2017-11-17
483971,22688771,"2734 N 73rd Gln, Phoenix, AZ 85035 ",85035,0.6207896113395691,209900,https://www.zillow.com/homedetails/2734-N-73rd-Gln-Phoenix-AZ-85035/95167972_zpid/,33.4783,-112.21799999999999,2017-09-18,2017-09-18
416663,23818792,"4542 W Golden Ln, Glendale, AZ 85302 ",85302,0.6206826329231262,200000,https://www.zillow.com/homedetails/4542-W-Golden-Ln-Glendale-AZ-85302/7731410_zpid/,33.5651,-112.15799999999999,2017-11-02,2017-11-02
8970005,22734447,"7637 W Whitton Ave, Phoenix, AZ 85033 ",85033,0.6203694641590118,179900,https://www.zillow.com/homedetails/7637-W-Whitton-Ave-Phoenix-AZ-85033/7478287_zpid/,33.4901,-112.22399999999999,2017-10-03,2017-10-03
1092802,23820224,"731 W Palomino Dr, Chandler, AZ 85225 ",85225,0.6202598631381988,245900,https://www.zillow.com/homedetails/731-W-Palomino-Dr-Chandler-AZ-85225/8177603_zpid/,33.3404,-111.855,2017-11-03,2017-11-03
15292,22708244,"8334 W Ocotillo Rd, Glendale, AZ 85305 ",85305,0.6201391100883484,215900,https://www.zillow.com/homedetails/8334-W-Ocotillo-Rd-Glendale-AZ-85305/7461418_zpid/,33.534,-112.23899999999999,2017-09-20,2017-09-20
9017865,23797410,"4501 W Weldon Ave, Phoenix, AZ 85031 ",85031,0.620116937160492,182000,https://www.zillow.com/homedetails/4501-W-Weldon-Ave-Phoenix-AZ-85031/7508185_zpid/,33.4919,-112.156,2017-10-24,2017-10-24
406570,23831034,"5247 W Hearn Rd, Glendale, AZ 85306 ",85306,0.6198765158653259,231000,https://www.zillow.com/homedetails/5247-W-Hearn-Rd-Glendale-AZ-85306/8097525_zpid/,33.6146,-112.17399999999999,2017-11-12,2017-11-12
700481,23821699,"2550 W Knowles Ave, Mesa, AZ 85202 ",85202,0.6198514461517334,248900,https://www.zillow.com/homedetails/2550-W-Knowles-Ave-Mesa-AZ-85202/8253095_zpid/,33.3781,-111.889,2017-11-02,2017-11-02
411799,22708163,"5304 W Sunnyside Dr, Glendale, AZ 85304 ",85304,0.6196101427078247,239900,https://www.zillow.com/homedetails/5304-W-Sunnyside-Dr-Glendale-AZ-85304/7737447_zpid/,33.5927,-112.17299999999999,2017-09-21,2017-09-21
1345978,23817191,"4812 W Sierra Vista Dr, Glendale, AZ 85301 ",85301,0.6192893147468567,179900,https://www.zillow.com/homedetails/4812-W-Sierra-Vista-Dr-Glendale-AZ-85301/7722682_zpid/,33.533,-112.163,2017-11-01,2017-11-01
387030,22724922,"2114 W Sunnyside Dr, Phoenix, AZ 85029 ",85029,0.6190050184726715,176900,https://www.zillow.com/homedetails/2114-W-Sunnyside-Dr-Phoenix-AZ-85029/7748813_zpid/,33.5934,-112.104,2017-09-27,2017-09-27
8969572,23828388,"6331 W Whitton Ave, Phoenix, AZ 85033 ",85033,0.6189998328685761,126499,https://www.zillow.com/homedetails/6331-W-Whitton-Ave-Phoenix-AZ-85033/7489157_zpid/,33.4896,-112.196,2017-10-27,2017-10-27
23522,23512121,"1903 W 2nd St, Mesa, AZ 85201 ",85201,0.6189925372600555,174900,https://www.zillow.com/homedetails/1903-W-2nd-St-Mesa-AZ-85201/7612268_zpid/,33.4195,-111.87299999999999,2017-10-08,2017-10-08
9021795,23822865,"747 W Rosal Pl, Chandler, AZ 85225 ",85225,0.618940931558609,249800,https://www.zillow.com/homedetails/747-W-Rosal-Pl-Chandler-AZ-85225/8177685_zpid/,33.3412,-111.855,2017-11-07,2017-11-07
351746,23822654,"6619 W Whyman Ave, Phoenix, AZ 85043 ",85043,0.6188968479633331,174900,https://www.zillow.com/homedetails/6619-W-Whyman-Ave-Phoenix-AZ-85043/62727350_zpid/,33.4269,-112.20200000000001,2017-11-08,2017-11-08
9021916,23821887,"5114 W Vogel Ave, Glendale, AZ 85302 ",85302,0.6184361636638641,152000,https://www.zillow.com/homedetails/5114-W-Vogel-Ave-Glendale-AZ-85302/92348849_zpid/,33.5721,-112.17,2017-11-05,2017-11-05
447418,23839812,"8311 W Coolidge St, Phoenix, AZ 85037 ",85037,0.6184240639209747,193900,https://www.zillow.com/homedetails/8311-W-Coolidge-St-Phoenix-AZ-85037/7480994_zpid/,33.5048,-112.238,2017-10-30,2017-10-30
9002420,23799270,"4040 E Whitney Ln, Phoenix, AZ 85032 ",85032,0.6183403193950653,240000,https://www.zillow.com/homedetails/4040-E-Whitney-Ln-Phoenix-AZ-85032/8029522_zpid/,33.6217,-111.995,2017-10-18,2017-10-18
1373662,23816562,"8771 W Ocotillo Rd, Glendale, AZ 85305 ",85305,0.6182940185070038,205000,https://www.zillow.com/homedetails/8771-W-Ocotillo-Rd-Glendale-AZ-85305/7461673_zpid/,33.5332,-112.25,2017-10-31,2017-10-31
380897,23810921,"2920 W Townley Ave, Phoenix, AZ 85051 ",85051,0.6182680785655975,155000,https://www.zillow.com/homedetails/2920-W-Townley-Ave-Phoenix-AZ-85051/7750513_zpid/,33.5653,-112.12200000000001,2017-10-27,2017-10-27
378692,22719387,"10228 N 36th Ave, Phoenix, AZ 85051 ",85051,0.6182233244180679,195000,https://www.zillow.com/homedetails/10228-N-36th-Ave-Phoenix-AZ-85051/7745264_zpid/,33.5794,-112.13600000000001,2017-09-25,2017-09-25
497164,23820780,"6725 W Holly St, Phoenix, AZ 85035 ",85035,0.6177163004875184,160000,https://www.zillow.com/homedetails/6725-W-Holly-St-Phoenix-AZ-85035/7481511_zpid/,33.4707,-112.204,2017-11-03,2017-11-03
1107574,23832074,"1050 W Estrella Dr, Chandler, AZ 85224 ",85224,0.6170232892036438,248000,https://www.zillow.com/homedetails/1050-W-Estrella-Dr-Chandler-AZ-85224/8194446_zpid/,33.3311,-111.861,2017-11-13,2017-11-13
403650,23818785,"15830 N 59th Dr, Glendale, AZ 85306 ",85306,0.6164799094200134,220000,https://www.zillow.com/homedetails/15830-N-59th-Dr-Glendale-AZ-85306/8096976_zpid/,33.6301,-112.18700000000001,2017-11-02,2017-11-02
559806,23840296,"1320 W Pecos Ave, Mesa, AZ 85202 ",85202,0.6163517832756042,235900,https://www.zillow.com/homedetails/1320-W-Pecos-Ave-Mesa-AZ-85202/8171833_zpid/,33.36,-111.861,2017-11-17,2017-11-17
524525,23828676,"9119 W Cypress St, Phoenix, AZ 85037 ",85037,0.615984833240509,189900,https://www.zillow.com/homedetails/9119-W-Cypress-St-Phoenix-AZ-85037/67762984_zpid/,33.4715,-112.256,2017-11-14,2017-11-14
1503,23808957,"2830 W Indian School Rd, Phoenix, AZ 85017 ",85017,0.6157036244869232,148000,https://www.zillow.com/homedetails/2830-W-Indian-School-Rd-Phoenix-AZ-85017/7768763_zpid/,33.4953,-112.12100000000001,2017-10-26,2017-10-26
349412,23828117,"6302 W Gross Ave, Phoenix, AZ 85043 ",85043,0.615678358078003,215000,https://www.zillow.com/homedetails/6302-W-Gross-Ave-Phoenix-AZ-85043/53206291_zpid/,33.4294,-112.196,2017-11-13,2017-11-13
410898,23823665,"5031 W Windrose Dr, Glendale, AZ 85304 ",85304,0.6154817670583725,229000,https://www.zillow.com/homedetails/5031-W-Windrose-Dr-Glendale-AZ-85304/7954728_zpid/,33.6006,-112.167,2017-11-08,2017-11-08
9012359,23832092,"1994 N Iowa St, Chandler, AZ 85225 ",85225,0.615314781665802,224000,https://www.zillow.com/homedetails/1994-N-Iowa-St-Chandler-AZ-85225/8182689_zpid/,33.3344,-111.85,2017-11-10,2017-11-10
329167,22718810,"2340 W Mulberry Dr, Phoenix, AZ 85015 ",85015,0.6151773035526276,210000,https://www.zillow.com/homedetails/2340-W-Mulberry-Dr-Phoenix-AZ-85015/7517577_zpid/,33.4872,-112.11,2017-09-25,2017-09-25
9000590,22678276,"2725 N 40th Ave, Phoenix, AZ 85009 ",85009,0.6146081864833832,162900,https://www.zillow.com/homedetails/2725-N-40th-Ave-Phoenix-AZ-85009/7512795_zpid/,33.4798,-112.145,2017-09-15,2017-09-15
828736,22708030,"3602 W Pasadena Ave, Phoenix, AZ 85019 ",85019,0.6146009147167206,197500,https://www.zillow.com/homedetails/3602-W-Pasadena-Ave-Phoenix-AZ-85019/7719981_zpid/,33.5109,-112.137,2017-09-20,2017-09-20
336902,23813533,"2125 W State Ave, Phoenix, AZ 85021 ",85021,0.6145518720149994,215000,https://www.zillow.com/homedetails/2125-W-State-Ave-Phoenix-AZ-85021/7778867_zpid/,33.5442,-112.105,2017-10-28,2017-10-28
250469,22705843,"2302 W Village Dr, Phoenix, AZ 85023 ",85023,0.6142902553081513,244499,https://www.zillow.com/homedetails/2302-W-Village-Dr-Phoenix-AZ-85023/7963978_zpid/,33.645,-112.109,2017-09-20,2017-09-20
9020650,23832106,"324 W Rosal Pl, Chandler, AZ 85225 ",85225,0.6136521220207214,215000,https://www.zillow.com/homedetails/324-W-Rosal-Pl-Chandler-AZ-85225/8177217_zpid/,33.3433,-111.848,2017-11-09,2017-11-09
403477,23830792,"12447 N 50th Ln, Glendale, AZ 85304 ",85304,0.6136122345924377,213500,https://www.zillow.com/homedetails/12447-N-50th-Ln-Glendale-AZ-85304/7954648_zpid/,33.5997,-112.16799999999999,2017-11-12,2017-11-12
345521,23753202,"2846 W Melvin St, Phoenix, AZ 85009 ",85009,0.6134454071521759,80000,https://www.zillow.com/homedetails/2846-W-Melvin-St-Phoenix-AZ-85009/7514191_zpid/,33.4524,-112.12200000000001,2017-10-15,2017-10-15
404210,23821259,"16410 N 66th Dr, Glendale, AZ 85306 ",85306,0.6129474222660065,205000,https://www.zillow.com/homedetails/16410-N-66th-Dr-Glendale-AZ-85306/7901919_zpid/,33.6346,-112.20200000000001,2017-11-04,2017-11-04
1121709,23834442,"2370 W Orchid Ln, Chandler, AZ 85224 ",85224,0.6127307772636413,227000,https://www.zillow.com/homedetails/2370-W-Orchid-Ln-Chandler-AZ-85224/8201830_zpid/,33.324,-111.883,2017-11-16,2017-11-16
971138,23827153,"555 N Maple St, Chandler, AZ 85226 ",85226,0.6123198688030242,249000,https://www.zillow.com/homedetails/555-N-Maple-St-Chandler-AZ-85226/8165371_zpid/,33.3116,-111.944,2017-11-12,2017-11-12
237687,22691836,"3003 W Anderson Dr, Phoenix, AZ 85053 ",85053,0.6121439605951309,249500,https://www.zillow.com/homedetails/3003-W-Anderson-Dr-Phoenix-AZ-85053/7942212_zpid/,33.6441,-112.124,2017-09-19,2017-09-19
9012842,23818998,"8008 W Corrine Dr, Peoria, AZ 85381 ",85381,0.61199871301651,224900,https://www.zillow.com/homedetails/8008-W-Corrine-Dr-Peoria-AZ-85381/8101079_zpid/,33.6,-112.23200000000001,2017-11-01,2017-11-01
415521,23831012,"10301 N 65th Dr, Glendale, AZ 85302 ",85302,0.6119448006153106,151500,https://www.zillow.com/homedetails/10301-N-65th-Dr-Glendale-AZ-85302/7706446_zpid/,33.5798,-112.199,2017-11-14,2017-11-14
9021304,23756946,"2800 E Danbury Rd, Phoenix, AZ 85032 ",85032,0.6116873562335968,185000,https://www.zillow.com/homedetails/2800-E-Danbury-Rd-Phoenix-AZ-85032/7999387_zpid/,33.6418,-112.022,2017-10-19,2017-10-19
364303,22743539,"9353 W Taylor St, Tolleson, AZ 85353 ",85353,0.6109517455101013,99000,https://www.zillow.com/homedetails/9353-W-Taylor-St-Tolleson-AZ-85353/7477007_zpid/,33.4524,-112.26100000000001,2017-10-07,2017-10-07
455626,23813601,"4732 N 54th Dr, Phoenix, AZ 85031 ",85031,0.6107936441898346,169000,https://www.zillow.com/homedetails/4732-N-54th-Dr-Phoenix-AZ-85031/7713824_zpid/,33.5068,-112.177,2017-10-27,2017-10-27
388589,23838914,"2338 W Altadena Ave, Phoenix, AZ 85029 ",85029,0.6104750156402587,189900,https://www.zillow.com/homedetails/2338-W-Altadena-Ave-Phoenix-AZ-85029/7749198_zpid/,33.5925,-112.11,2017-11-07,2017-11-07
337793,22745680,"2343 W Diana Ave, Phoenix, AZ 85021 ",85021,0.6102159440517425,225000,https://www.zillow.com/homedetails/2343-W-Diana-Ave-Phoenix-AZ-85021/7782287_zpid/,33.563,-112.11,2017-10-09,2017-10-09
392781,23831799,"4212 W Townley Ave, Phoenix, AZ 85051 ",85051,0.6100939750671387,239000,https://www.zillow.com/homedetails/4212-W-Townley-Ave-Phoenix-AZ-85051/7754721_zpid/,33.5659,-112.149,2017-11-04,2017-11-04
421245,23823724,"6222 W Echo Ln, Glendale, AZ 85302 ",85302,0.6098019123077393,205000,https://www.zillow.com/homedetails/6222-W-Echo-Ln-Glendale-AZ-85302/7704166_zpid/,33.5584,-112.194,2017-11-07,2017-11-07
335242,23814162,"6803 N 19th Dr, Phoenix, AZ 85015 ",85015,0.6097734719514847,159900,https://www.zillow.com/homedetails/6803-N-19th-Dr-Phoenix-AZ-85015/7773475_zpid/,33.5368,-112.1,2017-10-28,2017-10-28
17802,23821964,"8338 W Bluefield Ave, Peoria, AZ 85382 ",85382,0.6094105124473572,225000,https://www.zillow.com/homedetails/8338-W-Bluefield-Ave-Peoria-AZ-85382/8129243_zpid/,33.6507,-112.23899999999999,2017-11-04,2017-11-04
452983,23814740,"4423 W Flower St, Phoenix, AZ 85031 ",85031,0.6089638113975525,168500,https://www.zillow.com/homedetails/4423-W-Flower-St-Phoenix-AZ-85031/7509750_zpid/,33.4865,-112.154,2017-10-30,2017-10-30
424708,23831125,"9609 N 52nd Ln, Glendale, AZ 85302 ",85302,0.6089368045330048,202900,https://www.zillow.com/homedetails/9609-N-52nd-Ln-Glendale-AZ-85302/7734410_zpid/,33.5731,-112.17299999999999,2017-11-13,2017-11-13
255866,23833540,"501 W Beverly Ln, Phoenix, AZ 85023 ",85023,0.608739709854126,205000,https://www.zillow.com/homedetails/501-W-Beverly-Ln-Phoenix-AZ-85023/7965501_zpid/,33.6333,-112.081,2017-11-12,2017-11-12
1355576,23760088,"6629 N 54th Dr, Glendale, AZ 85301 ",85301,0.6085280179977417,119997,https://www.zillow.com/homedetails/6629-N-54th-Dr-Glendale-AZ-85301/7722242_zpid/,33.5342,-112.176,2017-10-20,2017-10-20
327579,23811390,"2040 W Hazelwood St, Phoenix, AZ 85015 ",85015,0.6083141803741455,245000,https://www.zillow.com/homedetails/2040-W-Hazelwood-St-Phoenix-AZ-85015/7765462_zpid/,33.5043,-112.103,2017-10-27,2017-10-27
411581,22708161,"5226 W Eugie Ave, Glendale, AZ 85304 ",85304,0.6075648754835129,220000,https://www.zillow.com/homedetails/5226-W-Eugie-Ave-Glendale-AZ-85304/7911821_zpid/,33.608000000000004,-112.17200000000001,2017-09-21,2017-09-21
329444,22745740,"2423 W San Miguel Ave, Phoenix, AZ 85015 ",85015,0.6075340747833252,178800,https://www.zillow.com/homedetails/2423-W-San-Miguel-Ave-Phoenix-AZ-85015/7763696_zpid/,33.5193,-112.11200000000001,2017-10-06,2017-10-06
250720,23821217,"3627 W Hearn Rd, Phoenix, AZ 85053 ",85053,0.607248741388321,239900,https://www.zillow.com/homedetails/3627-W-Hearn-Rd-Phoenix-AZ-85053/7944489_zpid/,33.6144,-112.137,2017-11-04,2017-11-04
8977160,23825434,"16231 N 91st Dr, Peoria, AZ 85382 ",85382,0.6070730507373809,233000,https://www.zillow.com/homedetails/16231-N-91st-Dr-Peoria-AZ-85382/2123153916_zpid/,33.6316,-112.25200000000001,2017-11-13,2017-11-13
1075269,23840385,"1803 N Cheri Lynn Dr, Chandler, AZ 85225 ",85225,0.6070481300354004,234000,https://www.zillow.com/homedetails/1803-N-Cheri-Lynn-Dr-Chandler-AZ-85225/8183501_zpid/,33.3321,-111.853,2017-11-22,2017-11-22
1354862,23811403,"6536 N 62nd Ave, Glendale, AZ 85301 ",85301,0.6069045811891556,159000,https://www.zillow.com/homedetails/6536-N-62nd-Ave-Glendale-AZ-85301/7707961_zpid/,33.5325,-112.193,2017-10-27,2017-10-27
253834,23815568,"3833 W Waltann Ln, Phoenix, AZ 85053 ",85053,0.6066909968852997,239900,https://www.zillow.com/homedetails/3833-W-Waltann-Ln-Phoenix-AZ-85053/7945786_zpid/,33.6268,-112.14200000000001,2017-10-31,2017-10-31
225421,23833478,"1430 E Topeka Dr, Phoenix, AZ 85024 ",85024,0.6063072383403778,214900,https://www.zillow.com/homedetails/1430-E-Topeka-Dr-Phoenix-AZ-85024/7995851_zpid/,33.6597,-112.051,2017-11-10,2017-11-10
416538,23831023,"4527 W Cochise Dr, Glendale, AZ 85302 ",85302,0.6062842786312104,216900,https://www.zillow.com/homedetails/4527-W-Cochise-Dr-Glendale-AZ-85302/7729060_zpid/,33.5803,-112.15799999999999,2017-11-09,2017-11-09
420158,23823709,"5666 W Laurie Ln, Glendale, AZ 85302 ",85302,0.605927848815918,209000,https://www.zillow.com/homedetails/5666-W-Laurie-Ln-Glendale-AZ-85302/7732919_zpid/,33.5593,-112.181,2017-11-07,2017-11-07
256906,23824392,"609 W Beverly Ln, Phoenix, AZ 85023 ",85023,0.6057562887668609,229000,https://www.zillow.com/homedetails/609-W-Beverly-Ln-Phoenix-AZ-85023/7965493_zpid/,33.6333,-112.08200000000001,2017-11-08,2017-11-08
640201,23837467,"613 W Peralta Ave, Mesa, AZ 85210 ",85210,0.6056371033191681,229000,https://www.zillow.com/homedetails/613-W-Peralta-Ave-Mesa-AZ-85210/8190639_zpid/,33.3572,-111.84700000000001,2017-11-20,2017-11-20
9022813,23820613,"4726 W Villa Theresa Dr, Glendale, AZ 85308 ",85308,0.6055313050746918,219000,https://www.zillow.com/homedetails/4726-W-Villa-Theresa-Dr-Glendale-AZ-85308/7949457_zpid/,33.6542,-112.162,2017-11-03,2017-11-03
415220,23821258,"10031 N 56th Dr, Glendale, AZ 85302 ",85302,0.6055028676986695,203000,https://www.zillow.com/homedetails/10031-N-56th-Dr-Glendale-AZ-85302/7735304_zpid/,33.5778,-112.18,2017-11-04,2017-11-04
283658,23818597,"2234 E Paradise Dr, Phoenix, AZ 85028 ",85028,0.6054867893457413,242500,https://www.zillow.com/homedetails/2234-E-Paradise-Dr-Phoenix-AZ-85028/7816425_zpid/,33.5961,-112.03299999999999,2017-11-02,2017-11-02
249634,23819195,"2238 W Village Dr, Phoenix, AZ 85023 ",85023,0.6053170680999755,224900,https://www.zillow.com/homedetails/2238-W-Village-Dr-Phoenix-AZ-85023/7963982_zpid/,33.6458,-112.10799999999999,2017-11-03,2017-11-03
9022649,23818996,"7133 W Mountain View Rd, Peoria, AZ 85345 ",85345,0.6052492260932922,209900,https://www.zillow.com/homedetails/7133-W-Mountain-View-Rd-Peoria-AZ-85345/7702397_zpid/,33.5743,-112.213,2017-11-02,2017-11-02
388342,23817469,"2312 W Laurel Ln, Phoenix, AZ 85029 ",85029,0.6052103847265243,191000,https://www.zillow.com/homedetails/2312-W-Laurel-Ln-Phoenix-AZ-85029/7749464_zpid/,33.5944,-112.109,2017-11-01,2017-11-01
418501,23831030,"5136 W Laurie Ln, Glendale, AZ 85302 ",85302,0.6051728308200837,212000,https://www.zillow.com/homedetails/5136-W-Laurie-Ln-Glendale-AZ-85302/7732574_zpid/,33.559,-112.171,2017-11-09,2017-11-09
409111,23815119,"6540 W Phelps Rd, Glendale, AZ 85306 ",85306,0.6050652801990509,209900,https://www.zillow.com/homedetails/6540-W-Phelps-Rd-Glendale-AZ-85306/7901955_zpid/,33.6361,-112.20100000000001,2017-10-30,2017-10-30
1412890,23823749,"7253 W Aurelius Ave, Glendale, AZ 85303 ",85303,0.6050358355045319,226900,https://www.zillow.com/homedetails/7253-W-Aurelius-Ave-Glendale-AZ-85303/95170805_zpid/,33.5399,-112.214,2017-11-08,2017-11-08
318987,23813756,"2220 E Palm Ln, Phoenix, AZ 85006 ",85006,0.6044489800930023,239900,https://www.zillow.com/homedetails/2220-E-Palm-Ln-Phoenix-AZ-85006/7531376_zpid/,33.4695,-112.03399999999999,2017-10-28,2017-10-28
9023266,23825772,"8546 W Las Palmaritas Dr, Peoria, AZ 85345 ",85345,0.6042863249778747,219900,https://www.zillow.com/homedetails/8546-W-Las-Palmaritas-Dr-Peoria-AZ-85345/14094752_zpid/,33.5569,-112.244,2017-11-11,2017-11-11
1935608,23825006,"3358 W Portland St, Phoenix, AZ 85009 ",85009,0.6038160741329193,120000,https://www.zillow.com/homedetails/3358-W-Portland-St-Phoenix-AZ-85009/7513257_zpid/,33.4599,-112.131,2017-11-09,2017-11-09
9023033,23823351,"437 E Wescott Dr, Phoenix, AZ 85024 ",85024,0.6037966907024384,225000,https://www.zillow.com/homedetails/437-E-Wescott-Dr-Phoenix-AZ-85024/2092120604_zpid/,33.6585,-112.068,2017-11-08,2017-11-08
217475,23512287,"520 E Orchid Ln, Phoenix, AZ 85020 ",85020,0.6036891996860504,229900,https://www.zillow.com/homedetails/520-E-Orchid-Ln-Phoenix-AZ-85020/7793796_zpid/,33.562,-112.06700000000001,2017-10-10,2017-10-10
388744,23819809,"3835 W Camino Acequia, Phoenix, AZ 85051 ",85051,0.6036587417125702,233900,https://www.zillow.com/homedetails/3835-W-Camino-Acequia-Phoenix-AZ-85051/7745922_zpid/,33.5749,-112.14200000000001,2017-11-03,2017-11-03
463158,22747298,"2733 W Berridge Ln, Phoenix, AZ 85017 ",85017,0.6035579085350037,170000,https://www.zillow.com/homedetails/2733-W-Berridge-Ln-Phoenix-AZ-85017/7759928_zpid/,33.5253,-112.118,2017-10-10,2017-10-10
9018054,23821680,"18560 N 85th Ave, Peoria, AZ 85382 ",85382,0.6035021722316742,249900,https://www.zillow.com/homedetails/18560-N-85th-Ave-Peoria-AZ-85382/8129059_zpid/,33.6518,-112.243,2017-11-05,2017-11-05
242053,23839085,"3148 W Port Au Prince Ln, Phoenix, AZ 85053 ",85053,0.603491199016571,205000,https://www.zillow.com/homedetails/3148-W-Port-Au-Prince-Ln-Phoenix-AZ-85053/7953096_zpid/,33.6233,-112.12700000000001,2017-11-09,2017-11-09
