property_id,transaction_id,address,zipcode,ypred,list,url,lat,long
8995965,22560400,"3036 E Utopia Rd LOT 30, Phoenix, AZ 85050 ",85050,0.9448662996292114,54000,https://www.zillow.com/homedetails/3036-E-Utopia-Rd-LOT-30-Phoenix-AZ-85050/2126700431_zpid/,33.6633,-112.01700000000001
107243,22469783,"34409 N Levi Ct, Queen Creek, AZ 85142 ",85142,0.9426171183586121,190000,https://www.zillow.com/homedetails/34409-N-Levi-Ct-Queen-Creek-AZ-85142/111039502_zpid/,33.1918,-111.585
80921,22581860,"1723 W Dugan Dr, Queen Creek, AZ 85142 ",85142,0.9310751557350159,240000,https://www.zillow.com/homedetails/1723-W-Dugan-Dr-Queen-Creek-AZ-85142/82260262_zpid/,33.2013,-111.585
8992559,22529123,"1745 W Sherman St, Phoenix, AZ 85007 ",85007,0.9295910000801086,54000,https://www.zillow.com/homedetails/1745-W-Sherman-St-Phoenix-AZ-85007/7522547_zpid/,33.44,-112.098
89170,22582009,"2075 W Vineyard Plains Dr, Queen Creek, AZ 85142 ",85142,0.9286543130874634,214000,https://www.zillow.com/homedetails/2075-W-Vineyard-Plains-Dr-Queen-Creek-AZ-85142/67433786_zpid/,33.1865,-111.588
89807,22582038,"2096 W Vineyard Plains Dr, Queen Creek, AZ 85142 ",85142,0.9286543130874634,215000,https://www.zillow.com/homedetails/2096-W-Vineyard-Plains-Dr-Queen-Creek-AZ-85142/67434083_zpid/,33.187,-111.589
97276,22582114,"2490 W Silver Streak Way, Queen Creek, AZ 85142 ",85142,0.927116334438324,230000,https://www.zillow.com/homedetails/2490-W-Silver-Streak-Way-Queen-Creek-AZ-85142/67437002_zpid/,33.1955,-111.59299999999999
107493,22582377,"34634 N Appaloosa Way, Queen Creek, AZ 85142 ",85142,0.9217712879180908,234900,https://www.zillow.com/homedetails/34634-N-Appaloosa-Way-Queen-Creek-AZ-85142/88899895_zpid/,33.1941,-111.588
1038623,22523313,"4122 E Palm Beach Dr, Chandler, AZ 85249 ",85249,0.9180189967155457,395000,https://www.zillow.com/homedetails/4122-E-Palm-Beach-Dr-Chandler-AZ-85249/67777862_zpid/,33.2071,-111.771
1251094,22543292,"104 E Elgin St, Gilbert, AZ 85295 ",85295,0.9180189967155457,375500,https://www.zillow.com/homedetails/104-E-Elgin-St-Gilbert-AZ-85295/52433618_zpid/,33.2982,-111.788
84945,22581933,"1916 W Quick Draw Way, Queen Creek, AZ 85142 ",85142,0.9170891642570496,255000,https://www.zillow.com/homedetails/1916-W-Quick-Draw-Way-Queen-Creek-AZ-85142/71698108_zpid/,33.1962,-111.587
976388,22494097,"760 S Stanley Pl, Chandler, AZ 85226 ",85226,0.9139989018440247,340000,https://www.zillow.com/homedetails/760-S-Stanley-Pl-Chandler-AZ-85226/8265709_zpid/,,
667831,22538284,"8859 E Oro Ave, Mesa, AZ 85212 ",85212,0.9137994647026062,235000,https://www.zillow.com/homedetails/8859-E-Oro-Ave-Mesa-AZ-85212/60344515_zpid/,33.3611,-111.64299999999999
201546,22527450,"718 W Beth Dr, Phoenix, AZ 85041 ",85041,0.9136894941329956,260000,https://www.zillow.com/homedetails/718-W-Beth-Dr-Phoenix-AZ-85041/59265952_zpid/,33.3647,-112.084
1480437,22495040,"15833 N 165th Ln, Surprise, AZ 85388 ",85388,0.9135942459106445,214900,https://www.zillow.com/homedetails/15833-N-165th-Ln-Surprise-AZ-85388/59252654_zpid/,33.6283,-112.415
1045260,22577584,"6096 S Wilson Dr, Chandler, AZ 85249 ",85249,0.9130538105964661,269000,https://www.zillow.com/homedetails/6096-S-Wilson-Dr-Chandler-AZ-85249/52432263_zpid/,33.2175,-111.794
1480269,22425685,"15742 N 164th Ln, Surprise, AZ 85388 ",85388,0.9122862219810486,254500,https://www.zillow.com/homedetails/15742-N-164th-Ln-Surprise-AZ-85388/59252939_zpid/,33.6278,-112.412
202428,22392937,"806 W Allen St, Phoenix, AZ 85041 ",85041,0.9122067093849182,250000,https://www.zillow.com/homedetails/806-W-Allen-St-Phoenix-AZ-85041/67702990_zpid/,33.3682,-112.084
581893,22430658,"10828 E Ramblewood Cir, Mesa, AZ 85212 ",85212,0.9110897183418274,332000,https://www.zillow.com/homedetails/10828-E-Ramblewood-Cir-Mesa-AZ-85212/92425783_zpid/,33.3446,-111.6
68947,22686687,"3422 S Jacana Ln, Gilbert, AZ 85297 ",85297,0.9102967977523804,260000,https://www.zillow.com/homedetails/3422-S-Jacana-Ln-Gilbert-AZ-85297/95145356_zpid/,33.2887,-111.694
69296,22489309,"3478 S Posse Trl, Gilbert, AZ 85297 ",85297,0.9102967977523804,269000,https://www.zillow.com/homedetails/3478-S-Posse-Trl-Gilbert-AZ-85297/95161475_zpid/,33.2878,-111.689
969889,22682412,"5340 W Morgan Pl, Chandler, AZ 85226 ",85226,0.909672737121582,319990,https://www.zillow.com/homedetails/5340-W-Morgan-Pl-Chandler-AZ-85226/8266468_zpid/,33.3035,-111.934
1009531,22523358,"691 E Woodsman Pl, Chandler, AZ 85286 ",85286,0.9089678525924683,265000,https://www.zillow.com/homedetails/691-E-Woodsman-Pl-Chandler-AZ-85286/59262364_zpid/,33.288000000000004,-111.83200000000001
1480303,22495038,"15808 N 164th Ln, Surprise, AZ 85388 ",85388,0.9085007309913635,238800,https://www.zillow.com/homedetails/15808-N-164th-Ln-Surprise-AZ-85388/59252878_zpid/,33.6281,-112.413
583313,22628951,"10963 E Quarry Cir, Mesa, AZ 85212 ",85212,0.9082706570625305,370000,https://www.zillow.com/homedetails/10963-E-Quarry-Cir-Mesa-AZ-85212/94882763_zpid/,33.3488,-111.59700000000001
1080640,22539486,"2451 E Fairview St, Chandler, AZ 85225 ",85225,0.9081780314445496,310000,https://www.zillow.com/homedetails/2451-E-Fairview-St-Chandler-AZ-85225/50195691_zpid/,,
1080864,22489707,"2490 E Whitten St, Chandler, AZ 85225 ",85225,0.9081780314445496,299900,https://www.zillow.com/homedetails/2490-E-Whitten-St-Chandler-AZ-85225/8224204_zpid/,,
1002374,22436040,"252 E Jade Dr, Chandler, AZ 85286 ",85286,0.9080038666725159,335000,https://www.zillow.com/homedetails/252-E-Jade-Dr-Chandler-AZ-85286/95170041_zpid/,33.2535,-111.838
976595,22682738,"808 N Gregory Pl, Chandler, AZ 85226 ",85226,0.9070336222648621,339900,https://www.zillow.com/homedetails/808-N-Gregory-Pl-Chandler-AZ-85226/8157917_zpid/,33.317,-111.955
584302,22564325,"11103 E Roselle Ave, Mesa, AZ 85212 ",85212,0.9066756963729858,379900,https://www.zillow.com/homedetails/11103-E-Roselle-Ave-Mesa-AZ-85212/92425779_zpid/,33.3393,-111.595
8979568,22519545,"15243 W Boca Raton Rd, Surprise, AZ 85379 ",85379,0.9055737853050232,267850,https://www.zillow.com/homedetails/15243-W-Boca-Raton-Rd-Surprise-AZ-85379/67784530_zpid/,33.6103,-112.389
92451,22597962,"21498 E Via Del Palo, Queen Creek, AZ 85142 ",85142,0.9054861068725586,254490,https://www.zillow.com/homedetails/21498-E-Via-Del-Palo-Queen-Creek-AZ-85142/60991313_zpid/,33.2408,-111.62100000000001
96511,22582088,"2351 W Silver Streak Way, San Tan Valley, AZ 85142 ",85142,0.9049728512763977,200000,https://www.zillow.com/homedetails/2351-W-Silver-Streak-Way-San-Tan-Valley-AZ-85142/2119152356_zpid/,33.1952,-111.59100000000001
307652,22493054,"39925 N Justice Way, Anthem, AZ 85086 ",85086,0.9044802188873291,325000,https://www.zillow.com/homedetails/39925-N-Justice-Way-Anthem-AZ-85086/52408427_zpid/,33.8472,-112.131
345471,22114111,"2841 W Pima St, Phoenix, AZ 85009 ",85009,0.9036397337913513,56500,https://www.zillow.com/homedetails/2841-W-Pima-St-Phoenix-AZ-85009/7501053_zpid/,33.433,-112.12100000000001
73467,22422443,"4152 E Bonanza Rd, Gilbert, AZ 85297 ",85297,0.9028164744377136,320000,https://www.zillow.com/homedetails/4152-E-Bonanza-Rd-Gilbert-AZ-85297/95092838_zpid/,33.2899,-111.7
86348,22581943,"1963 W Vineyard Plains Dr, Queen Creek, AZ 85142 ",85142,0.902577817440033,210900,https://www.zillow.com/homedetails/1963-W-Vineyard-Plains-Dr-Queen-Creek-AZ-85142/67433839_zpid/,33.1865,-111.587
934471,22332236,"25657 W Nancy Ln, Buckeye, AZ 85326 ",85326,0.9020869731903076,199900,https://www.zillow.com/homedetails/25657-W-Nancy-Ln-Buckeye-AZ-85326/71610682_zpid/,,
1255710,22543300,"1756 E Joseph Way, Gilbert, AZ 85295 ",85295,0.9020238518714905,254000,https://www.zillow.com/homedetails/1756-E-Joseph-Way-Gilbert-AZ-85295/71622392_zpid/,33.2993,-111.75200000000001
583387,22420066,"11013 E Sutter Ave, Mesa, AZ 85212 ",85212,0.901453971862793,296900,https://www.zillow.com/homedetails/11013-E-Sutter-Ave-Mesa-AZ-85212/95158336_zpid/,33.3223,-111.596
8963808,22513325,"5543 W Winston Dr, Laveen, AZ 85339 ",85339,0.9010875821113586,265000,https://www.zillow.com/homedetails/5543-W-Winston-Dr-Laveen-AZ-85339/81956458_zpid/,33.3686,-112.18
1150392,22485910,"12637 W Charter Oak Rd, El Mirage, AZ 85335 ",85335,0.9008647799491882,169000,https://www.zillow.com/homedetails/12637-W-Charter-Oak-Rd-El-Mirage-AZ-85335/55284374_zpid/,,
8997331,22570944,"4448 S Hassett, Mesa, AZ 85212 ",85212,0.9006317853927612,295000,https://www.zillow.com/homedetails/4448-S-Hassett-Mesa-AZ-85212/95147958_zpid/,33.3366,-111.6
3357780,22609257,"16129 W Miami St, Goodyear, AZ 85338 ",85338,0.9005136489868164,209900,https://www.zillow.com/homedetails/16129-W-Miami-St-Goodyear-AZ-85338/71624003_zpid/,,
1007620,22699059,"3631 S Arizona Pl, Chandler, AZ 85286 ",85286,0.9003949761390686,367000,https://www.zillow.com/homedetails/3631-S-Arizona-Pl-Chandler-AZ-85286/94638970_zpid/,33.2526,-111.84
318396,22505944,"2141 E Mckinley St, Phoenix, AZ 85006 ",85006,0.8999665379524231,57900,https://www.zillow.com/homedetails/2141-E-Mckinley-St-Phoenix-AZ-85006/7528706_zpid/,33.4567,-112.035
1052642,22489865,"875 E Waterview Pl, Chandler, AZ 85249 ",85249,0.8995012044906616,289900,https://www.zillow.com/homedetails/875-E-Waterview-Pl-Chandler-AZ-85249/60986730_zpid/,,
1311384,22489289,"3255 E Sports Dr, Gilbert, AZ 85298 ",85298,0.8992694020271301,285000,https://www.zillow.com/homedetails/3255-E-Sports-Dr-Gilbert-AZ-85298/95112785_zpid/,33.2295,-111.719
7494051,22605815,"21412 W Roberta Dr, Wittmann, AZ 85361 ",85361,0.8991231918334961,379000,https://www.zillow.com/homedetails/21412-W-Roberta-Dr-Wittmann-AZ-85361/92352739_zpid/,,
662642,22535009,"5146 S 111th Cir, Mesa, AZ 85212 ",85212,0.8976855278015137,299990,https://www.zillow.com/homedetails/5146-S-111th-Cir-Mesa-AZ-85212/89221700_zpid/,33.3213,-111.59299999999999
581991,22662110,"10837 E Ramona Ave, Mesa, AZ 85212 ",85212,0.8976855278015137,329900,https://www.zillow.com/homedetails/10837-E-Ramona-Ave-Mesa-AZ-85212/88788476_zpid/,33.3386,-111.6
589251,22517925,"11441 E Sonrisa Ave, Mesa, AZ 85212 ",85212,0.8976855278015137,299000,https://www.zillow.com/homedetails/11441-E-Sonrisa-Ave-Mesa-AZ-85212/71623137_zpid/,33.3307,-111.587
582584,22484521,"10907 E Storia Ave, Mesa, AZ 85212 ",85212,0.8976855278015137,325000,https://www.zillow.com/homedetails/10907-E-Storia-Ave-Mesa-AZ-85212/81982285_zpid/,33.3281,-111.59899999999999
8996451,22564356,"309 E Leland St, Mesa, AZ 85201 ",85201,0.8973872065544128,350000,https://www.zillow.com/homedetails/309-E-Leland-St-Mesa-AZ-85201/52424541_zpid/,,
8991629,22539164,"29752 N 69th Dr, Peoria, AZ 85383 ",85383,0.8972278237342834,399900,https://www.zillow.com/homedetails/29752-N-69th-Dr-Peoria-AZ-85383/71606247_zpid/,33.7552,-112.211
1483010,22579291,"16368 W Central St, Surprise, AZ 85388 ",85388,0.8970927000045776,250000,https://www.zillow.com/homedetails/16368-W-Central-St-Surprise-AZ-85388/59252848_zpid/,33.6288,-112.411
73402,22438084,"4142 E Sandy Way, Gilbert, AZ 85297 ",85297,0.8968845009803772,337900,https://www.zillow.com/homedetails/4142-E-Sandy-Way-Gilbert-AZ-85297/95157956_zpid/,33.2892,-111.70100000000001
1008598,22389930,"3905 S Kimberlee Way, Chandler, AZ 85286 ",85286,0.8967336416244507,369000,https://www.zillow.com/homedetails/3905-S-Kimberlee-Way-Chandler-AZ-85286/95095391_zpid/,33.2496,-111.794
1499454,22495096,"17864 W Andora St, Surprise, AZ 85388 ",85388,0.895618200302124,269000,https://www.zillow.com/homedetails/17864-W-Andora-St-Surprise-AZ-85388/81996771_zpid/,33.6066,-112.443
638104,22419904,"8915 S 40th Dr, Laveen, AZ 85339 ",85339,0.8955994248390198,262000,https://www.zillow.com/homedetails/8915-S-40th-Dr-Laveen-AZ-85339/81954844_zpid/,33.3654,-112.146
73319,22489368,"4127 E Thunderheart Trl, Gilbert, AZ 85297 ",85297,0.8950223922729492,262000,https://www.zillow.com/homedetails/4127-E-Thunderheart-Trl-Gilbert-AZ-85297/92349470_zpid/,33.2855,-111.70100000000001
265720,22485293,"5926 W Charlotte Dr, Glendale, AZ 85310 ",85310,0.8944175243377686,355000,https://www.zillow.com/homedetails/5926-W-Charlotte-Dr-Glendale-AZ-85310/60964852_zpid/,33.7061,-112.18799999999999
582138,22523505,"10847 E Sorpresa Ave, Mesa, AZ 85212 ",85212,0.8938180804252625,340000,https://www.zillow.com/homedetails/10847-E-Sorpresa-Ave-Mesa-AZ-85212/82824919_zpid/,33.3256,-111.6
81134,22581813,"1749 W Gold Mine Way, Queen Creek, AZ 85142 ",85142,0.8937427997589111,174900,https://www.zillow.com/homedetails/1749-W-Gold-Mine-Way-Queen-Creek-AZ-85142/118632729_zpid/,33.1935,-111.585
8988316,22495728,"8933 E Diamond Dr, Sun Lakes, AZ 85248 ",85248,0.8936018943786621,305100,https://www.zillow.com/homedetails/8933-E-Diamond-Dr-Sun-Lakes-AZ-85248/8227434_zpid/,,
8983914,22489869,"9121 E Emerald Dr, Sun Lakes, AZ 85248 ",85248,0.8934272527694702,274900,https://www.zillow.com/homedetails/9121-E-Emerald-Dr-Sun-Lakes-AZ-85248/8213872_zpid/,,
61721,22550720,"35802 N 33rd Ln, Phoenix, AZ 85086 ",85086,0.8930311799049377,375000,https://www.zillow.com/homedetails/35802-N-33rd-Ln-Phoenix-AZ-85086/67765341_zpid/,33.81,-112.132
860263,22523191,"11614 W Cocopah St, Avondale, AZ 85323 ",85323,0.892753005027771,245000,https://www.zillow.com/homedetails/11614-W-Cocopah-St-Avondale-AZ-85323/60992503_zpid/,33.4318,-112.31
1080544,22631554,"2432 E Nathan Way, Chandler, AZ 85225 ",85225,0.8919386267662048,329000,https://www.zillow.com/homedetails/2432-E-Nathan-Way-Chandler-AZ-85225/50195700_zpid/,,
8914410,22615295,"17944 W Piro St, Goodyear, AZ 85338 ",85338,0.8919386267662048,299999,https://www.zillow.com/homedetails/17944-W-Piro-St-Goodyear-AZ-85338/89136822_zpid/,,
192886,22494815,"2316 W Corral Rd, Phoenix, AZ 85041 ",85041,0.8917668461799622,310900,https://www.zillow.com/homedetails/2316-W-Corral-Rd-Phoenix-AZ-85041/94882751_zpid/,33.3585,-112.11
1503001,22518474,"18480 W Desert Ln, Surprise, AZ 85388 ",85388,0.8916040658950806,399900,https://www.zillow.com/homedetails/18480-W-Desert-Ln-Surprise-AZ-85388/95125205_zpid/,33.626999999999995,-112.45700000000001
69586,22658305,"3532 S Winter Ln, Gilbert, AZ 85297 ",85297,0.8915438055992126,265000,https://www.zillow.com/homedetails/3532-S-Winter-Ln-Gilbert-AZ-85297/95114189_zpid/,33.2867,-111.689
1271670,22489362,"4094 E Del Rio St, Gilbert, AZ 85295 ",85295,0.8914942741394043,339000,https://www.zillow.com/homedetails/4094-E-Del-Rio-St-Gilbert-AZ-85295/55275861_zpid/,33.3157,-111.70200000000001
267406,22582087,"2211 W Crimson Ter, Phoenix, AZ 85085 ",85085,0.8911688327789307,387900,https://www.zillow.com/homedetails/2211-W-Crimson-Ter-Phoenix-AZ-85085/67775347_zpid/,33.7853,-112.10700000000001
121390,22588929,"12141 W Patrick Ln, Sun City, AZ 85373 ",85373,0.8902356028556824,284000,https://www.zillow.com/homedetails/12141-W-Patrick-Ln-Sun-City-AZ-85373/81997088_zpid/,33.6924,-112.323
1710812,22589368,"23317 N 123rd Dr, Sun City, AZ 85375 ",85375,0.8902356028556824,317500,https://www.zillow.com/homedetails/23317-N-123rd-Dr-Sun-City-AZ-85375/81967352_zpid/,33.6958,-112.32700000000001
7852146,22499501,"7909 W Spur Dr, Peoria, AZ 85383 ",85383,0.8899452686309814,349990,https://www.zillow.com/homedetails/7909-W-Spur-Dr-Peoria-AZ-85383/81996156_zpid/,33.7264,-112.229
8963833,22486847,"8519 S 55th Ln, Laveen, AZ 85339 ",85339,0.889677107334137,279900,https://www.zillow.com/homedetails/8519-S-55th-Ln-Laveen-AZ-85339/81985281_zpid/,33.3687,-112.179
90650,22621363,"21127 E Aspen Valley Dr, Queen Creek, AZ 85142 ",85142,0.8896092772483826,260000,https://www.zillow.com/homedetails/21127-E-Aspen-Valley-Dr-Queen-Creek-AZ-85142/59260838_zpid/,33.2421,-111.626
1002556,22499764,"2550 E Iris Dr, Chandler, AZ 85286 ",85286,0.8893989324569702,394900,https://www.zillow.com/homedetails/2550-E-Iris-Dr-Chandler-AZ-85286/95093841_zpid/,33.2514,-111.79700000000001
588622,22484530,"11412 E Starkey Cir, Mesa, AZ 85212 ",85212,0.8881391882896423,279990,https://www.zillow.com/homedetails/11412-E-Starkey-Cir-Mesa-AZ-85212/71617074_zpid/,33.3339,-111.588
16769,22388420,"3480 S Bluejay Dr, Gilbert, AZ 85297 ",85297,0.8875911235809326,265000,https://www.zillow.com/homedetails/3480-S-Bluejay-Dr-Gilbert-AZ-85297/95121772_zpid/,33.2873,-111.69
71049,22542281,"3781 E Sebastian Ln, Gilbert, AZ 85297 ",85297,0.8873573541641235,299500,https://www.zillow.com/homedetails/3781-E-Sebastian-Ln-Gilbert-AZ-85297/64506549_zpid/,33.2766,-111.708
1044972,22523328,"6024 S Halsted Ct, Chandler, AZ 85249 ",85249,0.8873573541641235,314900,https://www.zillow.com/homedetails/6024-S-Halsted-Ct-Chandler-AZ-85249/8215524_zpid/,33.2185,-111.8
1049436,22489868,"6875 S Amethyst Dr, Chandler, AZ 85249 ",85249,0.8873573541641235,318000,https://www.zillow.com/homedetails/6875-S-Amethyst-Dr-Chandler-AZ-85249/67777884_zpid/,33.2067,-111.772
1252550,22502364,"1329 E Frances Ln, Gilbert, AZ 85295 ",85295,0.8873573541641235,292000,https://www.zillow.com/homedetails/1329-E-Frances-Ln-Gilbert-AZ-85295/67793059_zpid/,33.2939,-111.76100000000001
1311419,22543333,"3260 E Fandango Dr, Gilbert, AZ 85298 ",85298,0.8873573541641235,311640,https://www.zillow.com/homedetails/3260-E-Fandango-Dr-Gilbert-AZ-85298/71602464_zpid/,33.2275,-111.719
1256995,22489219,"1881 S Colt Dr, Gilbert, AZ 85295 ",85295,0.8873573541641235,323000,https://www.zillow.com/homedetails/1881-S-Colt-Dr-Gilbert-AZ-85295/82825080_zpid/,33.3164,-111.71799999999999
1049843,22499265,"6920 S Pearl Dr, Chandler, AZ 85249 ",85249,0.8873573541641235,319500,https://www.zillow.com/homedetails/6920-S-Pearl-Dr-Chandler-AZ-85249/67777916_zpid/,33.2101,-111.76899999999999
593053,22484628,"3060 S Greenwood, Mesa, AZ 85212 ",85212,0.8873573541641235,303000,https://www.zillow.com/homedetails/3060-S-Greenwood-Mesa-AZ-85212/8229660_zpid/,33.3597,-111.666
1046917,22682531,"6362 S Adobe Dr, Chandler, AZ 85249 ",85249,0.8873573541641235,325000,https://www.zillow.com/homedetails/6362-S-Adobe-Dr-Chandler-AZ-85249/54709498_zpid/,33.2132,-111.788
81434,22581820,"1778 W Sawtooth Way, Queen Creek, AZ 85142 ",85142,0.8867687582969666,217500,https://www.zillow.com/homedetails/1778-W-Sawtooth-Way-Queen-Creek-AZ-85142/88903800_zpid/,33.1923,-111.585
975295,22489844,"677 N Gregory Pl, Chandler, AZ 85226 ",85226,0.8864208459854126,289990,https://www.zillow.com/homedetails/677-N-Gregory-Pl-Chandler-AZ-85226/8157897_zpid/,33.3152,-111.956
90796,22597946,"21148 E Cherrywood Dr, Queen Creek, AZ 85142 ",85142,0.886236310005188,263000,https://www.zillow.com/homedetails/21148-E-Cherrywood-Dr-Queen-Creek-AZ-85142/95095593_zpid/,33.2337,-111.62700000000001
620015,22622113,"5651 E Adrian Ave, Mesa, AZ 85206 ",85206,0.8861696124076843,269000,https://www.zillow.com/homedetails/5651-E-Adrian-Ave-Mesa-AZ-85206/121862143_zpid/,33.4147,-111.709
1009040,22523320,"512 W Wildhorse Dr, Chandler, AZ 85286 ",85286,0.886091411113739,363000,https://www.zillow.com/homedetails/512-W-Wildhorse-Dr-Chandler-AZ-85286/60985358_zpid/,,
1005935,22502434,"3164 S Wilson Dr, Chandler, AZ 85286 ",85286,0.886091411113739,379900,https://www.zillow.com/homedetails/3164-S-Wilson-Dr-Chandler-AZ-85286/71600505_zpid/,,
660594,22459677,"4408 S Dante, Mesa, AZ 85212 ",85212,0.8859907984733582,390000,https://www.zillow.com/homedetails/4408-S-Dante-Mesa-AZ-85212/92346822_zpid/,33.3349,-111.598
16455,22554577,"3977 E Powell Ct, Gilbert, AZ 85298 ",85298,0.8858166337013245,365000,https://www.zillow.com/homedetails/3977-E-Powell-Ct-Gilbert-AZ-85298/59261525_zpid/,33.2368,-111.704
242134,22379753,"23009 N 19th Way, Phoenix, AZ 85024 ",85024,0.8857334852218628,349000,https://www.zillow.com/homedetails/23009-N-19th-Way-Phoenix-AZ-85024/95106402_zpid/,33.6953,-112.04
91453,22597956,"21269 E Cherrywood Dr, Queen Creek, AZ 85142 ",85142,0.8856302499771118,269900,https://www.zillow.com/homedetails/21269-E-Cherrywood-Dr-Queen-Creek-AZ-85142/95164490_zpid/,33.2337,-111.624
9739,22508612,"6825 W Burgess Ln, Laveen, AZ 85339 ",85339,0.885230302810669,265000,https://www.zillow.com/homedetails/6825-W-Burgess-Ln-Laveen-AZ-85339/71604743_zpid/,33.3888,-112.206
8989828,22508147,"2708 E Nora St, Mesa, AZ 85213 ",85213,0.8852233290672302,275000,https://www.zillow.com/homedetails/2708-E-Nora-St-Mesa-AZ-85213/7655983_zpid/,,
8950751,22598750,"9835 E Stoney Vista Dr, Sun Lakes, AZ 85248 ",85248,0.8851209282875061,286900,https://www.zillow.com/homedetails/9835-E-Stoney-Vista-Dr-Sun-Lakes-AZ-85248/71600627_zpid/,,
8966121,22499217,"1333 E Tyson St, Chandler, AZ 85225 ",85225,0.8846043944358826,325000,https://www.zillow.com/homedetails/1333-E-Tyson-St-Chandler-AZ-85225/8282266_zpid/,33.3082,-111.792
8974381,22539431,"1553 S Gibson St, Gilbert, AZ 85296 ",85296,0.8846043944358826,334900,https://www.zillow.com/homedetails/1553-S-Gibson-St-Gilbert-AZ-85296/52149738_zpid/,33.3219,-111.786
65522,22526690,"1181 S Sandstone Ct, Gilbert, AZ 85296 ",85296,0.8846043944358826,325000,https://www.zillow.com/homedetails/1181-S-Sandstone-Ct-Gilbert-AZ-85296/8241669_zpid/,33.3288,-111.76299999999999
69682,22543338,"3545 E Santa Fe Ln, Gilbert, AZ 85297 ",85297,0.8846043944358826,319900,https://www.zillow.com/homedetails/3545-E-Santa-Fe-Ln-Gilbert-AZ-85297/59258249_zpid/,33.2785,-111.713
666500,22484812,"8536 E Posada Ave, Mesa, AZ 85212 ",85212,0.8846043944358826,310000,https://www.zillow.com/homedetails/8536-E-Posada-Ave-Mesa-AZ-85212/52433394_zpid/,33.3592,-111.65
65792,22422410,"1326 E Macaw Dr, Gilbert, AZ 85297 ",85297,0.8845601677894592,345900,https://www.zillow.com/homedetails/1326-E-Macaw-Dr-Gilbert-AZ-85297/67762058_zpid/,33.27,-111.762
1007554,22472549,"3615 S Marion Way, Chandler, AZ 85286 ",85286,0.8845601677894592,399999,https://www.zillow.com/homedetails/3615-S-Marion-Way-Chandler-AZ-85286/60049944_zpid/,33.2537,-111.81200000000001
49807,22472770,"4311 W Diburgo Dr, Phoenix, AZ 85087 ",85087,0.8842151165008545,297000,https://www.zillow.com/homedetails/4311-W-Diburgo-Dr-Phoenix-AZ-85087/81972068_zpid/,33.8793,-112.15299999999999
588026,22501681,"11345 E Roscoe Ave, Mesa, AZ 85212 ",85212,0.8840611577033997,285000,https://www.zillow.com/homedetails/11345-E-Roscoe-Ave-Mesa-AZ-85212/56392392_zpid/,33.3369,-111.589
8969105,22494157,"9812 E Knowles Ave, Mesa, AZ 85209 ",85209,0.883999228477478,269000,https://www.zillow.com/homedetails/9812-E-Knowles-Ave-Mesa-AZ-85209/50586499_zpid/,33.3781,-111.631
96130,22597976,"23083 S 212th Pl, Queen Creek, AZ 85142 ",85142,0.883836567401886,285000,https://www.zillow.com/homedetails/23083-S-212th-Pl-Queen-Creek-AZ-85142/59260458_zpid/,33.2384,-111.624
1251539,22503715,"1139 E Loma Vista St, Gilbert, AZ 85295 ",85295,0.8836294412612915,324900,https://www.zillow.com/homedetails/1139-E-Loma-Vista-St-Gilbert-AZ-85295/8243725_zpid/,33.3155,-111.766
68088,22597994,"3158 E Claxton Ave, Gilbert, AZ 85297 ",85297,0.8834955096244812,340000,https://www.zillow.com/homedetails/3158-E-Claxton-Ave-Gilbert-AZ-85297/95085719_zpid/,33.2791,-111.72200000000001
1661545,22588859,"11732 W Robin Ct, Sun City, AZ 85373 ",85373,0.8831707835197449,259900,https://www.zillow.com/homedetails/11732-W-Robin-Ct-Sun-City-AZ-85373/71610221_zpid/,33.688,-112.31299999999999
1500543,22495097,"18044 W Rimrock St, Surprise, AZ 85388 ",85388,0.8831498622894287,264900,https://www.zillow.com/homedetails/18044-W-Rimrock-St-Surprise-AZ-85388/71615467_zpid/,33.6313,-112.447
1492205,22495078,"17430 W Boca Raton Rd, Surprise, AZ 85388 ",85388,0.8828602433204651,220000,https://www.zillow.com/homedetails/17430-W-Boca-Raton-Rd-Surprise-AZ-85388/60995978_zpid/,33.6108,-112.434
1476459,22493447,"14813 N 173rd Dr, Surprise, AZ 85388 ",85388,0.8828602433204651,229900,https://www.zillow.com/homedetails/14813-N-173rd-Dr-Surprise-AZ-85388/60996054_zpid/,33.6189,-112.431
660311,22437129,"4038 S Chatham, Mesa, AZ 85212 ",85212,0.8827109932899475,274900,https://www.zillow.com/homedetails/4038-S-Chatham-Mesa-AZ-85212/59259769_zpid/,33.3415,-111.589
8968548,22563213,"927 S Pheasant Dr, Gilbert, AZ 85296 ",85296,0.8826733231544495,259800,https://www.zillow.com/homedetails/927-S-Pheasant-Dr-Gilbert-AZ-85296/95181153_zpid/,33.3336,-111.7
1093427,22523351,"770 W Kent Pl, Chandler, AZ 85225 ",85225,0.882419764995575,290000,https://www.zillow.com/homedetails/770-W-Kent-Pl-Chandler-AZ-85225/8184081_zpid/,33.3274,-111.854
1483591,22597762,"16440 W Cottonwood St, Surprise, AZ 85388 ",85388,0.8823511600494385,211000,https://www.zillow.com/homedetails/16440-W-Cottonwood-St-Surprise-AZ-85388/55290203_zpid/,33.634,-112.413
668748,22484761,"7213 E Natal Ave, Mesa, AZ 85209 ",85209,0.8819713592529297,293000,https://www.zillow.com/homedetails/7213-E-Natal-Ave-Mesa-AZ-85209/8274350_zpid/,33.3682,-111.679
590124,22484536,"11515 E Segura Ave, Mesa, AZ 85212 ",85212,0.8817849159240723,245000,https://www.zillow.com/homedetails/11515-E-Segura-Ave-Mesa-AZ-85212/71551895_zpid/,33.3321,-111.586
1312980,22427411,"3481 E Vernon St, Gilbert, AZ 85298 ",85298,0.8812077641487122,324900,https://www.zillow.com/homedetails/3481-E-Vernon-St-Gilbert-AZ-85298/59261870_zpid/,33.235,-111.714
96125,22597977,"23079 S 215th St, Queen Creek, AZ 85142 ",85142,0.8811740875244141,309900,https://www.zillow.com/homedetails/23079-S-215th-St-Queen-Creek-AZ-85142/60991344_zpid/,33.2386,-111.618
8985257,22484799,"7636 E Boston St, Mesa, AZ 85207 ",85207,0.8810113668441772,173900,https://www.zillow.com/homedetails/7636-E-Boston-St-Mesa-AZ-85207/60761952_zpid/,33.4188,-111.666
1309980,22543367,"2946 E Isaiah Ave, Gilbert, AZ 85298 ",85298,0.8809294104576111,299900,https://www.zillow.com/homedetails/2946-E-Isaiah-Ave-Gilbert-AZ-85298/95113106_zpid/,33.228,-111.726
8976559,22529065,"5968 W Kerry Ln, Glendale, AZ 85308 ",85308,0.8808878064155579,387900,https://www.zillow.com/homedetails/5968-W-Kerry-Ln-Glendale-AZ-85308/7890463_zpid/,33.6592,-112.18799999999999
1098305,22489885,"937 W Ivanhoe St, Chandler, AZ 85225 ",85225,0.880694568157196,299000,https://www.zillow.com/homedetails/937-W-Ivanhoe-St-Chandler-AZ-85225/52430855_zpid/,33.3172,-111.85799999999999
303622,22581166,"2914 W Donatello Dr, Phoenix, AZ 85086 ",85086,0.8804739117622375,389000,https://www.zillow.com/homedetails/2914-W-Donatello-Dr-Phoenix-AZ-85086/55264755_zpid/,33.8125,-112.12299999999999
72954,22427502,"4061 E Carriage Way, Gilbert, AZ 85297 ",85297,0.880194365978241,329899,https://www.zillow.com/homedetails/4061-E-Carriage-Way-Gilbert-AZ-85297/55281125_zpid/,33.2643,-111.70200000000001
1233835,22584476,"4384 E Page Ave, Gilbert, AZ 85234 ",85234,0.8799343705177307,294500,https://www.zillow.com/homedetails/4384-E-Page-Ave-Gilbert-AZ-85234/71615023_zpid/,,
989921,22574225,"1428 E Iris Dr, Chandler, AZ 85286 ",85286,0.8799343705177307,329900,https://www.zillow.com/homedetails/1428-E-Iris-Dr-Chandler-AZ-85286/60049538_zpid/,,
8996461,22564439,"9937 E Lompoc Ave, Mesa, AZ 85209 ",85209,0.8799343705177307,299995,https://www.zillow.com/homedetails/9937-E-Lompoc-Ave-Mesa-AZ-85209/50882237_zpid/,,
8999928,22590025,"3001 S 102nd Ln, Tolleson, AZ 85353 ",85353,0.8797404766082764,214900,https://www.zillow.com/homedetails/3001-S-102nd-Ln-Tolleson-AZ-85353/55255900_zpid/,,
975333,22570857,"6782 W Linda Ln, Chandler, AZ 85226 ",85226,0.8796975016593933,309000,https://www.zillow.com/homedetails/6782-W-Linda-Ln-Chandler-AZ-85226/8268495_zpid/,33.3176,-111.959
83904,22543922,"18845 E Seagull Dr, Queen Creek, AZ 85142 ",85142,0.879572868347168,264900,https://www.zillow.com/homedetails/18845-E-Seagull-Dr-Queen-Creek-AZ-85142/82240394_zpid/,33.2771,-111.677
8978802,22414492,"4115 S Adelle, Mesa, AZ 85212 ",85212,0.8795342445373535,344999,https://www.zillow.com/homedetails/4115-S-Adelle-Mesa-AZ-85212/59259874_zpid/,33.3405,-111.584
684489,22512587,"9610 E Monte Ave, Mesa, AZ 85209 ",85209,0.8795160055160522,369000,https://www.zillow.com/homedetails/9610-E-Monte-Ave-Mesa-AZ-85209/8285707_zpid/,33.3674,-111.631
966492,22699659,"4849 W Tulsa St, Chandler, AZ 85226 ",85226,0.8794854879379272,315000,https://www.zillow.com/homedetails/4849-W-Tulsa-St-Chandler-AZ-85226/8157073_zpid/,,
1147841,22435494,"12450 W Via Camille, El Mirage, AZ 85335 ",85335,0.8790169358253479,189900,https://www.zillow.com/homedetails/12450-W-Via-Camille-El-Mirage-AZ-85335/60999821_zpid/,33.6168,-112.32799999999999
8959553,22446462,"11421 N 75th Dr, Peoria, AZ 85345 ",85345,0.8784868717193604,242000,https://www.zillow.com/homedetails/11421-N-75th-Dr-Peoria-AZ-85345/7680617_zpid/,33.589,-112.221
1477961,22602331,"15165 N 174th Dr, Surprise, AZ 85388 ",85388,0.8783066272735596,259900,https://www.zillow.com/homedetails/15165-N-174th-Dr-Surprise-AZ-85388/67768989_zpid/,33.6226,-112.434
1035439,22698934,"3443 E Zion Way, Chandler, AZ 85249 ",85249,0.8781881928443909,399999,https://www.zillow.com/homedetails/3443-E-Zion-Way-Chandler-AZ-85249/91813560_zpid/,33.2468,-111.78299999999999
891838,22616680,"3585 N 301st Ln, Buckeye, AZ 85396 ",85396,0.8780213594436646,229900,https://www.zillow.com/homedetails/3585-N-301st-Ln-Buckeye-AZ-85396/82825773_zpid/,33.4871,-112.699
998076,22458215,"2141 S Cholla St, Chandler, AZ 85286 ",85286,0.877880871295929,369900,https://www.zillow.com/homedetails/2141-S-Cholla-St-Chandler-AZ-85286/95133649_zpid/,33.2738,-111.87299999999999
7490495,22584132,"4108 S Emery, Mesa, AZ 85212 ",85212,0.8778131604194641,315000,https://www.zillow.com/homedetails/4108-S-Emery-Mesa-AZ-85212/59264172_zpid/,33.3409,-111.59200000000001
1663925,22510071,"12225 W Electra Ln, Sun City, AZ 85373 ",85373,0.8777605295181274,264900,https://www.zillow.com/homedetails/12225-W-Electra-Ln-Sun-City-AZ-85373/81993811_zpid/,33.6973,-112.324
584744,22430761,"11125 E Sorpresa Ave, Mesa, AZ 85212 ",85212,0.8777564764022827,284900,https://www.zillow.com/homedetails/11125-E-Sorpresa-Ave-Mesa-AZ-85212/82824953_zpid/,33.3263,-111.595
1551917,22625438,"3400 S Sunland Dr, Chandler, AZ 85248 ",85248,0.8777187466621399,333000,https://www.zillow.com/homedetails/3400-S-Sunland-Dr-Chandler-AZ-85248/92348994_zpid/,33.256,-111.845
999138,22445030,"2261 E Honeysuckle Pl, Chandler, AZ 85286 ",85286,0.8775501251220703,334900,https://www.zillow.com/homedetails/2261-E-Honeysuckle-Pl-Chandler-AZ-85286/67776734_zpid/,33.2604,-111.802
8985348,22581788,"1731 W Cool Water Way, San Tan Valley, AZ 85142 ",85142,0.8772788643836975,242000,https://www.zillow.com/homedetails/1731-W-Cool-Water-Way-San-Tan-Valley-AZ-85142/2093521740_zpid/,33.1976,-111.585
1483613,22365774,"16436 N 172nd Ave, Surprise, AZ 85388 ",85388,0.8771182298660278,225000,https://www.zillow.com/homedetails/16436-N-172nd-Ave-Surprise-AZ-85388/67768260_zpid/,33.6138,-112.431
7438836,22597958,"21917 N 97th Dr, Peoria, AZ 85383 ",85383,0.8770288228988647,399500,https://www.zillow.com/homedetails/21917-N-97th-Dr-Peoria-AZ-85383/2102980369_zpid/,33.6832,-112.26899999999999
75285,22542306,"4522 S Boulder St, Gilbert, AZ 85297 ",85297,0.8769795298576355,319900,https://www.zillow.com/homedetails/4522-S-Boulder-St-Gilbert-AZ-85297/59260423_zpid/,33.2682,-111.758
1314126,22543344,"3646 E Palmer St, Gilbert, AZ 85298 ",85298,0.8769795298576355,309900,https://www.zillow.com/homedetails/3646-E-Palmer-St-Gilbert-AZ-85298/59261489_zpid/,33.2358,-111.711
8987844,22572301,"9916 E Medina Ave, Mesa, AZ 85209 ",85209,0.8767046332359314,379900,https://www.zillow.com/homedetails/9916-E-Medina-Ave-Mesa-AZ-85209/55199719_zpid/,33.3719,-111.631
987410,22489621,"1271 S Crossbow Pl, Chandler, AZ 85286 ",85286,0.8764674067497253,255000,https://www.zillow.com/homedetails/1271-S-Crossbow-Pl-Chandler-AZ-85286/8209231_zpid/,,
1662364,22615211,"11824 W Via Montoya Dr, Sun City, AZ 85373 ",85373,0.8763673901557922,260000,https://www.zillow.com/homedetails/11824-W-Via-Montoya-Dr-Sun-City-AZ-85373/67796644_zpid/,33.6863,-112.315
985452,22579567,"1122 W Wildhorse Dr, Chandler, AZ 85286 ",85286,0.8762756586074829,389000,https://www.zillow.com/homedetails/1122-W-Wildhorse-Dr-Chandler-AZ-85286/8226681_zpid/,33.285,-111.86200000000001
1306249,22555229,"1954 E Merlot St, Gilbert, AZ 85298 ",85298,0.8762738108634949,319900,https://www.zillow.com/homedetails/1954-E-Merlot-St-Gilbert-AZ-85298/95111268_zpid/,33.2212,-111.74799999999999
661258,22534469,"4640 S Grenoble Cir, Mesa, AZ 85212 ",85212,0.8762199878692627,309900,https://www.zillow.com/homedetails/4640-S-Grenoble-Cir-Mesa-AZ-85212/81972640_zpid/,33.3307,-111.594
1071479,22524289,"1450 E Megan St, Chandler, AZ 85225 ",85225,0.8760202527046204,269900,https://www.zillow.com/homedetails/1450-E-Megan-St-Chandler-AZ-85225/8282174_zpid/,33.3204,-111.816
9001010,22597972,"21826 S 215th St, Queen Creek, AZ 85142 ",85142,0.8757656812667847,248000,https://www.zillow.com/homedetails/21826-S-215th-St-Queen-Creek-AZ-85142/2134596787_zpid/,33.2502,-111.62
48197,22528038,"16606 S 43rd Pl, Phoenix, AZ 85048 ",85048,0.8756563067436218,284000,https://www.zillow.com/homedetails/16606-S-43rd-Pl-Phoenix-AZ-85048/50199059_zpid/,33.2959,-111.99
1028153,22509525,"2158 E Glacier Pl, Chandler, AZ 85249 ",85249,0.875613272190094,365000,https://www.zillow.com/homedetails/2158-E-Glacier-Pl-Chandler-AZ-85249/60985678_zpid/,,
8992425,22527696,"14144 W Calavar Rd, Surprise, AZ 85379 ",85379,0.8755682110786438,254900,https://www.zillow.com/homedetails/14144-W-Calavar-Rd-Surprise-AZ-85379/67781166_zpid/,33.6109,-112.36399999999999
8983930,22621320,"11849 N 148th Ave, Surprise, AZ 85379 ",85379,0.8755682110786438,245000,https://www.zillow.com/homedetails/11849-N-148th-Ave-Surprise-AZ-85379/60999871_zpid/,33.5919,-112.37899999999999
8965496,22503058,"15439 W Poinsettia Dr, Surprise, AZ 85379 ",85379,0.8755682110786438,239000,https://www.zillow.com/homedetails/15439-W-Poinsettia-Dr-Surprise-AZ-85379/71491199_zpid/,33.5921,-112.39200000000001
8948875,22519448,"13299 W Statler St, Surprise, AZ 85374 ",85374,0.8755682110786438,235000,https://www.zillow.com/homedetails/13299-W-Statler-St-Surprise-AZ-85374/8306538_zpid/,33.6318,-112.346
7526840,22493492,"15773 W Caribbean Ln, Surprise, AZ 85379 ",85379,0.8755682110786438,235000,https://www.zillow.com/homedetails/15773-W-Caribbean-Ln-Surprise-AZ-85379/64694580_zpid/,33.6232,-112.4
74101,22499838,"4251 E Carriage Way, Gilbert, AZ 85297 ",85297,0.8755649924278259,363888,https://www.zillow.com/homedetails/4251-E-Carriage-Way-Gilbert-AZ-85297/55280957_zpid/,33.2644,-111.698
71620,22543353,"3854 E Battala Ave, Gilbert, AZ 85297 ",85297,0.8754914402961731,260000,https://www.zillow.com/homedetails/3854-E-Battala-Ave-Gilbert-AZ-85297/71622718_zpid/,33.2819,-111.706
1252678,22566068,"1353 E Frances Ln, Gilbert, AZ 85295 ",85295,0.8754733800888062,269900,https://www.zillow.com/homedetails/1353-E-Frances-Ln-Gilbert-AZ-85295/67793063_zpid/,33.2943,-111.76100000000001
663205,22494104,"7635 E Obispo Ave, Mesa, AZ 85212 ",85212,0.8751611709594727,273900,https://www.zillow.com/homedetails/7635-E-Obispo-Ave-Mesa-AZ-85212/8277522_zpid/,33.3627,-111.669
1267115,22543335,"3288 E Oakland St, Gilbert, AZ 85295 ",85295,0.8751611709594727,274900,https://www.zillow.com/homedetails/3288-E-Oakland-St-Gilbert-AZ-85295/89457186_zpid/,33.3124,-111.719
8984241,22604584,"23610 S Cactus Flower Ct, Sun Lakes, AZ 85248 ",85248,0.8751389980316162,279500,https://www.zillow.com/homedetails/23610-S-Cactus-Flower-Ct-Sun-Lakes-AZ-85248/8213865_zpid/,,
1232423,22595409,"4207 E Vaughn Ave, Gilbert, AZ 85234 ",85234,0.8751389980316162,289900,https://www.zillow.com/homedetails/4207-E-Vaughn-Ave-Gilbert-AZ-85234/71615013_zpid/,,
8991905,22523250,"1394 E Tyson St, Chandler, AZ 85225 ",85225,0.8750913143157959,294990,https://www.zillow.com/homedetails/1394-E-Tyson-St-Chandler-AZ-85225/8282280_zpid/,,
1007957,22499815,"3705 E Bluebird Pl, Chandler, AZ 85286 ",85286,0.8746351003646851,335000,https://www.zillow.com/homedetails/3705-E-Bluebird-Pl-Chandler-AZ-85286/71551893_zpid/,33.2716,-111.779
8985291,22489873,"941 E Gary Dr, Chandler, AZ 85225 ",85225,0.8746216297149658,305000,https://www.zillow.com/homedetails/941-E-Gary-Dr-Chandler-AZ-85225/8281848_zpid/,33.3216,-111.82600000000001
1088781,22535048,"521 S Williams Pl, Chandler, AZ 85225 ",85225,0.8746216297149658,284900,https://www.zillow.com/homedetails/521-S-Williams-Pl-Chandler-AZ-85225/8206076_zpid/,33.2964,-111.825
865539,22509800,"12214 W Flanagan St, Avondale, AZ 85323 ",85323,0.874572217464447,198800,https://www.zillow.com/homedetails/12214-W-Flanagan-St-Avondale-AZ-85323/55282680_zpid/,33.4334,-112.322
1479360,22600933,"15518 N 170th Ln, Surprise, AZ 85388 ",85388,0.8745479583740234,205000,https://www.zillow.com/homedetails/15518-N-170th-Ln-Surprise-AZ-85388/67761106_zpid/,33.626,-112.426
1498354,22622178,"17789 W Alexandria Way, Surprise, AZ 85388 ",85388,0.8741790056228638,260000,https://www.zillow.com/homedetails/17789-W-Alexandria-Way-Surprise-AZ-85388/81971317_zpid/,33.607,-112.44200000000001
1001248,22445152,"2415 E Desert Broom Pl, Chandler, AZ 85286 ",85286,0.8739611506462097,340000,https://www.zillow.com/homedetails/2415-E-Desert-Broom-Pl-Chandler-AZ-85286/62733391_zpid/,33.2587,-111.8
8988315,22495726,"9050 E Crystal Dr, Sun Lakes, AZ 85248 ",85248,0.8737274408340454,380000,https://www.zillow.com/homedetails/9050-E-Crystal-Dr-Sun-Lakes-AZ-85248/8213978_zpid/,,
679843,22538012,"8532 E Nido Ave, Mesa, AZ 85209 ",85209,0.8731807470321655,299900,https://www.zillow.com/homedetails/8532-E-Nido-Ave-Mesa-AZ-85209/50124517_zpid/,33.3686,-111.65
70900,22554566,"3760 E Waterman St, Gilbert, AZ 85297 ",85297,0.8731750249862671,269900,https://www.zillow.com/homedetails/3760-E-Waterman-St-Gilbert-AZ-85297/55279146_zpid/,33.2869,-111.709
999333,22561319,"2278 E Flintlock Pl, Chandler, AZ 85286 ",85286,0.8730484843254089,299900,https://www.zillow.com/homedetails/2278-E-Flintlock-Pl-Chandler-AZ-85286/8209783_zpid/,,
1874214,22526790,"1338 S Palomino Creek Dr, Gilbert, AZ 85296 ",85296,0.8729572892189026,307900,https://www.zillow.com/homedetails/1338-S-Palomino-Creek-Dr-Gilbert-AZ-85296/8277742_zpid/,33.3259,-111.76100000000001
70299,22606080,"3658 E Timberline Rd, Gilbert, AZ 85297 ",85297,0.8727177977561951,334900,https://www.zillow.com/homedetails/3658-E-Timberline-Rd-Gilbert-AZ-85297/62736038_zpid/,33.2719,-111.711
1036789,22625780,"3801 E Leo Pl, Chandler, AZ 85249 ",85249,0.8727177977561951,389900,https://www.zillow.com/homedetails/3801-E-Leo-Pl-Chandler-AZ-85249/62734503_zpid/,33.2241,-111.77600000000001
181400,22543724,"1409 W Windsong Dr, Phoenix, AZ 85045 ",85045,0.8726584911346436,329900,https://www.zillow.com/homedetails/1409-W-Windsong-Dr-Phoenix-AZ-85045/8284665_zpid/,33.2928,-112.09
70067,22606077,"3609 S Loback Ln, Gilbert, AZ 85297 ",85297,0.8722980618476868,265000,https://www.zillow.com/homedetails/3609-S-Loback-Ln-Gilbert-AZ-85297/55279083_zpid/,33.285,-111.708
1346898,22609545,"4926 W Kaler Dr, Glendale, AZ 85301 ",85301,0.8722612261772156,259900,https://www.zillow.com/homedetails/4926-W-Kaler-Dr-Glendale-AZ-85301/7724911_zpid/,33.5487,-112.166
1140975,22486628,"11726 W Maui Ln, El Mirage, AZ 85335 ",85335,0.8720048069953918,259900,https://www.zillow.com/homedetails/11726-W-Maui-Ln-El-Mirage-AZ-85335/121851128_zpid/,33.6203,-112.31299999999999
1306987,22603917,"2222 E Galileo Dr, Gilbert, AZ 85298 ",85298,0.8719912171363831,365000,https://www.zillow.com/homedetails/2222-E-Galileo-Dr-Gilbert-AZ-85298/94882771_zpid/,33.2127,-111.742
1223858,22566616,"304 N Brighton Ln, Gilbert, AZ 85234 ",85234,0.8716755509376526,255000,https://www.zillow.com/homedetails/304-N-Brighton-Ln-Gilbert-AZ-85234/8236993_zpid/,,
564346,22501674,"10318 E Obispo Ave, Mesa, AZ 85212 ",85212,0.8716534376144409,269000,https://www.zillow.com/homedetails/10318-E-Obispo-Ave-Mesa-AZ-85212/50199352_zpid/,33.3624,-111.611
68233,22489290,"3255 S Loback Ln, Gilbert, AZ 85297 ",85297,0.8714277744293213,260000,https://www.zillow.com/homedetails/3255-S-Loback-Ln-Gilbert-AZ-85297/55279334_zpid/,33.2916,-111.705
863818,22492014,"11880 W Hadley St, Avondale, AZ 85323 ",85323,0.8713884353637695,270000,https://www.zillow.com/homedetails/11880-W-Hadley-St-Avondale-AZ-85323/60993441_zpid/,33.4388,-112.314
863739,22509798,"11867 W Sherman St, Avondale, AZ 85323 ",85323,0.8713884353637695,270000,https://www.zillow.com/homedetails/11867-W-Sherman-St-Avondale-AZ-85323/60993446_zpid/,33.4392,-112.314
1860260,22501784,"13002 W Campbell Ave, Litchfield Park, AZ 85340 ",85340,0.871383547782898,337500,https://www.zillow.com/homedetails/13002-W-Campbell-Ave-Litchfield-Park-AZ-85340/59251315_zpid/,33.5015,-112.339
1477014,22493453,"14938 N 174th Ave, Surprise, AZ 85388 ",85388,0.8713619709014893,215000,https://www.zillow.com/homedetails/14938-N-174th-Ave-Surprise-AZ-85388/71609789_zpid/,33.6199,-112.43299999999999
95921,22621358,"22897 S 214th St, Queen Creek, AZ 85142 ",85142,0.8711296916007996,249900,https://www.zillow.com/homedetails/22897-S-214th-St-Queen-Creek-AZ-85142/60991241_zpid/,33.2402,-111.619
8951374,22623013,"12567 N 154th Ave, Surprise, AZ 85379 ",85379,0.8707445859909058,267500,https://www.zillow.com/homedetails/12567-N-154th-Ave-Surprise-AZ-85379/95081714_zpid/,33.5986,-112.39200000000001
1264709,22583190,"2945 S Palm St, Gilbert, AZ 85295 ",85295,0.8705927729606628,399900,https://www.zillow.com/homedetails/2945-S-Palm-St-Gilbert-AZ-85295/52433659_zpid/,33.2962,-111.786
1032458,22558374,"2757 E Teakwood Pl, Chandler, AZ 85249 ",85249,0.8705927729606628,374900,https://www.zillow.com/homedetails/2757-E-Teakwood-Pl-Chandler-AZ-85249/55274390_zpid/,33.2285,-111.79299999999999
69444,22584469,"3508 E Fruitvale Ave, Gilbert, AZ 85297 ",85297,0.8705927729606628,354000,https://www.zillow.com/homedetails/3508-E-Fruitvale-Ave-Gilbert-AZ-85297/55277116_zpid/,33.2695,-111.714
75537,22584479,"4595 E Ironhorse Rd, Gilbert, AZ 85297 ",85297,0.8705927729606628,365000,https://www.zillow.com/homedetails/4595-E-Ironhorse-Rd-Gilbert-AZ-85297/55281204_zpid/,33.2707,-111.691
14342,22566586,"4082 E Palm Beach Dr, Chandler, AZ 85249 ",85249,0.8705927729606628,359500,https://www.zillow.com/homedetails/4082-E-Palm-Beach-Dr-Chandler-AZ-85249/67777858_zpid/,33.2069,-111.771
1552044,22550695,"3411 S Sunland Dr, Chandler, AZ 85248 ",85248,0.8704392910003662,335000,https://www.zillow.com/homedetails/3411-S-Sunland-Dr-Chandler-AZ-85248/92349027_zpid/,33.2559,-111.844
582934,22675021,"10932 E Ramona Ave, Mesa, AZ 85212 ",85212,0.8703644871711731,395000,https://www.zillow.com/homedetails/10932-E-Ramona-Ave-Mesa-AZ-85212/95150148_zpid/,33.3386,-111.598
8990013,22566597,"9241 E Emerald Dr, Sun Lakes, AZ 85248 ",85248,0.8702172636985779,255900,https://www.zillow.com/homedetails/9241-E-Emerald-Dr-Sun-Lakes-AZ-85248/8213889_zpid/,,
1258779,22543303,"2153 S Penrose Dr, Gilbert, AZ 85295 ",85295,0.869949221611023,285000,https://www.zillow.com/homedetails/2153-S-Penrose-Dr-Gilbert-AZ-85295/2105503871_zpid/,33.3111,-111.734
1042434,22489808,"4765 E Bellerive Dr, Chandler, AZ 85249 ",85249,0.869949221611023,289900,https://www.zillow.com/homedetails/4765-E-Bellerive-Dr-Chandler-AZ-85249/59257989_zpid/,33.2159,-111.76100000000001
71612,22529994,"3853 E Remington Dr, Gilbert, AZ 85297 ",85297,0.869949221611023,302900,https://www.zillow.com/homedetails/3853-E-Remington-Dr-Gilbert-AZ-85297/55279302_zpid/,33.2897,-111.70700000000001
1284209,22489247,"2578 E Stottler Dr, Gilbert, AZ 85296 ",85296,0.869949221611023,309900,https://www.zillow.com/homedetails/2578-E-Stottler-Dr-Gilbert-AZ-85296/8242635_zpid/,33.3337,-111.735
1258902,22542243,"2182 S Southwind Dr, Gilbert, AZ 85295 ",85295,0.869949221611023,317900,https://www.zillow.com/homedetails/2182-S-Southwind-Dr-Gilbert-AZ-85295/50124168_zpid/,33.3106,-111.766
19636,22503639,"9716 S Reidar Rd, Laveen, AZ 85339 ",85339,0.8696639537811279,355000,https://www.zillow.com/homedetails/9716-S-Reidar-Rd-Laveen-AZ-85339/67771661_zpid/,33.3585,-112.155
8977350,22375823,"14125 W Boca Raton Rd, Surprise, AZ 85379 ",85379,0.8695628643035889,259900,https://www.zillow.com/homedetails/14125-W-Boca-Raton-Rd-Surprise-AZ-85379/67781091_zpid/,33.6101,-112.36399999999999
1662251,22467729,"11818 W Foothill Dr, Sun City, AZ 85373 ",85373,0.8695376515388489,249000,https://www.zillow.com/homedetails/11818-W-Foothill-Dr-Sun-City-AZ-85373/71610189_zpid/,33.6871,-112.315
8986929,22486790,"5704 W Milada Dr, Laveen, AZ 85339 ",85339,0.8692724108695984,215000,https://www.zillow.com/homedetails/5704-W-Milada-Dr-Laveen-AZ-85339/95169292_zpid/,33.3637,-112.182
8993487,22543624,"11586 W Gregory Dr, Youngtown, AZ 85363 ",85363,0.8689784407615662,210000,https://www.zillow.com/homedetails/11586-W-Gregory-Dr-Youngtown-AZ-85363/62569138_zpid/,33.5679,-112.309
1045434,22579591,"6121 S Ruby Dr, Chandler, AZ 85249 ",85249,0.8688804507255554,280000,https://www.zillow.com/homedetails/6121-S-Ruby-Dr-Chandler-AZ-85249/58758895_zpid/,33.218,-111.76
1087464,22579593,"433 N Neuman Pl, Chandler, AZ 85225 ",85225,0.8688804507255554,285000,https://www.zillow.com/homedetails/433-N-Neuman-Pl-Chandler-AZ-85225/8284377_zpid/,33.3104,-111.791
1325540,22553954,"7617 S Boxelder St, Gilbert, AZ 85298 ",85298,0.8687395453453064,369000,https://www.zillow.com/homedetails/7617-S-Boxelder-St-Gilbert-AZ-85298/95129554_zpid/,33.2119,-111.744
8977776,22430032,"319 S 84th Way, Mesa, AZ 85208 ",85208,0.8687291145324707,104900,https://www.zillow.com/homedetails/319-S-84th-Way-Mesa-AZ-85208/8076021_zpid/,33.409,-111.648
90944,22597955,"21168 E Aspen Valley Dr, Queen Creek, AZ 85142 ",85142,0.8686819672584534,200000,https://www.zillow.com/homedetails/21168-E-Aspen-Valley-Dr-Queen-Creek-AZ-85142/59260864_zpid/,33.2427,-111.625
1284159,22573318,"2557 E Stottler Dr, Gilbert, AZ 85296 ",85296,0.8686206340789795,270000,https://www.zillow.com/homedetails/2557-E-Stottler-Dr-Gilbert-AZ-85296/8242690_zpid/,33.3331,-111.735
132444,22600926,"15509 W Ironwood St, Surprise, AZ 85374 ",85374,0.8683087825775146,242500,https://www.zillow.com/homedetails/15509-W-Ironwood-St-Surprise-AZ-85374/55285915_zpid/,33.6278,-112.395
958364,22503754,"35 S Kenneth Pl, Chandler, AZ 85226 ",85226,0.8683030605316162,305000,https://www.zillow.com/homedetails/35-S-Kenneth-Pl-Chandler-AZ-85226/8166538_zpid/,33.303000000000004,-111.921
1095106,22682754,"83 N Amber Ct, Chandler, AZ 85225 ",85225,0.8682921528816223,305000,https://www.zillow.com/homedetails/83-N-Amber-Ct-Chandler-AZ-85225/8222997_zpid/,33.3044,-111.809
1050089,22662755,"6943 S Topaz Pl, Chandler, AZ 85249 ",85249,0.8679710030555725,319900,https://www.zillow.com/homedetails/6943-S-Topaz-Pl-Chandler-AZ-85249/67777733_zpid/,33.2058,-111.765
1252540,22606008,"1324 E Frances Ln, Gilbert, AZ 85295 ",85295,0.8679710030555725,319900,https://www.zillow.com/homedetails/1324-E-Frances-Ln-Gilbert-AZ-85295/67793071_zpid/,33.2941,-111.762
1039813,22625441,"4253 E Gleneagle Dr, Chandler, AZ 85249 ",85249,0.8679710030555725,315000,https://www.zillow.com/homedetails/4253-E-Gleneagle-Dr-Chandler-AZ-85249/67777940_zpid/,33.2051,-111.76700000000001
71993,22606100,"3891 E Simpson Rd, Gilbert, AZ 85297 ",85297,0.8679710030555725,319999,https://www.zillow.com/homedetails/3891-E-Simpson-Rd-Gilbert-AZ-85297/55100565_zpid/,33.2649,-111.706
1000253,22697934,"2341 E Aloe Pl, Chandler, AZ 85286 ",85286,0.8679710030555725,332000,https://www.zillow.com/homedetails/2341-E-Aloe-Pl-Chandler-AZ-85286/88785272_zpid/,33.249,-111.8
7408336,22528872,"5633 W Carson Rd, Laveen, AZ 85339 ",85339,0.8675298094749451,264700,https://www.zillow.com/homedetails/5633-W-Carson-Rd-Laveen-AZ-85339/67764776_zpid/,33.382,-112.181
201987,22486862,"7413 S 30th Ave, Phoenix, AZ 85041 ",85041,0.8675298094749451,249900,https://www.zillow.com/homedetails/7413-S-30th-Ave-Phoenix-AZ-85041/67764840_zpid/,33.3787,-112.12299999999999
989837,22374539,"1422 E Ebony Dr, Chandler, AZ 85286 ",85286,0.8672822713851929,322500,https://www.zillow.com/homedetails/1422-E-Ebony-Dr-Chandler-AZ-85286/60049605_zpid/,,
986069,22423449,"1163 E Jade Dr, Chandler, AZ 85286 ",85286,0.8672822713851929,293500,https://www.zillow.com/homedetails/1163-E-Jade-Dr-Chandler-AZ-85286/60034727_zpid/,,
1485868,22240512,"16731 N 172nd Ave, Surprise, AZ 85388 ",85388,0.8672728538513184,215000,https://www.zillow.com/homedetails/16731-N-172nd-Ave-Surprise-AZ-85388/67768326_zpid/,33.6365,-112.43
1546002,22589971,"24025 S Sunny Side Dr, Sun Lakes, AZ 85248 ",85248,0.8672345280647278,349500,https://www.zillow.com/homedetails/24025-S-Sunny-Side-Dr-Sun-Lakes-AZ-85248/50195574_zpid/,33.2286,-111.859
1497458,22434069,"17754 W Alexandria Way, Surprise, AZ 85388 ",85388,0.8670845627784729,233700,https://www.zillow.com/homedetails/17754-W-Alexandria-Way-Surprise-AZ-85388/81986313_zpid/,33.6068,-112.441
244576,22268455,"23920 N 23rd Pl, Phoenix, AZ 85024 ",85024,0.8670215606689453,383000,https://www.zillow.com/homedetails/23920-N-23rd-Pl-Phoenix-AZ-85024/108257051_zpid/,33.7038,-112.03299999999999
82923,22554525,"18607 E Oriole Way, Queen Creek, AZ 85142 ",85142,0.8669862747192383,335000,https://www.zillow.com/homedetails/18607-E-Oriole-Way-Queen-Creek-AZ-85142/62737238_zpid/,33.2713,-111.682
8855020,22490981,"24662 W Sheraton Ln, Buckeye, AZ 85326 ",85326,0.8669070601463318,192900,https://www.zillow.com/homedetails/24662-W-Sheraton-Ln-Buckeye-AZ-85326/95124211_zpid/,,
8985248,22492053,"3438 S 123RD Cir, Avondale, AZ 85323 ",85323,0.8669070601463318,200000,https://www.zillow.com/homedetails/3438-S-123RD-Cir-Avondale-AZ-85323/95097579_zpid/,,
76734,22388461,"855 E Doral Ct, Gilbert, AZ 85297 ",85297,0.8667846918106079,339000,https://www.zillow.com/homedetails/855-E-Doral-Ct-Gilbert-AZ-85297/89457601_zpid/,33.2663,-111.771
1080370,22502437,"2412 E Kempton Rd, Chandler, AZ 85225 ",85225,0.8667349815368652,325000,https://www.zillow.com/homedetails/2412-E-Kempton-Rd-Chandler-AZ-85225/50195713_zpid/,,
433851,22579469,"11250 W Roma Ave, Phoenix, AZ 85037 ",85037,0.8666800856590271,209999,https://www.zillow.com/homedetails/11250-W-Roma-Ave-Phoenix-AZ-85037/50185951_zpid/,33.4992,-112.302
8995328,22555036,"1510 S Palm St, Gilbert, AZ 85296 ",85296,0.8661767840385437,340000,https://www.zillow.com/homedetails/1510-S-Palm-St-Gilbert-AZ-85296/8240624_zpid/,33.3226,-111.786
8991919,22523526,"11252 E Peterson Ave, Mesa, AZ 85212 ",85212,0.8659666180610657,280000,https://www.zillow.com/homedetails/11252-E-Peterson-Ave-Mesa-AZ-85212/52434667_zpid/,33.3541,-111.59100000000001
581467,22577658,"10664 E Pantera Ave, Mesa, AZ 85212 ",85212,0.8658125996589661,269900,https://www.zillow.com/homedetails/10664-E-Pantera-Ave-Mesa-AZ-85212/8278709_zpid/,33.359,-111.603
1257807,22566100,"1971 E Los Alamos St, Gilbert, AZ 85295 ",85295,0.8657789826393127,299900,https://www.zillow.com/homedetails/1971-E-Los-Alamos-St-Gilbert-AZ-85295/55205886_zpid/,33.3142,-111.74799999999999
1049988,22570868,"6931 S Pearl Dr, Chandler, AZ 85249 ",85249,0.8657789826393127,329000,https://www.zillow.com/homedetails/6931-S-Pearl-Dr-Chandler-AZ-85249/67777937_zpid/,33.2101,-111.76899999999999
8977913,22387545,"5241 W Shumway Farm Rd, Laveen, AZ 85339 ",85339,0.8653849959373474,206000,https://www.zillow.com/homedetails/5241-W-Shumway-Farm-Rd-Laveen-AZ-85339/67789224_zpid/,33.3835,-112.17200000000001
1671859,22615519,"23720 N 118th Ln, Sun City, AZ 85373 ",85373,0.8653263449668884,250000,https://www.zillow.com/homedetails/23720-N-118th-Ln-Sun-City-AZ-85373/71618013_zpid/,33.6998,-112.315
1071174,22489634,"1431 E Folley Pl, Chandler, AZ 85225 ",85225,0.8650497198104858,335000,https://www.zillow.com/homedetails/1431-E-Folley-Pl-Chandler-AZ-85225/50196244_zpid/,,
1551147,22698525,"289 W Balsam Dr, Chandler, AZ 85248 ",85248,0.8650321960449219,399900,https://www.zillow.com/homedetails/289-W-Balsam-Dr-Chandler-AZ-85248/81953138_zpid/,33.2576,-111.846
9002393,22610418,"9735 E Kinetic Dr, Mesa, AZ 85212 ",85212,0.8649012446403503,255950,https://www.zillow.com/homedetails/9735-E-Kinetic-Dr-Mesa-AZ-85212/2092955383_zpid/,33.3234,-111.62100000000001
1866682,22528862,"4416 W Hopi Trl, Laveen, AZ 85339 ",85339,0.8648208975791931,288000,https://www.zillow.com/homedetails/4416-W-Hopi-Trl-Laveen-AZ-85339/67771721_zpid/,33.3611,-112.155
1140182,22486623,"11530 W Corrine Dr, El Mirage, AZ 85335 ",85335,0.8647350668907166,195000,https://www.zillow.com/homedetails/11530-W-Corrine-Dr-El-Mirage-AZ-85335/58391698_zpid/,33.6004,-112.309
8992431,22527722,"15236 W Desert Hills Dr, Surprise, AZ 85379 ",85379,0.8642703294754028,229950,https://www.zillow.com/homedetails/15236-W-Desert-Hills-Dr-Surprise-AZ-85379/60965021_zpid/,33.5936,-112.38799999999999
8987679,22495009,"15012 W Cameron Dr, Surprise, AZ 85379 ",85379,0.8642703294754028,249900,https://www.zillow.com/homedetails/15012-W-Cameron-Dr-Surprise-AZ-85379/61000068_zpid/,33.5906,-112.384
8983297,22484599,"2305 N Hibbert Cir, Mesa, AZ 85201 ",85201,0.8642564415931702,365000,https://www.zillow.com/homedetails/2305-N-Hibbert-Cir-Mesa-AZ-85201/7614384_zpid/,,
2058957,22510009,"11443 E Ellis St, Mesa, AZ 85207 ",85207,0.8639817833900452,340000,https://www.zillow.com/homedetails/11443-E-Ellis-St-Mesa-AZ-85207/67763391_zpid/,33.4299,-111.584
593819,22484519,"11317 E Enrose St, Mesa, AZ 85207 ",85207,0.8639817833900452,335000,https://www.zillow.com/homedetails/11317-E-Enrose-St-Mesa-AZ-85207/67763383_zpid/,33.4306,-111.587
664138,22593821,"2621 S Parrish, Mesa, AZ 85209 ",85209,0.8639371991157532,324900,https://www.zillow.com/homedetails/2621-S-Parrish-Mesa-AZ-85209/55280053_zpid/,33.3674,-111.62
1490862,22493550,"17218 W Statler St, Surprise, AZ 85388 ",85388,0.8637547492980957,249000,https://www.zillow.com/homedetails/17218-W-Statler-St-Surprise-AZ-85388/67768268_zpid/,33.6324,-112.43
71421,22580384,"3831 E Santa Fe Ln, Gilbert, AZ 85297 ",85297,0.8634107708930969,272000,https://www.zillow.com/homedetails/3831-E-Santa-Fe-Ln-Gilbert-AZ-85297/71622590_zpid/,33.2784,-111.70700000000001
7541231,22490938,"21276 W Berkeley Rd, Buckeye, AZ 85396 ",85396,0.8631348013877869,265000,https://www.zillow.com/homedetails/21276-W-Berkeley-Rd-Buckeye-AZ-85396/119228367_zpid/,33.4674,-112.516
183440,22550537,"16627 S 17th Dr, Phoenix, AZ 85045 ",85045,0.863010585308075,349000,https://www.zillow.com/homedetails/16627-S-17th-Dr-Phoenix-AZ-85045/50200871_zpid/,33.2956,-112.098
1537439,22489622,"121 W Hackberry Dr, Chandler, AZ 85248 ",85248,0.863010585308075,344900,https://www.zillow.com/homedetails/121-W-Hackberry-Dr-Chandler-AZ-85248/92349164_zpid/,33.2568,-111.844
1554233,22534145,"451 W Wisteria Pl, Chandler, AZ 85248 ",85248,0.863010585308075,372000,https://www.zillow.com/homedetails/451-W-Wisteria-Pl-Chandler-AZ-85248/92349126_zpid/,33.2615,-111.84899999999999
1020724,22489609,"1101 E Mead Dr, Chandler, AZ 85249 ",85249,0.863010585308075,381500,https://www.zillow.com/homedetails/1101-E-Mead-Dr-Chandler-AZ-85249/52431235_zpid/,33.2376,-111.822
8985701,22597708,"14098 W Rosewood Dr, Surprise, AZ 85379 ",85379,0.8629459738731384,229999,https://www.zillow.com/homedetails/14098-W-Rosewood-Dr-Surprise-AZ-85379/71611243_zpid/,33.5986,-112.36399999999999
1476163,22423718,"14691 N 174th Ave, Surprise, AZ 85388 ",85388,0.8627448678016663,200000,https://www.zillow.com/homedetails/14691-N-174th-Ave-Surprise-AZ-85388/67796193_zpid/,33.6178,-112.43299999999999
587262,22420073,"11315 E Shelley Ave, Mesa, AZ 85212 ",85212,0.8625882863998413,305000,https://www.zillow.com/homedetails/11315-E-Shelley-Ave-Mesa-AZ-85212/95153575_zpid/,33.3233,-111.589
183478,22408560,"1317 E Cottonwood Ln, Phoenix, AZ 85048 ",85048,0.8624168634414673,399900,https://www.zillow.com/homedetails/1317-E-Cottonwood-Ln-Phoenix-AZ-85048/8135341_zpid/,33.2933,-112.056
1863886,22489650,"1532 E Tulsa St, Chandler, AZ 85225 ",85225,0.86236572265625,269900,https://www.zillow.com/homedetails/1532-E-Tulsa-St-Chandler-AZ-85225/8196697_zpid/,33.3125,-111.815
8937793,22522796,"728 E Gail Dr, Chandler, AZ 85225 ",85225,0.86236572265625,258000,https://www.zillow.com/homedetails/728-E-Gail-Dr-Chandler-AZ-85225/8281792_zpid/,33.3234,-111.83
631293,22560141,"438 W Nopal Ave, Mesa, AZ 85210 ",85210,0.86236572265625,259900,https://www.zillow.com/homedetails/438-W-Nopal-Ave-Mesa-AZ-85210/8279678_zpid/,33.3658,-111.84299999999999
68257,22489294,"3261 E Santa Fe Ln, Gilbert, AZ 85297 ",85297,0.8620595335960388,325000,https://www.zillow.com/homedetails/3261-E-Santa-Fe-Ln-Gilbert-AZ-85297/50200432_zpid/,33.2781,-111.719
89372,22499760,"20832 S 184th Pl, Queen Creek, AZ 85142 ",85142,0.8620595335960388,318000,https://www.zillow.com/homedetails/20832-S-184th-Pl-Queen-Creek-AZ-85142/59259212_zpid/,33.2597,-111.685
1004754,22499774,"2870 S Miller Dr, Chandler, AZ 85286 ",85286,0.8620595335960388,315000,https://www.zillow.com/homedetails/2870-S-Miller-Dr-Chandler-AZ-85286/62733874_zpid/,33.2648,-111.785
1044917,22700175,"5990 S Mesquite Grove Way, Chandler, AZ 85249 ",85249,0.8619899749755859,349900,https://www.zillow.com/homedetails/5990-S-Mesquite-Grove-Way-Chandler-AZ-85249/59261985_zpid/,33.2197,-111.786
503000,22437447,"2808 W Lamar Rd, Phoenix, AZ 85017 ",85017,0.8619846701622009,245000,https://www.zillow.com/homedetails/2808-W-Lamar-Rd-Phoenix-AZ-85017/50188296_zpid/,33.5366,-112.119
993996,22515548,"1802 W Winchester Way, Chandler, AZ 85286 ",85286,0.8619681000709534,299900,https://www.zillow.com/homedetails/1802-W-Winchester-Way-Chandler-AZ-85286/8208810_zpid/,33.289,-111.87200000000001
186630,22510407,"2416 E Windsong Dr, Phoenix, AZ 85048 ",85048,0.8619681000709534,289900,https://www.zillow.com/homedetails/2416-E-Windsong-Dr-Phoenix-AZ-85048/8257031_zpid/,33.294000000000004,-112.031
1317963,22503768,"4520 E Carob Dr, Gilbert, AZ 85298 ",85298,0.8619650602340698,377000,https://www.zillow.com/homedetails/4520-E-Carob-Dr-Gilbert-AZ-85298/81978096_zpid/,33.2542,-111.69200000000001
8999064,22595410,"668 S Heritage Dr, Gilbert, AZ 85296 ",85296,0.8618120551109314,279000,https://www.zillow.com/homedetails/668-S-Heritage-Dr-Gilbert-AZ-85296/8278275_zpid/,33.3379,-111.772
72529,22606102,"3961 E Remington Dr, Gilbert, AZ 85297 ",85297,0.8618120551109314,279900,https://www.zillow.com/homedetails/3961-E-Remington-Dr-Gilbert-AZ-85297/55279291_zpid/,33.2895,-111.705
8997294,22570701,"1205 W Macaw Dr, Chandler, AZ 85286 ",85286,0.8617677688598633,280000,https://www.zillow.com/homedetails/1205-W-Macaw-Dr-Chandler-AZ-85286/8210340_zpid/,33.2709,-111.861
564089,22583364,"10240 E Posada Ave, Mesa, AZ 85212 ",85212,0.8616888523101807,312000,https://www.zillow.com/homedetails/10240-E-Posada-Ave-Mesa-AZ-85212/8278505_zpid/,33.3597,-111.613
8992533,22528906,"3443 W Hayduk Rd, Laveen, AZ 85339 ",85339,0.8616872429847717,205243,https://www.zillow.com/homedetails/3443-W-Hayduk-Rd-Laveen-AZ-85339/95173869_zpid/,33.3599,-112.134
667976,22540757,"8909 E Oro Cir, Mesa, AZ 85212 ",85212,0.8616036176681519,225000,https://www.zillow.com/homedetails/8909-E-Oro-Cir-Mesa-AZ-85212/60990490_zpid/,33.3613,-111.64200000000001
856484,22604108,"11155 W Baden St, Avondale, AZ 85323 ",85323,0.8615509271621704,209900,https://www.zillow.com/homedetails/11155-W-Baden-St-Avondale-AZ-85323/67773136_zpid/,33.4544,-112.29899999999999
1073187,22601327,"1612 E Oakland St, Chandler, AZ 85225 ",85225,0.8614027500152588,309500,https://www.zillow.com/homedetails/1612-E-Oakland-St-Chandler-AZ-85225/8196670_zpid/,,
521883,22513655,"9003 W Encanto Blvd, Phoenix, AZ 85037 ",85037,0.861319899559021,215000,https://www.zillow.com/homedetails/9003-W-Encanto-Blvd-Phoenix-AZ-85037/7487077_zpid/,33.4722,-112.25299999999999
39932,22540779,"2016 S 66th Ln, Phoenix, AZ 85043 ",85043,0.861319899559021,213500,https://www.zillow.com/homedetails/2016-S-66th-Ln-Phoenix-AZ-85043/67773152_zpid/,33.429,-112.20299999999999
993720,22595493,"1781 E Indigo Dr, Chandler, AZ 85286 ",85286,0.8612021207809448,344500,https://www.zillow.com/homedetails/1781-E-Indigo-Dr-Chandler-AZ-85286/60985524_zpid/,33.2548,-111.81
193570,22377976,"2436 W Kachina Trl, Phoenix, AZ 85041 ",85041,0.8610222935676575,315000,https://www.zillow.com/homedetails/2436-W-Kachina-Trl-Phoenix-AZ-85041/81956548_zpid/,33.3572,-112.113
9001535,22600924,"15014 W Wethersfield Rd, Surprise, AZ 85379 ",85379,0.8607109189033508,265000,https://www.zillow.com/homedetails/15014-W-Wethersfield-Rd-Surprise-AZ-85379/60993906_zpid/,33.5955,-112.383
437803,22554954,"13515 W Monterey Way, Avondale, AZ 85392 ",85392,0.8606623411178589,389900,https://www.zillow.com/homedetails/13515-W-Monterey-Way-Avondale-AZ-85392/81976345_zpid/,33.485,-112.351
1045630,22603999,"6150 S Kimberlee Way, Chandler, AZ 85249 ",85249,0.8605292439460754,319999,https://www.zillow.com/homedetails/6150-S-Kimberlee-Way-Chandler-AZ-85249/25776506_zpid/,33.217,-111.795
530986,22387524,"5409 S 51st Dr, Laveen, AZ 85339 ",85339,0.8604680299758911,255000,https://www.zillow.com/homedetails/5409-S-51st-Dr-Laveen-AZ-85339/67773393_zpid/,33.3969,-112.169
8963811,22387497,"5510 W Vineyard Rd, Laveen, AZ 85339 ",85339,0.8604680299758911,240000,https://www.zillow.com/homedetails/5510-W-Vineyard-Rd-Laveen-AZ-85339/60975998_zpid/,33.3862,-112.179
8955864,22433062,"5611 W Maldonado Rd, Laveen, AZ 85339 ",85339,0.8604680299758911,259000,https://www.zillow.com/homedetails/5611-W-Maldonado-Rd-Laveen-AZ-85339/67764799_zpid/,33.3828,-112.18
860032,22406981,"11602 W Cocopah St, Avondale, AZ 85323 ",85323,0.8604680299758911,250000,https://www.zillow.com/homedetails/11602-W-Cocopah-St-Avondale-AZ-85323/60992506_zpid/,33.4318,-112.309
1255382,22583179,"1733 E Elgin St, Gilbert, AZ 85295 ",85295,0.860338032245636,215000,https://www.zillow.com/homedetails/1733-E-Elgin-St-Gilbert-AZ-85295/81990880_zpid/,33.2978,-111.75299999999999
8985368,22582104,"26232 S Lemon Ave, Queen Creek, AZ 85142 ",85142,0.8602823615074158,293000,https://www.zillow.com/homedetails/26232-S-Lemon-Ave-Queen-Creek-AZ-85142/8246463_zpid/,33.2089,-111.695
1357853,22609621,"7784 N 56th Ln, Glendale, AZ 85301 ",85301,0.8601507544517517,205000,https://www.zillow.com/homedetails/7784-N-56th-Ln-Glendale-AZ-85301/62728711_zpid/,33.5518,-112.181
435205,22523198,"12339 W Monte Vista Rd, Avondale, AZ 85392 ",85392,0.8600553870201111,369990,https://www.zillow.com/homedetails/12339-W-Monte-Vista-Rd-Avondale-AZ-85392/8301836_zpid/,33.4689,-112.32799999999999
8945118,22490819,"8380 W Salter Dr, Peoria, AZ 85382 ",85382,0.8600487112998962,204900,https://www.zillow.com/homedetails/8380-W-Salter-Dr-Peoria-AZ-85382/7885919_zpid/,33.6786,-112.23899999999999
8967236,22528865,"5326 W Apollo Rd, Laveen, AZ 85339 ",85339,0.8598998188972473,307000,https://www.zillow.com/homedetails/5326-W-Apollo-Rd-Laveen-AZ-85339/67789130_zpid/,33.3864,-112.17399999999999
7376380,22507662,"9310 E Coopers Hawk Dr, Sun Lakes, AZ 85248 ",85248,0.8598608374595642,377000,https://www.zillow.com/homedetails/9310-E-Coopers-Hawk-Dr-Sun-Lakes-AZ-85248/8213729_zpid/,,
1309429,22388400,"2842 E Sports Ct, Gilbert, AZ 85298 ",85298,0.8598431348800659,294900,https://www.zillow.com/homedetails/2842-E-Sports-Ct-Gilbert-AZ-85298/95107471_zpid/,33.23,-111.728
88560,22581986,"2040 W Half Moon Cir, San Tan Valley, AZ 85142 ",85142,0.8596689105033875,240000,https://www.zillow.com/homedetails/2040-W-Half-Moon-Cir-San-Tan-Valley-AZ-85142/88891259_zpid/,33.1931,-111.588
72513,22550097,"3956 S Moccasin Trl, Gilbert, AZ 85297 ",85297,0.8595267534255981,329800,https://www.zillow.com/homedetails/3956-S-Moccasin-Trl-Gilbert-AZ-85297/59258245_zpid/,33.2786,-111.714
69217,22573297,"3466 S Joshua Tree Ln, Gilbert, AZ 85297 ",85297,0.8594895005226135,349989,https://www.zillow.com/homedetails/3466-S-Joshua-Tree-Ln-Gilbert-AZ-85297/55279241_zpid/,33.2876,-111.705
72155,22580413,"3910 E Wildhorse Dr, Gilbert, AZ 85297 ",85297,0.8594895005226135,369900,https://www.zillow.com/homedetails/3910-E-Wildhorse-Dr-Gilbert-AZ-85297/55279282_zpid/,33.2892,-111.706
8959243,22433918,"11577 W Lee Ln, Youngtown, AZ 85363 ",85363,0.8594473004341125,200000,https://www.zillow.com/homedetails/11577-W-Lee-Ln-Youngtown-AZ-85363/67798600_zpid/,33.5787,-112.309
581745,22572249,"10744 E Portobello Ave, Mesa, AZ 85212 ",85212,0.8594144582748413,235000,https://www.zillow.com/homedetails/10744-E-Portobello-Ave-Mesa-AZ-85212/8278627_zpid/,33.3611,-111.602
1490587,22527782,"17167 W Rimrock St, Surprise, AZ 85388 ",85388,0.8593238592147827,209900,https://www.zillow.com/homedetails/17167-W-Rimrock-St-Surprise-AZ-85388/67768080_zpid/,33.6313,-112.429
590353,22420113,"11527 E Segura Ave, Mesa, AZ 85212 ",85212,0.8590298891067505,239900,https://www.zillow.com/homedetails/11527-E-Segura-Ave-Mesa-AZ-85212/71618131_zpid/,33.3319,-111.585
8974772,22503901,"13647 W Creosote Dr, Peoria, AZ 85383 ",85383,0.8589780926704407,364800,https://www.zillow.com/homedetails/13647-W-Creosote-Dr-Peoria-AZ-85383/95095486_zpid/,33.7669,-112.355
1001718,22561320,"2445 E Desert Broom Pl, Chandler, AZ 85286 ",85286,0.8589159846305847,365000,https://www.zillow.com/homedetails/2445-E-Desert-Broom-Pl-Chandler-AZ-85286/62733394_zpid/,33.2586,-111.79899999999999
1259388,22392070,"2356 S Porter St, Gilbert, AZ 85295 ",85295,0.8588646054267883,354500,https://www.zillow.com/homedetails/2356-S-Porter-St-Gilbert-AZ-85295/50197813_zpid/,33.3076,-111.76899999999999
8996194,22562308,"2432 E Marguerite Ave, Phoenix, AZ 85040 ",85040,0.8588545918464661,181000,https://www.zillow.com/homedetails/2432-E-Marguerite-Ave-Phoenix-AZ-85040/2093031862_zpid/,33.4053,-112.02799999999999
1192737,22502382,"662 N Sunway Dr, Gilbert, AZ 85233 ",85233,0.858693540096283,310000,https://www.zillow.com/homedetails/662-N-Sunway-Dr-Gilbert-AZ-85233/8175450_zpid/,33.3617,-111.82600000000001
1070096,22566564,"1341 E Folley Pl, Chandler, AZ 85225 ",85225,0.8583152890205383,345000,https://www.zillow.com/homedetails/1341-E-Folley-Pl-Chandler-AZ-85225/50196324_zpid/,,
8997661,22573342,"982 S Butte Ln, Gilbert, AZ 85296 ",85296,0.8578818440437317,279000,https://www.zillow.com/homedetails/982-S-Butte-Ln-Gilbert-AZ-85296/8241023_zpid/,33.3324,-111.759
1079337,22604566,"2270 E Whitten St, Chandler, AZ 85225 ",85225,0.8576964139938354,378000,https://www.zillow.com/homedetails/2270-E-Whitten-St-Chandler-AZ-85225/50195759_zpid/,,
8967277,22629000,"9131 E Hobart St, Mesa, AZ 85207 ",85207,0.8576964139938354,339800,https://www.zillow.com/homedetails/9131-E-Hobart-St-Mesa-AZ-85207/52428743_zpid/,,
190588,22526854,"1614 W Saint Catherine Ave, Phoenix, AZ 85041 ",85041,0.8576800227165222,215000,https://www.zillow.com/homedetails/1614-W-Saint-Catherine-Ave-Phoenix-AZ-85041/59272326_zpid/,33.3884,-112.09299999999999
871302,22506670,"912 E Brooke Pl, Avondale, AZ 85323 ",85323,0.8576611876487732,194990,https://www.zillow.com/homedetails/912-E-Brooke-Pl-Avondale-AZ-85323/81975115_zpid/,33.4322,-112.338
856733,22492011,"11170 W Baden St, Avondale, AZ 85323 ",85323,0.8576611876487732,199400,https://www.zillow.com/homedetails/11170-W-Baden-St-Avondale-AZ-85323/67773072_zpid/,33.4546,-112.3
584360,22590528,"11106 E Quade Ave, Mesa, AZ 85212 ",85212,0.8576400279998779,349500,https://www.zillow.com/homedetails/11106-E-Quade-Ave-Mesa-AZ-85212/95018260_zpid/,33.3485,-111.594
1305431,22489206,"1560 E Mia Ln, Gilbert, AZ 85298 ",85298,0.8576287031173706,305000,https://www.zillow.com/homedetails/1560-E-Mia-Ln-Gilbert-AZ-85298/62733984_zpid/,33.2583,-111.756
585386,22484524,"11158 E Sebring Ave, Mesa, AZ 85212 ",85212,0.857513427734375,227000,https://www.zillow.com/homedetails/11158-E-Sebring-Ave-Mesa-AZ-85212/95100831_zpid/,33.3324,-111.59299999999999
585039,22512555,"11139 E Sebring Ave, Mesa, AZ 85212 ",85212,0.857513427734375,231900,https://www.zillow.com/homedetails/11139-E-Sebring-Ave-Mesa-AZ-85212/95185308_zpid/,33.3324,-111.594
1087344,22449332,"422 S Marie Dr, Chandler, AZ 85225 ",85225,0.8573852181434631,350000,https://www.zillow.com/homedetails/422-S-Marie-Dr-Chandler-AZ-85225/10987593_zpid/,,
1140359,22526722,"11545 W Larkspur Rd, El Mirage, AZ 85335 ",85335,0.8573765158653259,192500,https://www.zillow.com/homedetails/11545-W-Larkspur-Rd-El-Mirage-AZ-85335/58575533_zpid/,33.5977,-112.31
581442,22512569,"10660 E Plata Ave, Mesa, AZ 85212 ",85212,0.8572553396224976,208988,https://www.zillow.com/homedetails/10660-E-Plata-Ave-Mesa-AZ-85212/8278615_zpid/,33.361999999999995,-111.604
8965863,22387559,"7016 S 54th Ln, Laveen, AZ 85339 ",85339,0.8570692539215088,215000,https://www.zillow.com/homedetails/7016-S-54th-Ln-Laveen-AZ-85339/71619419_zpid/,33.3825,-112.176
1253235,22566070,"1431 E Bridgeport Pkwy, Gilbert, AZ 85295 ",85295,0.8568180203437805,365000,https://www.zillow.com/homedetails/1431-E-Bridgeport-Pkwy-Gilbert-AZ-85295/60988070_zpid/,33.3005,-111.759
65268,22524274,"1089 E Euclid Ave, Gilbert, AZ 85297 ",85297,0.8568180203437805,360000,https://www.zillow.com/homedetails/1089-E-Euclid-Ave-Gilbert-AZ-85297/89457603_zpid/,33.2698,-111.766
1007621,22524353,"3630 S Velero St, Chandler, AZ 85286 ",85286,0.8568180203437805,399900,https://www.zillow.com/homedetails/3630-S-Velero-St-Chandler-AZ-85286/60049968_zpid/,33.2534,-111.815
1032628,22510460,"2809 E Cedar Pl, Chandler, AZ 85249 ",85249,0.8568180203437805,360000,https://www.zillow.com/homedetails/2809-E-Cedar-Pl-Chandler-AZ-85249/55274289_zpid/,33.2293,-111.79299999999999
1251125,22543293,"1046 E Phelps St, Gilbert, AZ 85295 ",85295,0.8568180203437805,352000,https://www.zillow.com/homedetails/1046-E-Phelps-St-Gilbert-AZ-85295/60034953_zpid/,33.2968,-111.76700000000001
584660,22261613,"11121 E Sonrisa Ave, Mesa, AZ 85212 ",85212,0.8567429780960083,265000,https://www.zillow.com/homedetails/11121-E-Sonrisa-Ave-Mesa-AZ-85212/82240393_zpid/,33.3305,-111.594
8998775,22581951,"2000 W Vineyard Plains Dr, San Tan Valley, AZ 85142 ",85142,0.8567429780960083,239900,https://www.zillow.com/homedetails/2000-W-Vineyard-Plains-Dr-San-Tan-Valley-AZ-85142/2094194113_zpid/,33.187,-111.588
670595,22635253,"7413 E Medina Ave, Mesa, AZ 85209 ",85209,0.856482744216919,253500,https://www.zillow.com/homedetails/7413-E-Medina-Ave-Mesa-AZ-85209/8273358_zpid/,33.3715,-111.675
1314969,22606510,"3853 E Powell Way, Gilbert, AZ 85298 ",85298,0.8560966849327087,329900,https://www.zillow.com/homedetails/3853-E-Powell-Way-Gilbert-AZ-85298/59261532_zpid/,33.2367,-111.706
1216966,22613640,"1689 E Tradewind Ct, Gilbert, AZ 85234 ",85234,0.8560966849327087,309500,https://www.zillow.com/homedetails/1689-E-Tradewind-Ct-Gilbert-AZ-85234/50199908_zpid/,33.3529,-111.75399999999999
8974235,22332118,"301 E Kinderman Dr, Avondale, AZ 85323 ",85323,0.8559954166412354,90000,https://www.zillow.com/homedetails/301-E-Kinderman-Dr-Avondale-AZ-85323/8291884_zpid/,,
8973241,22502099,"5517 W Ellis Dr, Laveen, AZ 85339 ",85339,0.8556224703788757,217500,https://www.zillow.com/homedetails/5517-W-Ellis-Dr-Laveen-AZ-85339/60975680_zpid/,33.3789,-112.178
22119,22486787,"5415 W Shumway Farm Rd, Laveen, AZ 85339 ",85339,0.8556224703788757,219900,https://www.zillow.com/homedetails/5415-W-Shumway-Farm-Rd-Laveen-AZ-85339/71618232_zpid/,33.3837,-112.175
8981307,22439158,"10356 E El Moro Cir, Mesa, AZ 85208 ",85208,0.8554908633232117,260000,https://www.zillow.com/homedetails/10356-E-El-Moro-Cir-Mesa-AZ-85208/8089140_zpid/,33.398,-111.60700000000001
1025740,22489660,"1860 E Indian Wells Dr, Chandler, AZ 85249 ",85249,0.8551702499389648,168800,https://www.zillow.com/homedetails/1860-E-Indian-Wells-Dr-Chandler-AZ-85249/8216703_zpid/,33.2129,-111.809
8999943,22590172,"4904 W Wahalla Ln, Glendale, AZ 85308 ",85308,0.8550910949707031,178000,https://www.zillow.com/homedetails/4904-W-Wahalla-Ln-Glendale-AZ-85308/7938177_zpid/,33.6671,-112.165
680364,22484815,"8648 E Monte Ave, Mesa, AZ 85209 ",85209,0.8550412654876709,282000,https://www.zillow.com/homedetails/8648-E-Monte-Ave-Mesa-AZ-85209/8285822_zpid/,33.3702,-111.647
975724,22489871,"706 N Tangerine Dr, Chandler, AZ 85226 ",85226,0.854925811290741,280000,https://www.zillow.com/homedetails/706-N-Tangerine-Dr-Chandler-AZ-85226/8156618_zpid/,33.3155,-111.928
1476202,22570567,"14702 N 173rd Dr, Surprise, AZ 85388 ",85388,0.8548569083213806,284999,https://www.zillow.com/homedetails/14702-N-173rd-Dr-Surprise-AZ-85388/60996052_zpid/,33.6181,-112.43
8981499,22494994,"14705 W Carlin Dr, Surprise, AZ 85374 ",85374,0.8548282384872437,175000,https://www.zillow.com/homedetails/14705-W-Carlin-Dr-Surprise-AZ-85374/8123084_zpid/,33.6509,-112.37799999999999
987907,22423450,"1303 E Ebony Dr, Chandler, AZ 85286 ",85286,0.854775607585907,329900,https://www.zillow.com/homedetails/1303-E-Ebony-Dr-Chandler-AZ-85286/60049622_zpid/,,
48968,22623623,"16636 S 43rd Pl, Phoenix, AZ 85048 ",85048,0.8545861840248108,279900,https://www.zillow.com/homedetails/16636-S-43rd-Pl-Phoenix-AZ-85048/50199068_zpid/,33.2949,-111.99
999066,22489709,"2251 S Navajo Way, Chandler, AZ 85286 ",85286,0.8545817136764526,240000,https://www.zillow.com/homedetails/2251-S-Navajo-Way-Chandler-AZ-85286/8227249_zpid/,33.2728,-111.865
8983779,22455531,"13116 W Fairmont Ave, Litchfield Park, AZ 85340 ",85340,0.8545683026313782,220000,https://www.zillow.com/homedetails/13116-W-Fairmont-Ave-Litchfield-Park-AZ-85340/62740080_zpid/,33.4893,-112.34200000000001
1480335,22434040,"15814 N 168th Ln, Surprise, AZ 85388 ",85388,0.8545013070106506,260000,https://www.zillow.com/homedetails/15814-N-168th-Ln-Surprise-AZ-85388/55283944_zpid/,33.6279,-112.421
8946587,22511055,"9859 W Harmony Ln, Peoria, AZ 85382 ",85382,0.8544281125068665,265000,https://www.zillow.com/homedetails/9859-W-Harmony-Ln-Peoria-AZ-85382/82777489_zpid/,33.6754,-112.272
8981180,22438421,"13249 W Ironwood St, Surprise, AZ 85374 ",85374,0.8542355298995972,242900,https://www.zillow.com/homedetails/13249-W-Ironwood-St-Surprise-AZ-85374/8294299_zpid/,33.6278,-112.346
195131,22439581,"3114 W Lynne Ln, Phoenix, AZ 85041 ",85041,0.8541436791419983,274900,https://www.zillow.com/homedetails/3114-W-Lynne-Ln-Phoenix-AZ-85041/67789623_zpid/,33.3909,-112.126
7373296,22610733,"21178 W Coronado Rd, Buckeye, AZ 85396 ",85396,0.8541096448898315,255000,https://www.zillow.com/homedetails/21178-W-Coronado-Rd-Buckeye-AZ-85396/119222152_zpid/,33.4665,-112.515
8980506,22433505,"872 S Pheasant Dr, Gilbert, AZ 85296 ",85296,0.8540963530540466,269900,https://www.zillow.com/homedetails/872-S-Pheasant-Dr-Gilbert-AZ-85296/2093330018_zpid/,33.3347,-111.70100000000001
44586,22664257,"1461 E South Fork Dr, Phoenix, AZ 85048 ",85048,0.8540211319923401,275588,https://www.zillow.com/homedetails/1461-E-South-Fork-Dr-Phoenix-AZ-85048/8135576_zpid/,33.3053,-112.05
1483569,22495063,"16435 N 163rd Dr, Surprise, AZ 85388 ",85388,0.8539119362831116,242500,https://www.zillow.com/homedetails/16435-N-163rd-Dr-Surprise-AZ-85388/55290152_zpid/,33.6339,-112.41
279453,22582340,"33710 N 23rd Dr, Phoenix, AZ 85085 ",85085,0.853884756565094,365000,https://www.zillow.com/homedetails/33710-N-23rd-Dr-Phoenix-AZ-85085/71606976_zpid/,33.79,-112.11
1304966,22443230,"1333 E Walnut Rd, Gilbert, AZ 85298 ",85298,0.8535533547401428,329900,https://www.zillow.com/homedetails/1333-E-Walnut-Rd-Gilbert-AZ-85298/67793326_zpid/,33.2604,-111.76100000000001
8988968,22501752,"7741 E Billings St, Mesa, AZ 85207 ",85207,0.853550374507904,279000,https://www.zillow.com/homedetails/7741-E-Billings-St-Mesa-AZ-85207/2105058574_zpid/,33.4207,-111.664
1033628,22662513,"3033 E Buena Vista Dr, Chandler, AZ 85249 ",85249,0.8534209132194519,349000,https://www.zillow.com/homedetails/3033-E-Buena-Vista-Dr-Chandler-AZ-85249/59262110_zpid/,33.2112,-111.788
1316604,22613782,"4245 E Cassia Ln, Gilbert, AZ 85298 ",85298,0.8534209132194519,361900,https://www.zillow.com/homedetails/4245-E-Cassia-Ln-Gilbert-AZ-85298/25776576_zpid/,33.2604,-111.699
202097,22527151,"7510 S 15th Dr, Phoenix, AZ 85041 ",85041,0.8532043695449829,219000,https://www.zillow.com/homedetails/7510-S-15th-Dr-Phoenix-AZ-85041/81991485_zpid/,33.3784,-112.09100000000001
1024381,22499262,"1666 E Lindrick Dr, Chandler, AZ 85249 ",85249,0.8531134128570557,188999,https://www.zillow.com/homedetails/1666-E-Lindrick-Dr-Chandler-AZ-85249/8224954_zpid/,33.2058,-111.811
1306944,22555372,"2205 E Flintlock Dr, Gilbert, AZ 85298 ",85298,0.8529720902442932,393990,https://www.zillow.com/homedetails/2205-E-Flintlock-Dr-Gilbert-AZ-85298/95157043_zpid/,33.209,-111.742
659275,22590627,"3227 S Opal Cir, Mesa, AZ 85212 ",85212,0.8529720306396484,324900,https://www.zillow.com/homedetails/3227-S-Opal-Cir-Mesa-AZ-85212/52434748_zpid/,33.3566,-111.59
8987834,22610294,"245 N 76th Pl, Mesa, AZ 85207 ",85207,0.8528613448143005,186000,https://www.zillow.com/homedetails/245-N-76th-Pl-Mesa-AZ-85207/60962394_zpid/,33.4201,-111.666
1272620,22499037,"4266 E Carla Vista Dr, Gilbert, AZ 85295 ",85295,0.8527560234069824,223500,https://www.zillow.com/homedetails/4266-E-Carla-Vista-Dr-Gilbert-AZ-85295/82240207_zpid/,33.3119,-111.698
67442,22502372,"2902 E Baars Ct, Gilbert, AZ 85297 ",85297,0.8527493476867676,384900,https://www.zillow.com/homedetails/2902-E-Baars-Ct-Gilbert-AZ-85297/81955057_zpid/,33.2803,-111.727
1324840,22543377,"7046 S Banning St, Gilbert, AZ 85298 ",85298,0.8527493476867676,374000,https://www.zillow.com/homedetails/7046-S-Banning-St-Gilbert-AZ-85298/62734214_zpid/,33.222,-111.723
662338,22610348,"5041 S Chamberlin, Mesa, AZ 85212 ",85212,0.8526817560195923,300000,https://www.zillow.com/homedetails/5041-S-Chamberlin-Mesa-AZ-85212/92344899_zpid/,33.3235,-111.59299999999999
1053638,22558675,"961 E Taurus Pl, Chandler, AZ 85249 ",85249,0.8526409864425659,340000,https://www.zillow.com/homedetails/961-E-Taurus-Pl-Chandler-AZ-85249/55720320_zpid/,33.2253,-111.825
8982948,22489604,"10442 E Flintlock Dr, Sun Lakes, AZ 85248 ",85248,0.8526046872138977,279900,https://www.zillow.com/homedetails/10442-E-Flintlock-Dr-Sun-Lakes-AZ-85248/8217080_zpid/,,
308820,22586442,"41022 N Hudson Trl, Anthem, AZ 85086 ",85086,0.8525987267494202,379900,https://www.zillow.com/homedetails/41022-N-Hudson-Trl-Anthem-AZ-85086/59269222_zpid/,33.857,-112.14200000000001
7565178,22515730,"4628 E Goldfinch Gate Ln, Phoenix, AZ 85044 ",85044,0.8523390889167786,334000,https://www.zillow.com/homedetails/4628-E-Goldfinch-Gate-Ln-Phoenix-AZ-85044/8256382_zpid/,33.3249,-111.984
8985290,22700684,"72 W Aster Dr, Chandler, AZ 85248 ",85248,0.8522098064422607,310000,https://www.zillow.com/homedetails/72-W-Aster-Dr-Chandler-AZ-85248/92349507_zpid/,33.2564,-111.84299999999999
663387,22419450,"2561 S Warren, Mesa, AZ 85209 ",85209,0.8520687818527222,354900,https://www.zillow.com/homedetails/2561-S-Warren-Mesa-AZ-85209/50201414_zpid/,33.3665,-111.63
1271750,22656231,"4136 E Milky Way, Gilbert, AZ 85295 ",85295,0.8520190119743347,259000,https://www.zillow.com/homedetails/4136-E-Milky-Way-Gilbert-AZ-85295/89026499_zpid/,33.3139,-111.70100000000001
186242,22610142,"16848 S 11th Way, Phoenix, AZ 85048 ",85048,0.8520011305809021,399000,https://www.zillow.com/homedetails/16848-S-11th-Way-Phoenix-AZ-85048/8135386_zpid/,33.2934,-112.06
1039920,22604648,"4264 S Roger Way, Chandler, AZ 85249 ",85249,0.8520011305809021,395000,https://www.zillow.com/homedetails/4264-S-Roger-Way-Chandler-AZ-85249/59262796_zpid/,33.2443,-111.796
1490709,22423757,"17181 W Statler St, Surprise, AZ 85388 ",85388,0.8519076704978943,259000,https://www.zillow.com/homedetails/17181-W-Statler-St-Surprise-AZ-85388/67768235_zpid/,33.6324,-112.429
8991277,22519268,"6813 W Evergreen Ter, Peoria, AZ 85383 ",85383,0.8515596985816956,319900,https://www.zillow.com/homedetails/6813-W-Evergreen-Ter-Peoria-AZ-85383/82819961_zpid/,33.7487,-112.206
660495,22591018,"2339 S Ananea, Mesa, AZ 85209 ",85209,0.8513888120651245,261999,https://www.zillow.com/homedetails/2339-S-Ananea-Mesa-AZ-85209/8273243_zpid/,33.3724,-111.671
1151569,22554039,"12734 W Dreyfus Dr, El Mirage, AZ 85335 ",85335,0.851292073726654,189900,https://www.zillow.com/homedetails/12734-W-Dreyfus-Dr-El-Mirage-AZ-85335/58628308_zpid/,33.6022,-112.334
636111,22522401,"1871 W Keating Ave, Mesa, AZ 85202 ",85202,0.8512060046195984,260000,https://www.zillow.com/homedetails/1871-W-Keating-Ave-Mesa-AZ-85202/8251982_zpid/,33.3673,-111.875
5012,22489638,"1435 E Riviera Dr, Chandler, AZ 85249 ",85249,0.851205050945282,209900,https://www.zillow.com/homedetails/1435-E-Riviera-Dr-Chandler-AZ-85249/8227876_zpid/,33.2121,-111.816
8991795,22522374,"1351 N Jackson St, Chandler, AZ 85225 ",85225,0.8512033224105835,287000,https://www.zillow.com/homedetails/1351-N-Jackson-St-Chandler-AZ-85225/8182435_zpid/,33.3267,-111.829
966325,22561326,"4827 W Mercury Way, Chandler, AZ 85226 ",85226,0.8510534167289734,260000,https://www.zillow.com/homedetails/4827-W-Mercury-Way-Chandler-AZ-85226/8166757_zpid/,,
991706,22583567,"1582 W Flintlock Way, Chandler, AZ 85286 ",85286,0.8509764075279236,355000,https://www.zillow.com/homedetails/1582-W-Flintlock-Way-Chandler-AZ-85286/8208874_zpid/,33.2887,-111.868
1259063,22606043,"2225 S Ponderosa Dr, Gilbert, AZ 85295 ",85295,0.8509301543235779,255000,https://www.zillow.com/homedetails/2225-S-Ponderosa-Dr-Gilbert-AZ-85295/95117044_zpid/,33.3103,-111.713
1126477,22489731,"280 N Bullmoose Dr, Chandler, AZ 85224 ",85224,0.850920557975769,360000,https://www.zillow.com/homedetails/280-N-Bullmoose-Dr-Chandler-AZ-85224/8185225_zpid/,,
335242,22597369,"6803 N 19th Dr, Phoenix, AZ 85015 ",85015,0.8508718609809875,184900,https://www.zillow.com/homedetails/6803-N-19th-Dr-Phoenix-AZ-85015/7773475_zpid/,33.5368,-112.1
1190809,22671391,"558 N Jackson St, Gilbert, AZ 85233 ",85233,0.8508608341217041,314900,https://www.zillow.com/homedetails/558-N-Jackson-St-Gilbert-AZ-85233/8175500_zpid/,33.3597,-111.82799999999999
352545,22429773,"7124 W Southgate Ave, Phoenix, AZ 85043 ",85043,0.8507833480834961,240000,https://www.zillow.com/homedetails/7124-W-Southgate-Ave-Phoenix-AZ-85043/95156190_zpid/,33.4115,-112.215
16797,22499252,"4952 S Marigold Way, Chandler, AZ 85248 ",85248,0.8507668375968933,359975,https://www.zillow.com/homedetails/4952-S-Marigold-Way-Chandler-AZ-85248/8213054_zpid/,33.2335,-111.865
1553607,22489801,"404 W Honeysuckle Dr, Chandler, AZ 85248 ",85248,0.8507668375968933,400000,https://www.zillow.com/homedetails/404-W-Honeysuckle-Dr-Chandler-AZ-85248/71621977_zpid/,33.2593,-111.848
1551634,22532585,"3300 S Sunland Dr, Chandler, AZ 85248 ",85248,0.8507668375968933,359000,https://www.zillow.com/homedetails/3300-S-Sunland-Dr-Chandler-AZ-85248/71622142_zpid/,33.2574,-111.845
82242,22597920,"18438 E Oak Hill Ln, Queen Creek, AZ 85142 ",85142,0.8507485389709473,350000,https://www.zillow.com/homedetails/18438-E-Oak-Hill-Ln-Queen-Creek-AZ-85142/60989298_zpid/,33.2551,-111.685
9001532,22600912,"14731 W Poinsettia Dr, Surprise, AZ 85379 ",85379,0.8506975173950195,230000,https://www.zillow.com/homedetails/14731-W-Poinsettia-Dr-Surprise-AZ-85379/67798287_zpid/,33.5908,-112.37799999999999
7427551,22542310,"29383 N 128TH Ln, Peoria, AZ 85383 ",85383,0.8504830598831177,329000,https://www.zillow.com/homedetails/29383-N-128TH-Ln-Peoria-AZ-85383/95143590_zpid/,33.7497,-112.336
8300644,22567270,"540 W Mclellan Rd, Mesa, AZ 85201 ",85201,0.8504223823547363,364000,https://www.zillow.com/homedetails/540-W-Mclellan-Rd-Mesa-AZ-85201/60977936_zpid/,33.4444,-111.84299999999999
1768,22409318,"1429 E Glenhaven Dr, Phoenix, AZ 85048 ",85048,0.850129246711731,339900,https://www.zillow.com/homedetails/1429-E-Glenhaven-Dr-Phoenix-AZ-85048/8130692_zpid/,33.2942,-112.051
8977753,22605359,"19151 W Reade Ave, Litchfield Park, AZ 85340 ",85340,0.8499329686164856,295000,https://www.zillow.com/homedetails/19151-W-Reade-Ave-Litchfield-Park-AZ-85340/95017970_zpid/,33.5095,-112.47200000000001
62320,22371831,"38913 N Red Tail Ct, Phoenix, AZ 85086 ",85086,0.8499184250831604,345000,https://www.zillow.com/homedetails/38913-N-Red-Tail-Ct-Phoenix-AZ-85086/68958872_zpid/,33.8378,-112.139
66080,22499746,"1446 E Goldcrest St, Gilbert, AZ 85297 ",85297,0.8499043583869934,339000,https://www.zillow.com/homedetails/1446-E-Goldcrest-St-Gilbert-AZ-85297/113980172_zpid/,33.273,-111.758
8953247,22586597,"13145 S 178th Ave, Goodyear, AZ 85338 ",85338,0.8499000072479248,240000,https://www.zillow.com/homedetails/13145-S-178th-Ave-Goodyear-AZ-85338/59259750_zpid/,33.3272,-112.43299999999999
8975736,22486772,"4513 W Fremont Rd, Laveen, AZ 85339 ",85339,0.8498322367668152,229000,https://www.zillow.com/homedetails/4513-W-Fremont-Rd-Laveen-AZ-85339/71605139_zpid/,33.381,-112.15700000000001
190785,22527412,"1634 W Nancy Ln, Phoenix, AZ 85041 ",85041,0.8498322367668152,260000,https://www.zillow.com/homedetails/1634-W-Nancy-Ln-Phoenix-AZ-85041/59986920_zpid/,33.3913,-112.094
194724,22508615,"2913 W Maldonado Rd, Phoenix, AZ 85041 ",85041,0.8498322367668152,264900,https://www.zillow.com/homedetails/2913-W-Maldonado-Rd-Phoenix-AZ-85041/60977266_zpid/,33.3827,-112.12200000000001
8990529,22513339,"4615 W Dunbar Dr, Laveen, AZ 85339 ",85339,0.8498322367668152,250000,https://www.zillow.com/homedetails/4615-W-Dunbar-Dr-Laveen-AZ-85339/71605121_zpid/,33.3788,-112.15799999999999
196449,22528857,"3705 W Burgess Ln, Phoenix, AZ 85041 ",85041,0.8498322367668152,219000,https://www.zillow.com/homedetails/3705-W-Burgess-Ln-Phoenix-AZ-85041/67774290_zpid/,33.3887,-112.13799999999999
8963003,22493495,"15888 W Tasha Dr, Surprise, AZ 85374 ",85374,0.8497823476791382,204900,https://www.zillow.com/homedetails/15888-W-Tasha-Dr-Surprise-AZ-85374/8302529_zpid/,33.6326,-112.40100000000001
250269,22533105,"3613 W Kathleen Rd, Phoenix, AZ 85053 ",85053,0.8497823476791382,199500,https://www.zillow.com/homedetails/3613-W-Kathleen-Rd-Phoenix-AZ-85053/60981415_zpid/,33.629,-112.13600000000001
8987682,22495056,"16275 N 159th Ave, Surprise, AZ 85374 ",85374,0.8497823476791382,200000,https://www.zillow.com/homedetails/16275-N-159th-Ave-Surprise-AZ-85374/8302578_zpid/,33.6324,-112.40100000000001
70358,22543339,"3668 S Seton Ave, Gilbert, AZ 85297 ",85297,0.8497456312179565,309900,https://www.zillow.com/homedetails/3668-S-Seton-Ave-Gilbert-AZ-85297/50198349_zpid/,33.284,-111.72
8976791,22505631,"9325 S 34th Ln, Laveen, AZ 85339 ",85339,0.8496396541595459,232564,https://www.zillow.com/homedetails/9325-S-34th-Ln-Laveen-AZ-85339/95107004_zpid/,33.3616,-112.133
7481809,22496537,"8211 W Pueblo Ave, Phoenix, AZ 85043 ",85043,0.8495550751686096,252900,https://www.zillow.com/homedetails/8211-W-Pueblo-Ave-Phoenix-AZ-85043/95166895_zpid/,33.4089,-112.236
7481812,22496540,"8227 W Pueblo Ave, Phoenix, AZ 85043 ",85043,0.8495550751686096,255900,https://www.zillow.com/homedetails/8227-W-Pueblo-Ave-Phoenix-AZ-85043/95123728_zpid/,33.4089,-112.23700000000001
700492,22484615,"2550 W Olla Cir, Mesa, AZ 85202 ",85202,0.8493177890777588,269800,https://www.zillow.com/homedetails/2550-W-Olla-Cir-Mesa-AZ-85202/8170787_zpid/,33.3633,-111.889
80556,22469254,"1642 W Loemann Dr, Queen Creek, AZ 85142 ",85142,0.8491770029067993,213000,https://www.zillow.com/homedetails/1642-W-Loemann-Dr-Queen-Creek-AZ-85142/119077506_zpid/,33.2001,-111.584
1498960,22583270,"17828 W Charter Oak Rd, Surprise, AZ 85388 ",85388,0.8488644361495972,269000,https://www.zillow.com/homedetails/17828-W-Charter-Oak-Rd-Surprise-AZ-85388/95158253_zpid/,33.5965,-112.443
8987681,22495031,"15737 W Lundberg St, Surprise, AZ 85374 ",85374,0.848770260810852,179990,https://www.zillow.com/homedetails/15737-W-Lundberg-St-Surprise-AZ-85374/8302141_zpid/,33.6365,-112.399
990354,22515434,"1455 W Remington Dr, Chandler, AZ 85286 ",85286,0.8485694527626038,387200,https://www.zillow.com/homedetails/1455-W-Remington-Dr-Chandler-AZ-85286/8226542_zpid/,33.2849,-111.867
8998261,22577769,"7622 E Barstow St, Mesa, AZ 85207 ",85207,0.8485249876976013,205000,https://www.zillow.com/homedetails/7622-E-Barstow-St-Mesa-AZ-85207/60982392_zpid/,33.4195,-111.667
1271019,22566619,"3917 E Kesler Ln, Gilbert, AZ 85295 ",85295,0.8485045433044434,248000,https://www.zillow.com/homedetails/3917-E-Kesler-Ln-Gilbert-AZ-85295/95068119_zpid/,33.2937,-111.706
1544581,22561318,"1984 W Olive Way, Chandler, AZ 85248 ",85248,0.8484342694282532,312000,https://www.zillow.com/homedetails/1984-W-Olive-Way-Chandler-AZ-85248/55274118_zpid/,33.2479,-111.875
7499673,22701313,"9033 E Nacoma Dr, Sun Lakes, AZ 85248 ",85248,0.8483989834785461,359900,https://www.zillow.com/homedetails/9033-E-Nacoma-Dr-Sun-Lakes-AZ-85248/8214112_zpid/,,
1688412,22378260,"13415 W Micheltorena Dr, Sun City West, AZ 85375 ",85375,0.8482415080070496,259000,https://www.zillow.com/homedetails/13415-W-Micheltorena-Dr-Sun-City-West-AZ-85375/62667459_zpid/,33.6906,-112.35
139007,22379921,"23024 N Giovota Dr, Sun City West, AZ 85375 ",85375,0.8482415080070496,257500,https://www.zillow.com/homedetails/23024-N-Giovota-Dr-Sun-City-West-AZ-85375/71617420_zpid/,33.6935,-112.338
1042475,22625779,"4777 E Thunderbird Dr, Chandler, AZ 85249 ",85249,0.8480797410011292,279000,https://www.zillow.com/homedetails/4777-E-Thunderbird-Dr-Chandler-AZ-85249/55444997_zpid/,33.2153,-111.76
1601878,22511339,"18159 W Sanna St, Waddell, AZ 85355 ",85355,0.8480759859085083,227000,https://www.zillow.com/homedetails/18159-W-Sanna-St-Waddell-AZ-85355/71625010_zpid/,33.5676,-112.45
68176,22489295,"3241 E Wildhorse Dr, Gilbert, AZ 85297 ",85297,0.8479852676391602,260000,https://www.zillow.com/homedetails/3241-E-Wildhorse-Dr-Gilbert-AZ-85297/8244706_zpid/,33.2883,-111.71700000000001
1095147,22527568,"831 W Monterey St, Chandler, AZ 85225 ",85225,0.8477415442466736,165900,https://www.zillow.com/homedetails/831-W-Monterey-St-Chandler-AZ-85225/8186271_zpid/,,
196514,22608645,"3713 W Pleasant Ln, Phoenix, AZ 85041 ",85041,0.8475040793418884,215000,https://www.zillow.com/homedetails/3713-W-Pleasant-Ln-Phoenix-AZ-85041/67774227_zpid/,33.3912,-112.139
1309088,22663695,"2735 E Narrowleaf Dr, Gilbert, AZ 85298 ",85298,0.84746915102005,387500,https://www.zillow.com/homedetails/2735-E-Narrowleaf-Dr-Gilbert-AZ-85298/95145444_zpid/,33.2509,-111.73100000000001
674647,22583471,"7901 E Jan Ave, Mesa, AZ 85209 ",85209,0.847446858882904,159900,https://www.zillow.com/homedetails/7901-E-Jan-Ave-Mesa-AZ-85209/8075674_zpid/,33.3827,-111.661
1189046,22566629,"474 W Fabens Ln, Gilbert, AZ 85233 ",85233,0.8474169969558716,222222,https://www.zillow.com/homedetails/474-W-Fabens-Ln-Gilbert-AZ-85233/8174598_zpid/,33.3518,-111.8
133885,22519553,"16206 N 162nd Dr, Surprise, AZ 85374 ",85374,0.8473914861679077,225000,https://www.zillow.com/homedetails/16206-N-162nd-Dr-Surprise-AZ-85374/50203608_zpid/,33.6318,-112.40799999999999
68974,22499020,"3428 E Derringer Way, Gilbert, AZ 85297 ",85297,0.8473881483078003,327300,https://www.zillow.com/homedetails/3428-E-Derringer-Way-Gilbert-AZ-85297/8244415_zpid/,33.2921,-111.71600000000001
891592,22616586,"3489 N 301st Dr, Buckeye, AZ 85396 ",85396,0.8473837971687317,284900,https://www.zillow.com/homedetails/3489-N-301st-Dr-Buckeye-AZ-85396/81993361_zpid/,33.4862,-112.699
7457779,22430962,"1320 S Palomino Creek Dr, Gilbert, AZ 85296 ",85296,0.8472556471824646,295000,https://www.zillow.com/homedetails/1320-S-Palomino-Creek-Dr-Gilbert-AZ-85296/8277744_zpid/,33.3263,-111.76100000000001
1313894,22433499,"3605 E Palmer St, Gilbert, AZ 85298 ",85298,0.8472556471824646,299900,https://www.zillow.com/homedetails/3605-E-Palmer-St-Gilbert-AZ-85298/59261508_zpid/,33.2356,-111.712
1252172,22489178,"1243 E Julian Dr, Gilbert, AZ 85295 ",85295,0.8470763564109802,230000,https://www.zillow.com/homedetails/1243-E-Julian-Dr-Gilbert-AZ-85295/67793036_zpid/,33.2935,-111.76299999999999
73291,22489365,"4120 S Sawmill Rd, Gilbert, AZ 85297 ",85297,0.8470763564109802,249900,https://www.zillow.com/homedetails/4120-S-Sawmill-Rd-Gilbert-AZ-85297/67786464_zpid/,33.2756,-111.709
1183368,22524320,"1845 S Spartan St, Gilbert, AZ 85233 ",85233,0.8470763564109802,270000,https://www.zillow.com/homedetails/1845-S-Spartan-St-Gilbert-AZ-85233/8195466_zpid/,33.3165,-111.79
1265183,22489268,"2991 E Carla Vista Ct, Gilbert, AZ 85295 ",85295,0.8470763564109802,264999,https://www.zillow.com/homedetails/2991-E-Carla-Vista-Ct-Gilbert-AZ-85295/50197198_zpid/,33.3111,-111.726
1314240,22543340,"3670 E Janelle Way, Gilbert, AZ 85298 ",85298,0.8470763564109802,265900,https://www.zillow.com/homedetails/3670-E-Janelle-Way-Gilbert-AZ-85298/59261357_zpid/,33.2348,-111.711
1037936,22682151,"4021 E Torrey Pines Ln, Chandler, AZ 85249 ",85249,0.8470763564109802,264900,https://www.zillow.com/homedetails/4021-E-Torrey-Pines-Ln-Chandler-AZ-85249/95099764_zpid/,33.2168,-111.772
8991782,22522202,"19611 W Pasadena Ave, Litchfield Park, AZ 85340 ",85340,0.8470084071159363,325000,https://www.zillow.com/homedetails/19611-W-Pasadena-Ave-Litchfield-Park-AZ-85340/67758608_zpid/,33.5092,-112.48200000000001
1006854,22502455,"3394 E Hawk Pl, Chandler, AZ 85286 ",85286,0.8469728231430054,335000,https://www.zillow.com/homedetails/3394-E-Hawk-Pl-Chandler-AZ-85286/60988783_zpid/,33.2644,-111.78200000000001
8991901,22523237,"12864 W Sheridan St, Avondale, AZ 85392 ",85392,0.8468984365463257,199000,https://www.zillow.com/homedetails/12864-W-Sheridan-St-Avondale-AZ-85392/8305583_zpid/,33.4743,-112.339
8991930,22523589,"264 N 76th Pl, Mesa, AZ 85207 ",85207,0.8468156456947327,205000,https://www.zillow.com/homedetails/264-N-76th-Pl-Mesa-AZ-85207/60982397_zpid/,33.4206,-111.666
69894,22545968,"3579 E Wyatt Way, Gilbert, AZ 85297 ",85297,0.8467624187469482,385000,https://www.zillow.com/homedetails/3579-E-Wyatt-Way-Gilbert-AZ-85297/50198293_zpid/,33.2902,-111.713
654246,22623516,"1624 S Chatsworth, Mesa, AZ 85209 ",85209,0.8464884161949158,210000,https://www.zillow.com/homedetails/1624-S-Chatsworth-Mesa-AZ-85209/81993957_zpid/,33.3849,-111.615
1046835,22700328,"6340 S Windstream Pl, Chandler, AZ 85249 ",85249,0.8463903069496155,205000,https://www.zillow.com/homedetails/6340-S-Windstream-Pl-Chandler-AZ-85249/8227996_zpid/,33.2143,-111.818
8937659,22524285,"1422 E Cindy St, Chandler, AZ 85225 ",85225,0.8463777303695679,289000,https://www.zillow.com/homedetails/1422-E-Cindy-St-Chandler-AZ-85225/8222714_zpid/,,
8979085,22421379,"3519 N Sonoran Hls, Mesa, AZ 85207 ",85207,0.8463512659072876,375000,https://www.zillow.com/homedetails/3519-N-Sonoran-Hls-Mesa-AZ-85207/71613508_zpid/,33.4795,-111.681
194326,22631555,"2621 W Mcneil St, Phoenix, AZ 85041 ",85041,0.8459295630455017,320000,https://www.zillow.com/homedetails/2621-W-Mcneil-St-Phoenix-AZ-85041/60984084_zpid/,33.3578,-112.117
120775,22615194,"11738 W Donald Dr, Sun City, AZ 85373 ",85373,0.8458557724952698,274900,https://www.zillow.com/homedetails/11738-W-Donald-Dr-Sun-City-AZ-85373/67796681_zpid/,33.6888,-112.314
8963790,22486769,"4323 W Piedmont Rd, Laveen, AZ 85339 ",85339,0.845818817615509,234500,https://www.zillow.com/homedetails/4323-W-Piedmont-Rd-Laveen-AZ-85339/61629816_zpid/,33.3591,-112.154
8989236,22503917,"10633 W Adam Ave, Peoria, AZ 85382 ",85382,0.8458102345466614,339997,https://www.zillow.com/homedetails/10633-W-Adam-Ave-Peoria-AZ-85382/55261994_zpid/,33.6782,-112.289
989717,22420377,"1413 W Pelican Ct, Chandler, AZ 85286 ",85286,0.8456690311431885,324500,https://www.zillow.com/homedetails/1413-W-Pelican-Ct-Chandler-AZ-85286/67800880_zpid/,33.2743,-111.866
615101,22517802,"5058 E Catalina Ave, Mesa, AZ 85206 ",85206,0.8455213904380798,265000,https://www.zillow.com/homedetails/5058-E-Catalina-Ave-Mesa-AZ-85206/7643638_zpid/,33.4044,-111.72200000000001
583211,22501684,"10952 E Sebring Ave, Mesa, AZ 85212 ",85212,0.8454862236976624,290000,https://www.zillow.com/homedetails/10952-E-Sebring-Ave-Mesa-AZ-85212/95172265_zpid/,33.3327,-111.59700000000001
1266856,22458994,"3262 E Milky Way, Gilbert, AZ 85295 ",85295,0.8454713821411133,248900,https://www.zillow.com/homedetails/3262-E-Milky-Way-Gilbert-AZ-85295/92351868_zpid/,33.314,-111.72
989699,22330289,"1413 E Jade Dr, Chandler, AZ 85286 ",85286,0.8453813791275024,394999,https://www.zillow.com/homedetails/1413-E-Jade-Dr-Chandler-AZ-85286/59917394_zpid/,,
1671833,22589350,"23643 N El Frio Ct, Sun City, AZ 85373 ",85373,0.8453530073165894,210000,https://www.zillow.com/homedetails/23643-N-El-Frio-Ct-Sun-City-AZ-85373/71628833_zpid/,33.6992,-112.31700000000001
531200,22608638,"5427 W Pollack St, Laveen, AZ 85339 ",85339,0.8453258275985718,218000,https://www.zillow.com/homedetails/5427-W-Pollack-St-Laveen-AZ-85339/71627986_zpid/,33.3793,-112.176
42026,22571706,"6525 W Miami St, Phoenix, AZ 85043 ",85043,0.8450329303741455,214900,https://www.zillow.com/homedetails/6525-W-Miami-St-Phoenix-AZ-85043/55257530_zpid/,33.4185,-112.20100000000001
1092280,22567792,"72 N Amber Ct, Chandler, AZ 85225 ",85225,0.8449422121047974,309900,https://www.zillow.com/homedetails/72-N-Amber-Ct-Chandler-AZ-85225/8222996_zpid/,33.3044,-111.809
8981855,22541772,"8230 W Wood Ln, Phoenix, AZ 85043 ",85043,0.8447949886322021,262900,https://www.zillow.com/homedetails/8230-W-Wood-Ln-Phoenix-AZ-85043/95090760_zpid/,33.41,-112.229
975701,22682604,"702 S Laveen Dr, Chandler, AZ 85226 ",85226,0.8446872234344482,314800,https://www.zillow.com/homedetails/702-S-Laveen-Dr-Chandler-AZ-85226/95102862_zpid/,33.2933,-111.911
2033217,22548648,"15350 W Teal Ln, Surprise, AZ 85374 ",85374,0.844664990901947,208770,https://www.zillow.com/homedetails/15350-W-Teal-Ln-Surprise-AZ-85374/8127494_zpid/,33.6412,-112.391
8959656,22610551,"11542 W Purdue Ave, Youngtown, AZ 85363 ",85363,0.8445742726325989,207000,https://www.zillow.com/homedetails/11542-W-Purdue-Ave-Youngtown-AZ-85363/62738077_zpid/,33.5729,-112.30799999999999
474928,22561905,"6730 N 28th Dr, Phoenix, AZ 85017 ",85017,0.844454824924469,178000,https://www.zillow.com/homedetails/6730-N-28th-Dr-Phoenix-AZ-85017/7759578_zpid/,33.5359,-112.12100000000001
1414927,22569173,"7413 N 67th Dr, Glendale, AZ 85303 ",85303,0.8443979620933533,219900,https://www.zillow.com/homedetails/7413-N-67th-Dr-Glendale-AZ-85303/7705033_zpid/,33.5447,-112.20299999999999
1498396,22548663,"17794 W Columbine Dr, Surprise, AZ 85388 ",85388,0.8443772792816162,359900,https://www.zillow.com/homedetails/17794-W-Columbine-Dr-Surprise-AZ-85388/82386313_zpid/,33.5982,-112.44200000000001
7445487,22491656,"11540 W Cinnabar Ave, Youngtown, AZ 85363 ",85363,0.8443199992179871,214850,https://www.zillow.com/homedetails/11540-W-Cinnabar-Ave-Youngtown-AZ-85363/67798371_zpid/,33.5744,-112.30799999999999
1035072,22698889,"3361 E Yellowstone Pl, Chandler, AZ 85249 ",85249,0.8441207408905029,360000,https://www.zillow.com/homedetails/3361-E-Yellowstone-Pl-Chandler-AZ-85249/71614414_zpid/,33.2475,-111.785
656864,22564338,"2031 S Gordon, Mesa, AZ 85209 ",85209,0.8440037965774536,205000,https://www.zillow.com/homedetails/2031-S-Gordon-Mesa-AZ-85209/52478809_zpid/,33.3783,-111.645
8963937,22672532,"1746 W Cathedral Rock Dr, Phoenix, AZ 85045 ",85045,0.8439499139785767,364000,https://www.zillow.com/homedetails/1746-W-Cathedral-Rock-Dr-Phoenix-AZ-85045/8134904_zpid/,33.3041,-112.09700000000001
610549,22435289,"10450 E Neville Ave, Mesa, AZ 85209 ",85209,0.8433852195739746,260000,https://www.zillow.com/homedetails/10450-E-Neville-Ave-Mesa-AZ-85209/124430585_zpid/,33.3673,-111.60799999999999
7537968,22539136,"22201 N 102nd Ln, Peoria, AZ 85383 ",85383,0.8432870507240295,234400,https://www.zillow.com/homedetails/22201-N-102nd-Ln-Peoria-AZ-85383/67790526_zpid/,33.6849,-112.281
8958977,22539508,"2545 E Piute Ave, Phoenix, AZ 85050 ",85050,0.8428669571876526,159000,https://www.zillow.com/homedetails/2545-E-Piute-Ave-Phoenix-AZ-85050/7994601_zpid/,33.6629,-112.027
1414788,22494078,"7405 N 67th Dr, Glendale, AZ 85303 ",85303,0.8427079916000366,174900,https://www.zillow.com/homedetails/7405-N-67th-Dr-Glendale-AZ-85303/7705035_zpid/,33.5445,-112.204
8988872,22501087,"13361 W Saguaro Ln, Surprise, AZ 85374 ",85374,0.8427079916000366,174900,https://www.zillow.com/homedetails/13361-W-Saguaro-Ln-Surprise-AZ-85374/8294088_zpid/,33.6252,-112.348
309131,22493070,"41412 N Bent Creek Way, Phoenix, AZ 85086 ",85086,0.8425816297531128,244900,https://www.zillow.com/homedetails/41412-N-Bent-Creek-Way-Phoenix-AZ-85086/71607252_zpid/,33.8604,-112.09899999999999
680574,22538141,"8705 E Nopal Ave, Mesa, AZ 85209 ",85209,0.8425199389457703,235000,https://www.zillow.com/homedetails/8705-E-Nopal-Ave-Mesa-AZ-85209/50202038_zpid/,33.3667,-111.646
1049141,22489847,"6810 S Callaway Dr, Chandler, AZ 85249 ",85249,0.8425076603889465,347400,https://www.zillow.com/homedetails/6810-S-Callaway-Dr-Chandler-AZ-85249/52478707_zpid/,33.2068,-111.819
1546016,22520378,"24031 S Sunny Side Dr, Sun Lakes, AZ 85248 ",85248,0.8425076603889465,359900,https://www.zillow.com/homedetails/24031-S-Sunny-Side-Dr-Sun-Lakes-AZ-85248/50195575_zpid/,33.2284,-111.859
