property_id,transaction_id,address,zipcode,ypred,list,url,lat,long,date_listed,transaction_date
43124,23755414,"7301 W Payson Rd, Phoenix, AZ 85043 ",85043,0.755560678243637,195000,https://www.zillow.com/homedetails/7301-W-Payson-Rd-Phoenix-AZ-85043/60975135_zpid/,33.4225,-112.21700000000001,2017-10-18,2017-10-18
1413516,22924606,"7311 N 73rd Dr, Glendale, AZ 85303 ",85303,0.7434015452861786,248700,https://www.zillow.com/homedetails/7311-N-73rd-Dr-Glendale-AZ-85303/59270763_zpid/,33.5425,-112.21600000000001,2017-10-07,2017-10-07
359488,23526402,"2409 S 90th Gln, Tolleson, AZ 85353 ",85353,0.735103315114975,204900,https://www.zillow.com/homedetails/2409-S-90th-Gln-Tolleson-AZ-85353/67772730_zpid/,33.425,-112.25399999999999,2017-10-11,2017-10-11
1859,23650472,"9128 W Alvarado St, Phoenix, AZ 85037 ",85037,0.7336810290813446,214000,https://www.zillow.com/homedetails/9128-W-Alvarado-St-Phoenix-AZ-85037/60047210_zpid/,33.4712,-112.257,2017-10-12,2017-10-12
524898,23810672,"9134 W Cypress St, Phoenix, AZ 85037 ",85037,0.7225381135940552,214900,https://www.zillow.com/homedetails/9134-W-Cypress-St-Phoenix-AZ-85037/67762994_zpid/,33.4719,-112.257,2017-10-27,2017-10-27
8958977,23756263,"2545 E Piute Ave, Phoenix, AZ 85050 ",85050,0.7215954780578613,159000,https://www.zillow.com/homedetails/2545-E-Piute-Ave-Phoenix-AZ-85050/7994601_zpid/,33.6629,-112.027,2017-10-13,2017-10-13
8987452,23806670,"13360 N 79th Ave, Peoria, AZ 85381 ",85381,0.7195305228233337,219000,https://www.zillow.com/homedetails/13360-N-79th-Ave-Peoria-AZ-85381/8100973_zpid/,33.6063,-112.229,2017-10-25,2017-10-25
359160,23759845,"15 N 86th Ln, Tolleson, AZ 85353 ",85353,0.7180361092090607,219000,https://www.zillow.com/homedetails/15-N-86th-Ln-Tolleson-AZ-85353/95078499_zpid/,33.4485,-112.24600000000001,2017-10-21,2017-10-21
40221,23817839,"2920 S 72nd Ln, Phoenix, AZ 85043 ",85043,0.7177143812179565,224900,https://www.zillow.com/homedetails/2920-S-72nd-Ln-Phoenix-AZ-85043/67788653_zpid/,33.4217,-112.21700000000001,2017-11-01,2017-11-01
424819,23757935,"9632 N 53rd Ave, Glendale, AZ 85302 ",85302,0.7173075973987579,195000,https://www.zillow.com/homedetails/9632-N-53rd-Ave-Glendale-AZ-85302/7734288_zpid/,33.5739,-112.17399999999999,2017-10-20,2017-10-20
501566,23807411,"7828 W Bonitos Dr, Phoenix, AZ 85035 ",85035,0.7136515736579895,162999,https://www.zillow.com/homedetails/7828-W-Bonitos-Dr-Phoenix-AZ-85035/82823203_zpid/,33.4717,-112.228,2017-10-19,2017-10-19
1090459,23810641,"631 W Caroline Ln, Chandler, AZ 85225 ",85225,0.7118501842021943,230000,https://www.zillow.com/homedetails/631-W-Caroline-Ln-Chandler-AZ-85225/8183658_zpid/,33.3304,-111.851,2017-10-27,2017-10-27
422412,23760087,"6622 W Golden Ln, Glendale, AZ 85302 ",85302,0.7098672330379486,190000,https://www.zillow.com/homedetails/6622-W-Golden-Ln-Glendale-AZ-85302/50187805_zpid/,33.5652,-112.20200000000001,2017-10-20,2017-10-20
421276,23815020,"6266 W Cochise Dr, Glendale, AZ 85302 ",85302,0.7070069074630737,232000,https://www.zillow.com/homedetails/6266-W-Cochise-Dr-Glendale-AZ-85302/7703780_zpid/,33.5806,-112.193,2017-10-30,2017-10-30
409540,23803892,"4430 W Poinsettia Dr, Glendale, AZ 85304 ",85304,0.7062232196331024,214900,https://www.zillow.com/homedetails/4430-W-Poinsettia-Dr-Glendale-AZ-85304/7727257_zpid/,33.5933,-112.154,2017-10-24,2017-10-24
397538,23810931,"4046 W Cactus Rd, Phoenix, AZ 85029 ",85029,0.7053186237812042,225000,https://www.zillow.com/homedetails/4046-W-Cactus-Rd-Phoenix-AZ-85029/7742480_zpid/,33.5968,-112.146,2017-10-27,2017-10-27
9022216,23813716,"8333 W Watkins St, Tolleson, AZ 85353 ",85353,0.7038623690605164,194900,https://www.zillow.com/homedetails/8333-W-Watkins-St-Tolleson-AZ-85353/54886336_zpid/,33.4265,-112.24,2017-10-28,2017-10-28
448390,23828570,"8403 W Lewis Ave, Phoenix, AZ 85037 ",85037,0.7032122731208801,160000,https://www.zillow.com/homedetails/8403-W-Lewis-Ave-Phoenix-AZ-85037/81985441_zpid/,33.4738,-112.24,2017-10-19,2017-10-19
401493,23754956,"11221 N 58th Ave, Glendale, AZ 85304 ",85304,0.7031953692436218,209000,https://www.zillow.com/homedetails/11221-N-58th-Ave-Glendale-AZ-85304/7736227_zpid/,33.588,-112.184,2017-10-17,2017-10-17
8945113,23759637,"7920 W Sweetwater Ave, Peoria, AZ 85381 ",85381,0.7029823899269104,229900,https://www.zillow.com/homedetails/7920-W-Sweetwater-Ave-Peoria-AZ-85381/8100881_zpid/,33.6029,-112.23,2017-10-19,2017-10-19
527753,23797429,"9509 W Elm St, Phoenix, AZ 85037 ",85037,0.7028771996498108,205000,https://www.zillow.com/homedetails/9509-W-Elm-St-Phoenix-AZ-85037/55256235_zpid/,33.5056,-112.265,2017-10-24,2017-10-24
8969477,23756066,"9324 W Mountain View Rd, Peoria, AZ 85345 ",85345,0.7024426877498626,214000,https://www.zillow.com/homedetails/9324-W-Mountain-View-Rd-Peoria-AZ-85345/7697441_zpid/,33.5733,-112.26100000000001,2017-10-18,2017-10-18
522482,23828673,"9013 W Virginia Ave, Phoenix, AZ 85037 ",85037,0.7023271024227142,174900,https://www.zillow.com/homedetails/9013-W-Virginia-Ave-Phoenix-AZ-85037/7473884_zpid/,33.4743,-112.25399999999999,2017-10-26,2017-10-26
352598,23759699,"7130 W Whyman Ave, Phoenix, AZ 85043 ",85043,0.7002949953079224,184900,https://www.zillow.com/homedetails/7130-W-Whyman-Ave-Phoenix-AZ-85043/50186003_zpid/,33.428000000000004,-112.214,2017-10-21,2017-10-21
43395,23752723,"7911 W Hilton Ave, Phoenix, AZ 85043 ",85043,0.7001398622989654,232000,https://www.zillow.com/homedetails/7911-W-Hilton-Ave-Phoenix-AZ-85043/50893343_zpid/,33.4289,-112.23,2017-10-15,2017-10-15
501356,23828460,"7762 W Pipestone Pl, Phoenix, AZ 85035 ",85035,0.6995486915111542,185000,https://www.zillow.com/homedetails/7762-W-Pipestone-Pl-Phoenix-AZ-85035/95118267_zpid/,33.4726,-112.226,2017-10-25,2017-10-25
412062,23570538,"5339 W Cholla St, Glendale, AZ 85304 ",85304,0.6994613349437714,209000,https://www.zillow.com/homedetails/5339-W-Cholla-St-Glendale-AZ-85304/7736846_zpid/,33.5891,-112.175,2017-10-12,2017-10-12
520341,22734448,"8921 W Edgemont Ave, Phoenix, AZ 85037 ",85037,0.698100334405899,199000,https://www.zillow.com/homedetails/8921-W-Edgemont-Ave-Phoenix-AZ-85037/7487901_zpid/,33.4783,-112.25200000000001,2017-10-02,2017-10-02
361380,23818137,"8601 W Flavia Hvn, Tolleson, AZ 85353 ",85353,0.6979951560497284,245000,https://www.zillow.com/homedetails/8601-W-Flavia-Hvn-Tolleson-AZ-85353/59271170_zpid/,33.4241,-112.245,2017-11-02,2017-11-02
380868,23801450,"12018 N 42nd Dr, Phoenix, AZ 85029 ",85029,0.6975546777248383,189000,https://www.zillow.com/homedetails/12018-N-42nd-Dr-Phoenix-AZ-85029/7744164_zpid/,33.595,-112.15100000000001,2017-10-21,2017-10-21
1867405,23806135,"7571 W Comet Ave, Peoria, AZ 85345 ",85345,0.6973163962364197,212000,https://www.zillow.com/homedetails/7571-W-Comet-Ave-Peoria-AZ-85345/7682477_zpid/,33.5791,-112.22200000000001,2017-10-25,2017-10-25
1118311,23754280,"2019 W Western Dr, Chandler, AZ 85224 ",85224,0.6969469964504242,236500,https://www.zillow.com/homedetails/2019-W-Western-Dr-Chandler-AZ-85224/8197093_zpid/,33.3558,-111.87899999999999,2017-10-12,2017-10-12
450692,23753402,"8742 W Edgemont Ave, Phoenix, AZ 85037 ",85037,0.6960913836956024,190000,https://www.zillow.com/homedetails/8742-W-Edgemont-Ave-Phoenix-AZ-85037/7473770_zpid/,33.4794,-112.249,2017-10-12,2017-10-12
240420,23756210,"3114 W Lisbon Ln, Phoenix, AZ 85053 ",85053,0.6959676444530487,209999,https://www.zillow.com/homedetails/3114-W-Lisbon-Ln-Phoenix-AZ-85053/7953236_zpid/,33.6198,-112.125,2017-10-18,2017-10-18
9021565,23760091,"6974 W Juniper Ave, Peoria, AZ 85382 ",85382,0.695530354976654,219900,https://www.zillow.com/homedetails/6974-W-Juniper-Ave-Peoria-AZ-85382/7903019_zpid/,33.6365,-112.21,2017-10-21,2017-10-21
345142,23753531,"1739 E Bluefield Ave, Phoenix, AZ 85022 ",85022,0.6952917575836182,224900,https://www.zillow.com/homedetails/1739-E-Bluefield-Ave-Phoenix-AZ-85022/8001407_zpid/,33.6526,-112.044,2017-10-16,2017-10-16
527735,23828743,"9507 W Monte Vista Rd, Phoenix, AZ 85037 ",85037,0.6948924660682678,214900,https://www.zillow.com/homedetails/9507-W-Monte-Vista-Rd-Phoenix-AZ-85037/60974973_zpid/,33.4697,-112.265,2017-10-24,2017-10-24
445578,23821358,"4653 N 99th Dr, Phoenix, AZ 85037 ",85037,0.694343090057373,210000,https://www.zillow.com/homedetails/4653-N-99th-Dr-Phoenix-AZ-85037/7484444_zpid/,33.5037,-112.273,2017-10-25,2017-10-25
359302,23814410,"2021 S 83rd Dr, Tolleson, AZ 85353 ",85353,0.6942553699016571,197900,https://www.zillow.com/homedetails/2021-S-83rd-Dr-Tolleson-AZ-85353/59271300_zpid/,33.4288,-112.23899999999999,2017-10-29,2017-10-29
1466628,23756048,"17464 N 92nd Gln, Peoria, AZ 85382 ",85382,0.6939132869243622,249900,https://www.zillow.com/homedetails/17464-N-92nd-Gln-Peoria-AZ-85382/95078061_zpid/,33.6427,-112.258,2017-10-18,2017-10-18
8959592,22744660,"8143 W Windrose Dr, Peoria, AZ 85381 ",85381,0.6938855111598968,237500,https://www.zillow.com/homedetails/8143-W-Windrose-Dr-Peoria-AZ-85381/8101003_zpid/,33.6006,-112.235,2017-10-07,2017-10-07
422815,22722094,"8324 N 56th Ln, Glendale, AZ 85302 ",85302,0.693514633178711,215000,https://www.zillow.com/homedetails/8324-N-56th-Ln-Glendale-AZ-85302/7732897_zpid/,33.5576,-112.181,2017-09-26,2017-09-26
527019,22747540,"9424 W Pierson St, Phoenix, AZ 85037 ",85037,0.6934219717979431,212000,https://www.zillow.com/homedetails/9424-W-Pierson-St-Phoenix-AZ-85037/52423672_zpid/,33.5071,-112.26299999999999,2017-10-10,2017-10-10
449589,23828600,"8551 W Sheridan St, Phoenix, AZ 85037 ",85037,0.6901467978954315,220000,https://www.zillow.com/homedetails/8551-W-Sheridan-St-Phoenix-AZ-85037/7487376_zpid/,33.4745,-112.245,2017-10-23,2017-10-23
345778,23810944,"17441 N 20th St, Phoenix, AZ 85022 ",85022,0.6896028339862823,235000,https://www.zillow.com/homedetails/17441-N-20th-St-Phoenix-AZ-85022/8000666_zpid/,33.6457,-112.039,2017-10-27,2017-10-27
1347860,22924091,"5172 W Morten Ave, Glendale, AZ 85301 ",85301,0.6892294585704803,239000,https://www.zillow.com/homedetails/5172-W-Morten-Ave-Glendale-AZ-85301/52425448_zpid/,33.5473,-112.17,2017-10-10,2017-10-10
1413178,23818822,"7273 W Glenn Dr, Glendale, AZ 85303 ",85303,0.6890711903572082,209900,https://www.zillow.com/homedetails/7273-W-Glenn-Dr-Glendale-AZ-85303/95091643_zpid/,33.5393,-112.215,2017-11-02,2017-11-02
9012332,23806934,"2231 E Claire Dr, Phoenix, AZ 85022 ",85022,0.6888806641101837,217500,https://www.zillow.com/homedetails/2231-E-Claire-Dr-Phoenix-AZ-85022/8014060_zpid/,33.6202,-112.03399999999999,2017-10-25,2017-10-25
402515,23808878,"15205 N 51st Dr, Glendale, AZ 85306 ",85306,0.6884946167469025,189900,https://www.zillow.com/homedetails/15205-N-51st-Dr-Glendale-AZ-85306/7910980_zpid/,33.6226,-112.169,2017-10-26,2017-10-26
527842,23828736,"9515 W Monte Vista Rd, Phoenix, AZ 85037 ",85037,0.6881801128387451,228000,https://www.zillow.com/homedetails/9515-W-Monte-Vista-Rd-Phoenix-AZ-85037/60974977_zpid/,33.4699,-112.265,2017-10-26,2017-10-26
434848,23811348,"2008 N 89th Dr, Phoenix, AZ 85037 ",85037,0.6870385885238648,170000,https://www.zillow.com/homedetails/2008-N-89th-Dr-Phoenix-AZ-85037/7486878_zpid/,33.469,-112.25200000000001,2017-10-27,2017-10-27
629600,23810385,"1646 W Pecos Ave, Mesa, AZ 85202 ",85202,0.6860626995563507,214900,https://www.zillow.com/homedetails/1646-W-Pecos-Ave-Mesa-AZ-85202/8191480_zpid/,33.3602,-111.87,2017-10-27,2017-10-27
9021871,23807926,"12120 N 89th Dr, Peoria, AZ 85345 ",85345,0.6855791687965394,249900,https://www.zillow.com/homedetails/12120-N-89th-Dr-Peoria-AZ-85345/7685583_zpid/,33.5947,-112.25200000000001,2017-10-25,2017-10-25
9012587,22734105,"4946 W Charleston Ave, Glendale, AZ 85308 ",85308,0.6834151864051818,245000,https://www.zillow.com/homedetails/4946-W-Charleston-Ave-Glendale-AZ-85308/7949618_zpid/,33.6487,-112.167,2017-10-02,2017-10-02
1112291,23816172,"1411 W El Alba Way, Chandler, AZ 85224 ",85224,0.682952082157135,239000,https://www.zillow.com/homedetails/1411-W-El-Alba-Way-Chandler-AZ-85224/8176088_zpid/,33.3384,-111.866,2017-10-31,2017-10-31
629569,23810381,"1645 W Peralta Ave, Mesa, AZ 85202 ",85202,0.6814645230770111,229900,https://www.zillow.com/homedetails/1645-W-Peralta-Ave-Mesa-AZ-85202/8191627_zpid/,33.3572,-111.87,2017-10-27,2017-10-27
1414969,23527039,"7414 W Tuckey Ln, Glendale, AZ 85303 ",85303,0.6814383924007416,204900,https://www.zillow.com/homedetails/7414-W-Tuckey-Ln-Glendale-AZ-85303/7706691_zpid/,33.533,-112.219,2017-10-11,2017-10-11
349893,23809734,"18437 N 8th Pl, Phoenix, AZ 85022 ",85022,0.680005568265915,215000,https://www.zillow.com/homedetails/18437-N-8th-Pl-Phoenix-AZ-85022/8002699_zpid/,33.6545,-112.061,2017-10-27,2017-10-27
409171,23815122,"6610 W Caribbean Ln, Glendale, AZ 85306 ",85306,0.6789819419384002,210000,https://www.zillow.com/homedetails/6610-W-Caribbean-Ln-Glendale-AZ-85306/8100447_zpid/,33.6248,-112.199,2017-10-30,2017-10-30
9011928,23753384,"7411 W Wolf St, Phoenix, AZ 85033 ",85033,0.6788522303104401,229900,https://www.zillow.com/homedetails/7411-W-Wolf-St-Phoenix-AZ-85033/95184996_zpid/,33.5059,-112.219,2017-10-12,2017-10-12
247335,23797270,"2232 W Sequoia Dr, Phoenix, AZ 85027 ",85027,0.678494793176651,229995,https://www.zillow.com/homedetails/2232-W-Sequoia-Dr-Phoenix-AZ-85027/7970402_zpid/,33.663000000000004,-112.10799999999999,2017-10-24,2017-10-24
1373662,23816562,"8771 W Ocotillo Rd, Glendale, AZ 85305 ",85305,0.6782470345497131,205000,https://www.zillow.com/homedetails/8771-W-Ocotillo-Rd-Glendale-AZ-85305/7461673_zpid/,33.5332,-112.25,2017-10-31,2017-10-31
354125,22802972,"2231 E Everett Dr, Phoenix, AZ 85022 ",85022,0.6769938290119171,206900,https://www.zillow.com/homedetails/2231-E-Everett-Dr-Phoenix-AZ-85022/8014080_zpid/,33.6195,-112.03399999999999,2017-10-10,2017-10-10
352186,23759913,"2024 E Danbury Rd, Phoenix, AZ 85022 ",85022,0.6769430041313171,242000,https://www.zillow.com/homedetails/2024-E-Danbury-Rd-Phoenix-AZ-85022/8000757_zpid/,33.6429,-112.039,2017-10-21,2017-10-21
9021812,23806145,"8837 W Brown St, Peoria, AZ 85345 ",85345,0.6765842080116272,194000,https://www.zillow.com/homedetails/8837-W-Brown-St-Peoria-AZ-85345/7684187_zpid/,33.5763,-112.25,2017-10-25,2017-10-25
417704,23817192,"4843 W Mountain View Rd, Glendale, AZ 85302 ",85302,0.6762965559959412,199900,https://www.zillow.com/homedetails/4843-W-Mountain-View-Rd-Glendale-AZ-85302/7730118_zpid/,33.5747,-112.164,2017-11-01,2017-11-01
9006564,23814082,"16612 N 28th Way, Phoenix, AZ 85032 ",85032,0.6761116147041321,194900,https://www.zillow.com/homedetails/16612-N-28th-Way-Phoenix-AZ-85032/8005824_zpid/,33.6376,-112.021,2017-10-29,2017-10-29
8967033,23805180,"9409 S Calle Maravilla, Guadalupe, AZ 85283 ",85283,0.6749727845191955,119997,https://www.zillow.com/homedetails/9409-S-Calle-Maravilla-Guadalupe-AZ-85283/8143091_zpid/,33.3614,-111.96600000000001,2017-10-20,2017-10-20
9018492,23649027,"8938 W Vogel Ave, Peoria, AZ 85345 ",85345,0.6747466444969177,195000,https://www.zillow.com/homedetails/8938-W-Vogel-Ave-Peoria-AZ-85345/7696649_zpid/,33.5716,-112.25200000000001,2017-10-13,2017-10-13
484005,23821708,"2696 N 73rd Gln, Phoenix, AZ 85035 ",85035,0.6746927559375763,210000,https://www.zillow.com/homedetails/2696-N-73rd-Gln-Phoenix-AZ-85035/95155175_zpid/,33.4779,-112.21799999999999,2017-10-31,2017-10-31
1406067,23813622,"6732 N 79th Ave, Glendale, AZ 85303 ",85303,0.6739558339118957,215000,https://www.zillow.com/homedetails/6732-N-79th-Ave-Glendale-AZ-85303/7462444_zpid/,33.5339,-112.229,2017-10-28,2017-10-28
9020269,23829609,"18028 N 19th St, Phoenix, AZ 85022 ",85022,0.6739515006542206,144990,https://www.zillow.com/homedetails/18028-N-19th-St-Phoenix-AZ-85022/8001127_zpid/,33.6505,-112.042,2017-11-09,2017-11-09
8989019,22747254,"2049 N 77th Gln, Phoenix, AZ 85035 ",85035,0.6737254440784455,168250,https://www.zillow.com/homedetails/2049-N-77th-Gln-Phoenix-AZ-85035/95149994_zpid/,33.4706,-112.226,2017-10-05,2017-10-05
9021166,23755396,"7624 W Comet Ave, Peoria, AZ 85345 ",85345,0.6735776782035827,214900,https://www.zillow.com/homedetails/7624-W-Comet-Ave-Peoria-AZ-85345/7682505_zpid/,33.5791,-112.223,2017-10-17,2017-10-17
392666,23759961,"4208 W El Camino Dr, Phoenix, AZ 85051 ",85051,0.6729857921600342,215000,https://www.zillow.com/homedetails/4208-W-El-Camino-Dr-Phoenix-AZ-85051/7752812_zpid/,33.5573,-112.15,2017-10-21,2017-10-21
447418,23839812,"8311 W Coolidge St, Phoenix, AZ 85037 ",85037,0.672147125005722,193900,https://www.zillow.com/homedetails/8311-W-Coolidge-St-Phoenix-AZ-85037/7480994_zpid/,33.5048,-112.238,2017-10-30,2017-10-30
415049,23811004,"10006 N 66th Ave, Glendale, AZ 85302 ",85302,0.6719480693340302,199900,https://www.zillow.com/homedetails/10006-N-66th-Ave-Glendale-AZ-85302/7706542_zpid/,33.5765,-112.20100000000001,2017-10-27,2017-10-27
9018003,23819878,"1842 W Alamo Dr, Chandler, AZ 85224 ",85224,0.6691435039043426,244500,https://www.zillow.com/homedetails/1842-W-Alamo-Dr-Chandler-AZ-85224/8199834_zpid/,33.3482,-111.875,2017-11-03,2017-11-03
398347,23819805,"4148 W Bloomfield Rd, Phoenix, AZ 85029 ",85029,0.6688338041305542,228900,https://www.zillow.com/homedetails/4148-W-Bloomfield-Rd-Phoenix-AZ-85029/7742599_zpid/,33.5988,-112.149,2017-11-03,2017-11-03
484854,23817893,"2833 N 73rd Dr, Phoenix, AZ 85035 ",85035,0.6685036003589631,190000,https://www.zillow.com/homedetails/2833-N-73rd-Dr-Phoenix-AZ-85035/92692586_zpid/,33.4796,-112.21600000000001,2017-11-01,2017-11-01
420568,22722083,"5807 W Puget Ave, Glendale, AZ 85302 ",85302,0.6677973449230195,200000,https://www.zillow.com/homedetails/5807-W-Puget-Ave-Glendale-AZ-85302/7733279_zpid/,33.5668,-112.185,2017-09-25,2017-09-25
422454,22731449,"6652 W Delmonico Ln, Glendale, AZ 85302 ",85302,0.6674523293972016,235000,https://www.zillow.com/homedetails/6652-W-Delmonico-Ln-Glendale-AZ-85302/50187742_zpid/,33.5645,-112.20200000000001,2017-09-29,2017-09-29
642352,23818179,"2143 W Plata Ave, Mesa, AZ 85202 ",85202,0.6673313260078431,248900,https://www.zillow.com/homedetails/2143-W-Plata-Ave-Mesa-AZ-85202/8171521_zpid/,33.3607,-111.88,2017-11-02,2017-11-02
9004987,23813468,"11048 N 16th Ave, Phoenix, AZ 85029 ",85029,0.6671333193778992,209900,https://www.zillow.com/homedetails/11048-N-16th-Ave-Phoenix-AZ-85029/7784826_zpid/,33.5871,-112.09299999999999,2017-10-26,2017-10-26
9019581,23796917,"18428 N 55th Dr, Glendale, AZ 85308 ",85308,0.6661274850368499,199995,https://www.zillow.com/homedetails/18428-N-55th-Dr-Glendale-AZ-85308/7901123_zpid/,33.6531,-112.178,2017-10-23,2017-10-23
432541,22734473,"7113 W Sheila Ln, Phoenix, AZ 85033 ",85033,0.6660585641860962,189000,https://www.zillow.com/homedetails/7113-W-Sheila-Ln-Phoenix-AZ-85033/55257199_zpid/,33.4878,-112.213,2017-10-03,2017-10-03
8992552,23527037,"6029 W Mary Jane Ln, Glendale, AZ 85306 ",85306,0.6643091678619385,239000,https://www.zillow.com/homedetails/6029-W-Mary-Jane-Ln-Glendale-AZ-85306/8097193_zpid/,33.6273,-112.189,2017-10-11,2017-10-11
395310,23807125,"3734 W Sierra St, Phoenix, AZ 85029 ",85029,0.6642346620559693,219000,https://www.zillow.com/homedetails/3734-W-Sierra-St-Phoenix-AZ-85029/7743992_zpid/,33.5908,-112.14,2017-10-24,2017-10-24
640835,22743106,"622 W Portobello Ave, Mesa, AZ 85210 ",85210,0.6641651809215545,240000,https://www.zillow.com/homedetails/622-W-Portobello-Ave-Mesa-AZ-85210/8190949_zpid/,33.3608,-111.84700000000001,2017-10-06,2017-10-06
231524,23650293,"17459 N 28th Ave, Phoenix, AZ 85053 ",85053,0.6640568614006043,199000,https://www.zillow.com/homedetails/17459-N-28th-Ave-Phoenix-AZ-85053/7942436_zpid/,33.6449,-112.119,2017-10-14,2017-10-14
354621,23808089,"2310 E Winchcomb Dr, Phoenix, AZ 85022 ",85022,0.6639083385467529,224900,https://www.zillow.com/homedetails/2310-E-Winchcomb-Dr-Phoenix-AZ-85022/8010116_zpid/,33.6168,-112.03399999999999,2017-10-25,2017-10-25
391398,23818338,"4112 W Camino Acequia, Phoenix, AZ 85051 ",85051,0.662742656469345,220986,https://www.zillow.com/homedetails/4112-W-Camino-Acequia-Phoenix-AZ-85051/7745955_zpid/,33.5781,-112.146,2017-11-02,2017-11-02
9021673,23796925,"4918 W Echo Ln, Glendale, AZ 85302 ",85302,0.6626969099044799,239900,https://www.zillow.com/homedetails/4918-W-Echo-Ln-Glendale-AZ-85302/92348539_zpid/,33.56,-112.165,2017-10-23,2017-10-23
1414927,22731466,"7413 N 67th Dr, Glendale, AZ 85303 ",85303,0.6613297700881958,214900,https://www.zillow.com/homedetails/7413-N-67th-Dr-Glendale-AZ-85303/7705033_zpid/,33.5447,-112.20299999999999,2017-09-29,2017-09-29
8988163,23818314,"2650 E Hartford Ave, Phoenix, AZ 85032 ",85032,0.6597704112529754,249500,https://www.zillow.com/homedetails/2650-E-Hartford-Ave-Phoenix-AZ-85032/59266670_zpid/,33.6425,-112.025,2017-11-02,2017-11-02
1349271,23815006,"5556 W Gardenia Ave, Glendale, AZ 85301 ",85301,0.659363842010498,174900,https://www.zillow.com/homedetails/5556-W-Gardenia-Ave-Glendale-AZ-85301/2136646466_zpid/,33.5451,-112.18,2017-10-30,2017-10-30
349598,23800467,"18407 N 16th Pl, Phoenix, AZ 85022 ",85022,0.659208619594574,240000,https://www.zillow.com/homedetails/18407-N-16th-Pl-Phoenix-AZ-85022/8001275_zpid/,33.6534,-112.04700000000001,2017-10-24,2017-10-24
830554,23800544,"3821 W Tuckey Ln, Phoenix, AZ 85019 ",85019,0.6592000305652619,185000,https://www.zillow.com/homedetails/3821-W-Tuckey-Ln-Phoenix-AZ-85019/7758572_zpid/,33.5334,-112.14200000000001,2017-10-24,2017-10-24
378956,23753283,"11206 N 37th Ave, Phoenix, AZ 85029 ",85029,0.6581786751747132,224900,https://www.zillow.com/homedetails/11206-N-37th-Ave-Phoenix-AZ-85029/7743882_zpid/,33.5877,-112.139,2017-10-11,2017-10-11
9022109,23811012,"13037 N 56th Ave, Glendale, AZ 85304 ",85304,0.6576889216899872,214900,https://www.zillow.com/homedetails/13037-N-56th-Ave-Glendale-AZ-85304/7896749_zpid/,33.6024,-112.177,2017-10-27,2017-10-27
8968871,23512069,"15611 N 33rd Pl, Phoenix, AZ 85032 ",85032,0.6575860202312469,210000,https://www.zillow.com/homedetails/15611-N-33rd-Pl-Phoenix-AZ-85032/55267923_zpid/,33.6291,-112.01,2017-10-10,2017-10-10
402261,23811006,"14814 N 62nd Ave, Glendale, AZ 85306 ",85306,0.6573945462703705,200000,https://www.zillow.com/homedetails/14814-N-62nd-Ave-Glendale-AZ-85306/8098781_zpid/,33.6185,-112.191,2017-10-27,2017-10-27
424532,23814472,"9410 N 49th Ave, Glendale, AZ 85302 ",85302,0.6564660727977752,221000,https://www.zillow.com/homedetails/9410-N-49th-Ave-Glendale-AZ-85302/7730248_zpid/,33.5719,-112.165,2017-10-28,2017-10-28
1466691,23821671,"17797 N 89th Dr, Peoria, AZ 85382 ",85382,0.6564049541950225,242000,https://www.zillow.com/homedetails/17797-N-89th-Dr-Peoria-AZ-85382/71616751_zpid/,33.6449,-112.251,2017-11-05,2017-11-05
8973719,22726972,"9226 W Coolbrook Ave, Peoria, AZ 85382 ",85382,0.6559382081031799,239900,https://www.zillow.com/homedetails/9226-W-Coolbrook-Ave-Peoria-AZ-85382/95165053_zpid/,33.6421,-112.258,2017-09-27,2017-09-27
419880,23820028,"5616 W Brown St, Glendale, AZ 85302 ",85302,0.6558213055133819,199900,https://www.zillow.com/homedetails/5616-W-Brown-St-Glendale-AZ-85302/7735264_zpid/,33.5783,-112.18,2017-11-03,2017-11-03
9019690,23756231,"3644 W Libby St, Glendale, AZ 85308 ",85308,0.6554342627525329,175000,https://www.zillow.com/homedetails/3644-W-Libby-St-Glendale-AZ-85308/7948081_zpid/,33.6483,-112.13799999999999,2017-10-19,2017-10-19
396990,23512234,"4008 W Windrose Dr, Phoenix, AZ 85029 ",85029,0.6550329625606537,194999,https://www.zillow.com/homedetails/4008-W-Windrose-Dr-Phoenix-AZ-85029/7742420_zpid/,33.6012,-112.146,2017-10-10,2017-10-10
9021895,23808688,"10205 N 87th Ln, Peoria, AZ 85345 ",85345,0.6545172750949859,189950,https://www.zillow.com/homedetails/10205-N-87th-Ln-Peoria-AZ-85345/7684497_zpid/,33.5776,-112.24799999999999,2017-10-26,2017-10-26
1115786,23756148,"1723 N Longmore St, Chandler, AZ 85224 ",85224,0.6540514886379242,229900,https://www.zillow.com/homedetails/1723-N-Longmore-St-Chandler-AZ-85224/8193731_zpid/,33.3324,-111.868,2017-10-18,2017-10-18
422357,23752505,"6612 W Brown St, Glendale, AZ 85302 ",85302,0.6539058983325958,199000,https://www.zillow.com/homedetails/6612-W-Brown-St-Glendale-AZ-85302/7706362_zpid/,33.5783,-112.20100000000001,2017-10-14,2017-10-14
409707,23564615,"4513 W Sunnyside Ave, Glendale, AZ 85304 ",85304,0.6537730097770691,239900,https://www.zillow.com/homedetails/4513-W-Sunnyside-Ave-Glendale-AZ-85304/7726914_zpid/,33.5922,-112.156,2017-10-13,2017-10-13
1093584,23758033,"781 W Del Rio St, Chandler, AZ 85225 ",85225,0.6534629344940186,249900,https://www.zillow.com/homedetails/781-W-Del-Rio-St-Chandler-AZ-85225/8186554_zpid/,33.3158,-111.854,2017-10-20,2017-10-20
9012276,23755797,"5861 W Grovers Ave, Glendale, AZ 85308 ",85308,0.6534241437911987,207000,https://www.zillow.com/homedetails/5861-W-Grovers-Ave-Glendale-AZ-85308/8099781_zpid/,33.6472,-112.186,2017-10-18,2017-10-18
8970849,23830064,"3715 E Delcoa Dr, Phoenix, AZ 85032 ",85032,0.652418029308319,220000,https://www.zillow.com/homedetails/3715-E-Delcoa-Dr-Phoenix-AZ-85032/7813615_zpid/,33.6109,-112.00200000000001,2017-10-25,2017-10-25
526828,22737450,"9418 W Sheridan St, Phoenix, AZ 85037 ",85037,0.6521015226840973,214500,https://www.zillow.com/homedetails/9418-W-Sheridan-St-Phoenix-AZ-85037/67773035_zpid/,33.475,-112.262,2017-09-28,2017-09-28
22933,22734467,"8739 W Fairmount Ave, Phoenix, AZ 85037 ",85037,0.6516534626483917,170000,https://www.zillow.com/homedetails/8739-W-Fairmount-Ave-Phoenix-AZ-85037/7471067_zpid/,33.492,-112.24799999999999,2017-10-03,2017-10-03
394541,22734836,"3622 W Charter Oak Rd, Phoenix, AZ 85029 ",85029,0.6508258700370788,223000,https://www.zillow.com/homedetails/3622-W-Charter-Oak-Rd-Phoenix-AZ-85029/7742894_zpid/,33.5978,-112.137,2017-10-03,2017-10-03
12224,23796679,"2809 W Loma Ln, Phoenix, AZ 85051 ",85051,0.6505339026451111,179999,https://www.zillow.com/homedetails/2809-W-Loma-Ln-Phoenix-AZ-85051/7751044_zpid/,33.5538,-112.12,2017-10-23,2017-10-23
384597,23810903,"13633 N 20th Ln, Phoenix, AZ 85029 ",85029,0.6504368603229522,209000,https://www.zillow.com/homedetails/13633-N-20th-Ln-Phoenix-AZ-85029/7749596_zpid/,33.61,-112.103,2017-10-27,2017-10-27
258476,23717515,"614 W Rosemonte Dr, Phoenix, AZ 85027 ",85027,0.6503746628761291,234900,https://www.zillow.com/homedetails/614-W-Rosemonte-Dr-Phoenix-AZ-85027/7968459_zpid/,33.657,-112.08200000000001,2017-10-12,2017-10-12
43818,23819082,"8128 W Papago St, Phoenix, AZ 85043 ",85043,0.6498363256454468,199900,https://www.zillow.com/homedetails/8128-W-Papago-St-Phoenix-AZ-85043/60047290_zpid/,33.4345,-112.235,2017-11-02,2017-11-02
353672,22728286,"2201 E Nisbet Rd, Phoenix, AZ 85022 ",85022,0.6496232151985168,199900,https://www.zillow.com/homedetails/2201-E-Nisbet-Rd-Phoenix-AZ-85022/8010593_zpid/,33.6231,-112.035,2017-09-28,2017-09-28
431225,23756305,"6723 W Earll Dr, Phoenix, AZ 85033 ",85033,0.6490874230861664,153900,https://www.zillow.com/homedetails/6723-W-Earll-Dr-Phoenix-AZ-85033/7468541_zpid/,33.4834,-112.204,2017-10-18,2017-10-18
391605,23759518,"4120 W Ironwood Dr, Phoenix, AZ 85051 ",85051,0.6489413917064667,245000,https://www.zillow.com/homedetails/4120-W-Ironwood-Dr-Phoenix-AZ-85051/7746405_zpid/,33.5754,-112.147,2017-10-21,2017-10-21
423300,23817510,"8615 N 51st Dr, Glendale, AZ 85302 ",85302,0.6489265561103821,189900,https://www.zillow.com/homedetails/8615-N-51st-Dr-Glendale-AZ-85302/7733952_zpid/,33.5628,-112.169,2017-11-01,2017-11-01
700481,23821699,"2550 W Knowles Ave, Mesa, AZ 85202 ",85202,0.6489251494407654,248900,https://www.zillow.com/homedetails/2550-W-Knowles-Ave-Mesa-AZ-85202/8253095_zpid/,33.3781,-111.889,2017-11-02,2017-11-02
362517,23822656,"8838 W Hilton Ave, Tolleson, AZ 85353 ",85353,0.6488578617572784,184900,https://www.zillow.com/homedetails/8838-W-Hilton-Ave-Tolleson-AZ-85353/62726881_zpid/,33.4279,-112.251,2017-11-06,2017-11-06
230962,23796591,"19225 N 13th St, Phoenix, AZ 85024 ",85024,0.64875408411026,228000,https://www.zillow.com/homedetails/19225-N-13th-St-Phoenix-AZ-85024/7995445_zpid/,33.6614,-112.054,2017-10-23,2017-10-23
8954944,23798695,"2414 E Dahlia Dr, Phoenix, AZ 85032 ",85032,0.648697429895401,232000,https://www.zillow.com/homedetails/2414-E-Dahlia-Dr-Phoenix-AZ-85032/7820475_zpid/,33.6034,-112.03,2017-10-19,2017-10-19
408932,23816436,"6425 W Monte Cristo Ave, Glendale, AZ 85306 ",85306,0.6486048042774201,214900,https://www.zillow.com/homedetails/6425-W-Monte-Cristo-Ave-Glendale-AZ-85306/7902187_zpid/,33.631,-112.197,2017-10-31,2017-10-31
330786,22738433,"1001 E Bluefield Ave, Phoenix, AZ 85022 ",85022,0.6483197033405304,207500,https://www.zillow.com/homedetails/1001-E-Bluefield-Ave-Phoenix-AZ-85022/8002596_zpid/,33.6522,-112.06,2017-10-04,2017-10-04
830198,23815075,"3747 W Oregon Ave, Phoenix, AZ 85019 ",85019,0.6481709957122803,169900,https://www.zillow.com/homedetails/3747-W-Oregon-Ave-Phoenix-AZ-85019/50188145_zpid/,33.5141,-112.14,2017-10-30,2017-10-30
243121,23752741,"3214 W Villa Rita Dr, Phoenix, AZ 85053 ",85053,0.6479513049125671,220000,https://www.zillow.com/homedetails/3214-W-Villa-Rita-Dr-Phoenix-AZ-85053/7941484_zpid/,33.6505,-112.12799999999999,2017-10-14,2017-10-14
9021889,23808090,"2926 E Charleston Ave, Phoenix, AZ 85032 ",85032,0.6476797819137573,175000,https://www.zillow.com/homedetails/2926-E-Charleston-Ave-Phoenix-AZ-85032/7998861_zpid/,33.6495,-112.01899999999999,2017-10-25,2017-10-25
9021439,23809744,"17630 N 33rd Ln, Phoenix, AZ 85053 ",85053,0.6475224256515503,224500,https://www.zillow.com/homedetails/17630-N-33rd-Ln-Phoenix-AZ-85053/7942069_zpid/,33.6462,-112.131,2017-10-26,2017-10-26
402683,23818661,"12027 N 49th Dr, Glendale, AZ 85304 ",85304,0.6469489455223083,229000,https://www.zillow.com/homedetails/12027-N-49th-Dr-Glendale-AZ-85304/7727409_zpid/,33.5959,-112.165,2017-11-02,2017-11-02
1880517,23820223,"844 W Harrison St, Chandler, AZ 85225 ",85225,0.646696150302887,229000,https://www.zillow.com/homedetails/844-W-Harrison-St-Chandler-AZ-85225/8186376_zpid/,33.3168,-111.85600000000001,2017-11-03,2017-11-03
246567,22745687,"3407 W Port Au Prince Ln, Phoenix, AZ 85053 ",85053,0.6463127613067627,175000,https://www.zillow.com/homedetails/3407-W-Port-Au-Prince-Ln-Phoenix-AZ-85053/7943671_zpid/,33.6229,-112.132,2017-10-09,2017-10-09
8982670,23753363,"1934 N Iowa St, Chandler, AZ 85225 ",85225,0.6461148142814637,215500,https://www.zillow.com/homedetails/1934-N-Iowa-St-Chandler-AZ-85225/8182675_zpid/,33.3331,-111.85,2017-10-13,2017-10-13
9018341,23569410,"18613 N 68th Ave, Glendale, AZ 85308 ",85308,0.6459935069084167,249900,https://www.zillow.com/homedetails/18613-N-68th-Ave-Glendale-AZ-85308/7891573_zpid/,33.6545,-112.205,2017-10-13,2017-10-13
13738,23752919,"5444 W Gardenia Ave, Glendale, AZ 85301 ",85301,0.645925623178482,160000,https://www.zillow.com/homedetails/5444-W-Gardenia-Ave-Glendale-AZ-85301/7726172_zpid/,33.5452,-112.177,2017-10-15,2017-10-15
405327,23817884,"4634 W Kings Ave, Glendale, AZ 85306 ",85306,0.6459182977676392,215000,https://www.zillow.com/homedetails/4634-W-Kings-Ave-Glendale-AZ-85306/7950561_zpid/,33.6372,-112.15700000000001,2017-11-01,2017-11-01
9022078,23810726,"1132 E Villa Maria Dr, Phoenix, AZ 85022 ",85022,0.6458924114704132,215000,https://www.zillow.com/homedetails/1132-E-Villa-Maria-Dr-Phoenix-AZ-85022/8002438_zpid/,33.6518,-112.057,2017-10-27,2017-10-27
476523,23755651,"3215 N 53rd Dr, Phoenix, AZ 85031 ",85031,0.6458582043647766,179000,https://www.zillow.com/homedetails/3215-N-53rd-Dr-Phoenix-AZ-85031/7497049_zpid/,33.4867,-112.17299999999999,2017-10-18,2017-10-18
444887,22730839,"4607 N 92nd Ln, Phoenix, AZ 85037 ",85037,0.6450100839138031,214900,https://www.zillow.com/homedetails/4607-N-92nd-Ln-Phoenix-AZ-85037/7466411_zpid/,33.5044,-112.259,2017-09-28,2017-09-28
352180,23814095,"2023 E Paradise Ln, Phoenix, AZ 85022 ",85022,0.6447525382041931,195000,https://www.zillow.com/homedetails/2023-E-Paradise-Ln-Phoenix-AZ-85022/8008391_zpid/,33.6333,-112.038,2017-10-29,2017-10-29
644243,23819377,"2213 W Del Campo Cir, Mesa, AZ 85202 ",85202,0.6446389019489288,215000,https://www.zillow.com/homedetails/2213-W-Del-Campo-Cir-Mesa-AZ-85202/7602126_zpid/,33.4009,-111.87899999999999,2017-11-03,2017-11-03
9019065,23797419,"8139 W Heatherbrae Dr, Phoenix, AZ 85033 ",85033,0.6446253418922424,178000,https://www.zillow.com/homedetails/8139-W-Heatherbrae-Dr-Phoenix-AZ-85033/7481875_zpid/,33.4976,-112.236,2017-10-24,2017-10-24
1119289,23832093,"2139 N College Ct, Chandler, AZ 85224 ",85224,0.6443526804447174,235000,https://www.zillow.com/homedetails/2139-N-College-Ct-Chandler-AZ-85224/8199701_zpid/,33.3387,-111.87299999999999,2017-11-09,2017-11-09
403650,23818785,"15830 N 59th Dr, Glendale, AZ 85306 ",85306,0.6441174745559692,220000,https://www.zillow.com/homedetails/15830-N-59th-Dr-Glendale-AZ-85306/8096976_zpid/,33.6301,-112.18700000000001,2017-11-02,2017-11-02
416663,23818792,"4542 W Golden Ln, Glendale, AZ 85302 ",85302,0.644072538614273,200000,https://www.zillow.com/homedetails/4542-W-Golden-Ln-Glendale-AZ-85302/7731410_zpid/,33.5651,-112.15799999999999,2017-11-02,2017-11-02
340412,23810957,"15866 N 18th St, Phoenix, AZ 85022 ",85022,0.6440224528312684,199900,https://www.zillow.com/homedetails/15866-N-18th-St-Phoenix-AZ-85022/8004252_zpid/,33.6319,-112.044,2017-10-27,2017-10-27
1358037,23823771,"7832 N 54th Ln, Glendale, AZ 85301 ",85301,0.6440179407596588,219900,https://www.zillow.com/homedetails/7832-N-54th-Ln-Glendale-AZ-85301/50188196_zpid/,33.5516,-112.177,2017-11-06,2017-11-06
415299,23818783,"10119 N 65th Ln, Glendale, AZ 85302 ",85302,0.6439023852348328,179998,https://www.zillow.com/homedetails/10119-N-65th-Ln-Glendale-AZ-85302/65235466_zpid/,33.5779,-112.2,2017-11-02,2017-11-02
9021756,23800765,"8749 W Fullam St, Peoria, AZ 85382 ",85382,0.6437535762786866,199500,https://www.zillow.com/homedetails/8749-W-Fullam-St-Peoria-AZ-85382/7898649_zpid/,33.6501,-112.24799999999999,2017-10-24,2017-10-24
9022423,23821993,"8509 W Watkins St, Tolleson, AZ 85353 ",85353,0.6435723543167114,200000,https://www.zillow.com/homedetails/8509-W-Watkins-St-Tolleson-AZ-85353/59271432_zpid/,33.4257,-112.244,2017-11-06,2017-11-06
958689,23817165,"3608 W Elgin St, Chandler, AZ 85226 ",85226,0.6428905725479126,249499,https://www.zillow.com/homedetails/3608-W-Elgin-St-Chandler-AZ-85226/8155921_zpid/,33.2976,-111.904,2017-11-01,2017-11-01
9021919,23808899,"7642 N 46th Ave, Glendale, AZ 85301 ",85301,0.6421678721904754,210000,https://www.zillow.com/homedetails/7642-N-46th-Ave-Glendale-AZ-85301/7725090_zpid/,33.5496,-112.15700000000001,2017-10-26,2017-10-26
645527,23807613,"708 W Emelita Ave, Mesa, AZ 85210 ",85210,0.6421519696712494,195000,https://www.zillow.com/homedetails/708-W-Emelita-Ave-Mesa-AZ-85210/7598409_zpid/,33.3985,-111.84700000000001,2017-10-25,2017-10-25
9020593,23816971,"3544 W Libby St, Glendale, AZ 85308 ",85308,0.6412871658802033,239900,https://www.zillow.com/homedetails/3544-W-Libby-St-Glendale-AZ-85308/7948073_zpid/,33.6483,-112.13600000000001,2017-11-01,2017-11-01
9016805,23811096,"8432 W Wethersfield Rd, Peoria, AZ 85381 ",85381,0.6412744700908661,237900,https://www.zillow.com/homedetails/8432-W-Wethersfield-Rd-Peoria-AZ-85381/7914507_zpid/,33.5961,-112.241,2017-10-27,2017-10-27
264257,23752112,"7723 W Oraibi Dr, Glendale, AZ 85308 ",85308,0.6410968840122223,244995,https://www.zillow.com/homedetails/7723-W-Oraibi-Dr-Glendale-AZ-85308/7891683_zpid/,33.6615,-112.22399999999999,2017-10-13,2017-10-13
9022859,23821620,"5030 W Taro Dr, Glendale, AZ 85308 ",85308,0.6410596191883087,228000,https://www.zillow.com/homedetails/5030-W-Taro-Dr-Glendale-AZ-85308/7939791_zpid/,33.6587,-112.16799999999999,2017-11-04,2017-11-04
1466647,23827283,"17474 N 92nd Gln, Peoria, AZ 85382 ",85382,0.6410215318202972,239900,https://www.zillow.com/homedetails/17474-N-92nd-Gln-Peoria-AZ-85382/95181812_zpid/,33.6427,-112.259,2017-11-07,2017-11-07
390375,23759015,"3010 W Sahuaro Dr, Phoenix, AZ 85029 ",85029,0.6408366560935974,215000,https://www.zillow.com/homedetails/3010-W-Sahuaro-Dr-Phoenix-AZ-85029/7739762_zpid/,33.5843,-112.124,2017-10-20,2017-10-20
9022117,23811077,"15145 N 86th Dr, Peoria, AZ 85381 ",85381,0.6405866801738739,209900,https://www.zillow.com/homedetails/15145-N-86th-Dr-Peoria-AZ-85381/7908510_zpid/,33.6217,-112.245,2017-10-27,2017-10-27
469895,23526992,"3401 W Tuckey Ln, Phoenix, AZ 85017 ",85017,0.6405313074588775,169000,https://www.zillow.com/homedetails/3401-W-Tuckey-Ln-Phoenix-AZ-85017/7760733_zpid/,33.5332,-112.132,2017-10-11,2017-10-11
8996162,23760270,"8420 W Butler Dr, Peoria, AZ 85345 ",85345,0.6402066349983215,237500,https://www.zillow.com/homedetails/8420-W-Butler-Dr-Peoria-AZ-85345/7683722_zpid/,33.5593,-112.241,2017-10-21,2017-10-21
422451,22733384,"6639 W Brown St, Glendale, AZ 85302 ",85302,0.6399950981140137,199900,https://www.zillow.com/homedetails/6639-W-Brown-St-Glendale-AZ-85302/7706586_zpid/,33.5781,-112.20200000000001,2017-10-02,2017-10-02
497370,23828357,"6740 W Encanto Blvd, Phoenix, AZ 85035 ",85035,0.6399746417999268,195000,https://www.zillow.com/homedetails/6740-W-Encanto-Blvd-Phoenix-AZ-85035/7475724_zpid/,33.4737,-112.205,2017-10-17,2017-10-17
440736,23821179,"2519 N 87th Ave, Phoenix, AZ 85037 ",85037,0.6399559259414673,185000,https://www.zillow.com/homedetails/2519-N-87th-Ave-Phoenix-AZ-85037/7487259_zpid/,33.4754,-112.24600000000001,2017-11-04,2017-11-04
1412890,23823749,"7253 W Aurelius Ave, Glendale, AZ 85303 ",85303,0.6397460997104645,226900,https://www.zillow.com/homedetails/7253-W-Aurelius-Ave-Glendale-AZ-85303/95170805_zpid/,33.5399,-112.214,2017-11-08,2017-11-08
435285,23650449,"7821 W Cheery Lynn Rd, Phoenix, AZ 85033 ",85033,0.6397239446640015,175000,https://www.zillow.com/homedetails/7821-W-Cheery-Lynn-Rd-Phoenix-AZ-85033/7469425_zpid/,33.4823,-112.226,2017-10-14,2017-10-14
237867,23806247,"1650 W Muriel Dr, Phoenix, AZ 85023 ",85023,0.63957839012146,195000,https://www.zillow.com/homedetails/1650-W-Muriel-Dr-Phoenix-AZ-85023/7958466_zpid/,33.646,-112.095,2017-10-25,2017-10-25
392592,23803343,"3302 W Pershing Ave, Phoenix, AZ 85029 ",85029,0.6394207000732421,189900,https://www.zillow.com/homedetails/3302-W-Pershing-Ave-Phoenix-AZ-85029/7745089_zpid/,33.6058,-112.12899999999999,2017-10-22,2017-10-22
253834,23815568,"3833 W Waltann Ln, Phoenix, AZ 85053 ",85053,0.6392969012260437,239900,https://www.zillow.com/homedetails/3833-W-Waltann-Ln-Phoenix-AZ-85053/7945786_zpid/,33.6268,-112.14200000000001,2017-10-31,2017-10-31
448364,23512346,"8402 W Fairmount Ave, Phoenix, AZ 85037 ",85037,0.6385281562805176,170000,https://www.zillow.com/homedetails/8402-W-Fairmount-Ave-Phoenix-AZ-85037/7470144_zpid/,33.4902,-112.24,2017-10-10,2017-10-10
829370,23809963,"3650 W Berridge Ln, Phoenix, AZ 85019 ",85019,0.6383754789829255,164900,https://www.zillow.com/homedetails/3650-W-Berridge-Ln-Phoenix-AZ-85019/7759146_zpid/,33.5257,-112.13799999999999,2017-10-26,2017-10-26
395088,22745777,"7623 N 40th Dr, Phoenix, AZ 85051 ",85051,0.6381422936916351,179900,https://www.zillow.com/homedetails/7623-N-40th-Dr-Phoenix-AZ-85051/7757964_zpid/,33.5484,-112.145,2017-10-09,2017-10-09
334383,22732912,"12827 N 22nd Pl, Phoenix, AZ 85022 ",85022,0.6380448400974273,218000,https://www.zillow.com/homedetails/12827-N-22nd-Pl-Phoenix-AZ-85022/7815663_zpid/,33.6034,-112.03299999999999,2017-10-01,2017-10-01
17301,23755286,"5852 W Orangewood Ave, Glendale, AZ 85301 ",85301,0.6372570753097534,179900,https://www.zillow.com/homedetails/5852-W-Orangewood-Ave-Glendale-AZ-85301/7726635_zpid/,33.5461,-112.186,2017-10-18,2017-10-18
1345978,23817191,"4812 W Sierra Vista Dr, Glendale, AZ 85301 ",85301,0.6362803161144257,179900,https://www.zillow.com/homedetails/4812-W-Sierra-Vista-Dr-Glendale-AZ-85301/7722682_zpid/,33.533,-112.163,2017-11-01,2017-11-01
827449,23813741,"2928 N 40th Dr, Phoenix, AZ 85019 ",85019,0.6356511652469635,174999,https://www.zillow.com/homedetails/2928-N-40th-Dr-Phoenix-AZ-85019/7509157_zpid/,33.4817,-112.146,2017-10-28,2017-10-28
224188,23754064,"14213 N 35th Dr, Phoenix, AZ 85053 ",85053,0.6354081690311432,200000,https://www.zillow.com/homedetails/14213-N-35th-Dr-Phoenix-AZ-85053/7944539_zpid/,33.6154,-112.135,2017-10-16,2017-10-16
9021060,23754387,"3522 W Michelle Dr, Glendale, AZ 85308 ",85308,0.6352699995040894,232500,https://www.zillow.com/homedetails/3522-W-Michelle-Dr-Glendale-AZ-85308/7947823_zpid/,33.6498,-112.135,2017-10-16,2017-10-16
236208,23512189,"2919 W Libby St, Phoenix, AZ 85053 ",85053,0.6347311675548554,219000,https://www.zillow.com/homedetails/2919-W-Libby-St-Phoenix-AZ-85053/7940817_zpid/,33.6477,-112.12200000000001,2017-10-07,2017-10-07
340686,23813814,"1605 E Juniper Ave, Phoenix, AZ 85022 ",85022,0.6346885204315186,209900,https://www.zillow.com/homedetails/1605-E-Juniper-Ave-Phoenix-AZ-85022/8004980_zpid/,33.6389,-112.04799999999999,2017-10-28,2017-10-28
8959309,23803780,"4201 W Mission Ln, Phoenix, AZ 85051 ",85051,0.6346128582954407,219000,https://www.zillow.com/homedetails/4201-W-Mission-Ln-Phoenix-AZ-85051/7746195_zpid/,33.5703,-112.149,2017-10-19,2017-10-19
9018879,23808777,"4021 W Roosevelt St, Phoenix, AZ 85009 ",85009,0.6344284832477569,179990,https://www.zillow.com/homedetails/4021-W-Roosevelt-St-Phoenix-AZ-85009/2092569655_zpid/,33.4585,-112.147,2017-10-26,2017-10-26
400671,23831009,"14003 N 54th Ave, Glendale, AZ 85306 ",85306,0.6344236195087433,120000,https://www.zillow.com/homedetails/14003-N-54th-Ave-Glendale-AZ-85306/8097997_zpid/,33.6132,-112.176,2017-11-14,2017-11-14
7415543,23760080,"5627 W Mission Ln, Glendale, AZ 85302 ",85302,0.6340114593505859,223900,https://www.zillow.com/homedetails/5627-W-Mission-Ln-Glendale-AZ-85302/7734682_zpid/,33.569,-112.18,2017-10-20,2017-10-20
9022227,23813828,"2926 E Michigan Ave, Phoenix, AZ 85032 ",85032,0.6339528560638428,199500,https://www.zillow.com/homedetails/2926-E-Michigan-Ave-Phoenix-AZ-85032/7999122_zpid/,33.6525,-112.01899999999999,2017-10-28,2017-10-28
416034,23808888,"4413 W Mission Ln, Glendale, AZ 85302 ",85302,0.6335560500621795,184500,https://www.zillow.com/homedetails/4413-W-Mission-Ln-Glendale-AZ-85302/7729654_zpid/,33.5689,-112.155,2017-10-26,2017-10-26
1413226,22747483,"7301 W Cavalier Dr, Glendale, AZ 85303 ",85303,0.6335304915904999,179900,https://www.zillow.com/homedetails/7301-W-Cavalier-Dr-Glendale-AZ-85303/7707198_zpid/,33.5243,-112.21600000000001,2017-10-10,2017-10-10
9022735,23819777,"13216 N 31st Way, Phoenix, AZ 85032 ",85032,0.633412492275238,145000,https://www.zillow.com/homedetails/13216-N-31st-Way-Phoenix-AZ-85032/50188555_zpid/,33.6068,-112.014,2017-11-03,2017-11-03
9012601,23824429,"8709 W C P Hayes Dr, Tolleson, AZ 85353 ",85353,0.6334054231643677,215000,https://www.zillow.com/homedetails/8709-W-C-P-Hayes-Dr-Tolleson-AZ-85353/7476816_zpid/,33.4541,-112.24799999999999,2017-11-09,2017-11-09
451535,23821794,"8801 W Mariposa St, Phoenix, AZ 85037 ",85037,0.6331811606884002,179900,https://www.zillow.com/homedetails/8801-W-Mariposa-St-Phoenix-AZ-85037/7483286_zpid/,33.5074,-112.249,2017-11-01,2017-11-01
8989113,22740158,"19153 N 75th Dr, Glendale, AZ 85308 ",85308,0.6330962002277374,235000,https://www.zillow.com/homedetails/19153-N-75th-Dr-Glendale-AZ-85308/7892099_zpid/,33.6583,-112.221,2017-10-05,2017-10-05
1414144,23831100,"7341 N 70th Dr, Glendale, AZ 85303 ",85303,0.6330004811286927,183000,https://www.zillow.com/homedetails/7341-N-70th-Dr-Glendale-AZ-85303/7704927_zpid/,33.5435,-112.211,2017-11-10,2017-11-10
9022833,23828576,"8602 W Roma Ave, Phoenix, AZ 85037 ",85037,0.6327505230903625,220000,https://www.zillow.com/homedetails/8602-W-Roma-Ave-Phoenix-AZ-85037/7480533_zpid/,33.5006,-112.245,2017-11-03,2017-11-03
421245,23823724,"6222 W Echo Ln, Glendale, AZ 85302 ",85302,0.6326612651348114,205000,https://www.zillow.com/homedetails/6222-W-Echo-Ln-Glendale-AZ-85302/7704166_zpid/,33.5584,-112.194,2017-11-07,2017-11-07
392024,23756985,"4134 W Linger Ln, Phoenix, AZ 85051 ",85051,0.6324849486351013,235000,https://www.zillow.com/homedetails/4134-W-Linger-Ln-Phoenix-AZ-85051/7755387_zpid/,33.5528,-112.148,2017-10-19,2017-10-19
411761,23811017,"5271 W Lupine Ave, Glendale, AZ 85304 ",85304,0.6318192064762116,241000,https://www.zillow.com/homedetails/5271-W-Lupine-Ave-Glendale-AZ-85304/7737196_zpid/,33.5897,-112.17299999999999,2017-10-27,2017-10-27
390721,23808934,"4031 W North Ln, Phoenix, AZ 85051 ",85051,0.6316333115100861,184900,https://www.zillow.com/homedetails/4031-W-North-Ln-Phoenix-AZ-85051/7746050_zpid/,33.5813,-112.146,2017-10-26,2017-10-26
1375161,23831121,"9068 W Myrtle Ave, Glendale, AZ 85305 ",85305,0.6316042602062225,240000,https://www.zillow.com/homedetails/9068-W-Myrtle-Ave-Glendale-AZ-85305/95180560_zpid/,33.5402,-112.25399999999999,2017-11-09,2017-11-09
7419652,23752910,"4450 N 37TH Ave, Phoenix, AZ 85019 ",85019,0.6307793200016022,240000,https://www.zillow.com/homedetails/4450-N-37TH-Ave-Phoenix-AZ-85019/95137035_zpid/,33.5016,-112.139,2017-10-15,2017-10-15
428369,23828377,"6211 W Clarendon Ave, Phoenix, AZ 85033 ",85033,0.6307336926460266,219000,https://www.zillow.com/homedetails/6211-W-Clarendon-Ave-Phoenix-AZ-85033/7496532_zpid/,33.4914,-112.193,2017-10-31,2017-10-31
393930,23816236,"7113 N 28th Dr, Phoenix, AZ 85051 ",85051,0.6307148337364197,219999,https://www.zillow.com/homedetails/7113-N-28th-Dr-Phoenix-AZ-85051/7757296_zpid/,33.541,-112.12,2017-10-31,2017-10-31
8982625,23797411,"6105 W Indianola Ave, Phoenix, AZ 85033 ",85033,0.6304745018482208,199900,https://www.zillow.com/homedetails/6105-W-Indianola-Ave-Phoenix-AZ-85033/7496565_zpid/,33.4922,-112.191,2017-10-24,2017-10-24
8977160,23825434,"16231 N 91st Dr, Peoria, AZ 85382 ",85382,0.6304161608219147,233000,https://www.zillow.com/homedetails/16231-N-91st-Dr-Peoria-AZ-85382/2123153916_zpid/,33.6316,-112.25200000000001,2017-11-13,2017-11-13
8984109,23818995,"7426 W Carol Ave, Peoria, AZ 85345 ",85345,0.6302402555942536,197000,https://www.zillow.com/homedetails/7426-W-Carol-Ave-Peoria-AZ-85345/7702134_zpid/,33.5726,-112.219,2017-11-02,2017-11-02
390775,23814136,"4034 W Hatcher Rd, Phoenix, AZ 85051 ",85051,0.6300592064857483,225000,https://www.zillow.com/homedetails/4034-W-Hatcher-Rd-Phoenix-AZ-85051/7746477_zpid/,33.5721,-112.147,2017-10-29,2017-10-29
1405404,23818818,"6557 N 71st Ave, Glendale, AZ 85303 ",85303,0.6294096231460571,179900,https://www.zillow.com/homedetails/6557-N-71st-Ave-Glendale-AZ-85303/7707408_zpid/,33.5326,-112.212,2017-11-02,2017-11-02
833557,23560179,"5747 N 38th Dr, Phoenix, AZ 85019 ",85019,0.6290099143981933,198900,https://www.zillow.com/homedetails/5747-N-38th-Dr-Phoenix-AZ-85019/7719106_zpid/,33.5221,-112.141,2017-10-13,2017-10-13
1421999,23820040,"8134 W Mclellan Rd, Glendale, AZ 85303 ",85303,0.6288493514060974,222500,https://www.zillow.com/homedetails/8134-W-Mclellan-Rd-Glendale-AZ-85303/7462575_zpid/,33.5326,-112.235,2017-11-03,2017-11-03
15292,22708244,"8334 W Ocotillo Rd, Glendale, AZ 85305 ",85305,0.6287785828113556,215900,https://www.zillow.com/homedetails/8334-W-Ocotillo-Rd-Glendale-AZ-85305/7461418_zpid/,33.534,-112.23899999999999,2017-09-20,2017-09-20
390730,22745703,"4032 W North Ln, Phoenix, AZ 85051 ",85051,0.628516411781311,195000,https://www.zillow.com/homedetails/4032-W-North-Ln-Phoenix-AZ-85051/7746045_zpid/,33.5817,-112.146,2017-10-08,2017-10-08
9023267,23825769,"8546 W Caribbean Ln, Peoria, AZ 85381 ",85381,0.6284184217453003,230000,https://www.zillow.com/homedetails/8546-W-Caribbean-Ln-Peoria-AZ-85381/8103097_zpid/,33.624,-112.245,2017-11-11,2017-11-11
1373864,23831106,"8783 W State Ave, Glendale, AZ 85305 ",85305,0.6280682623386383,240000,https://www.zillow.com/homedetails/8783-W-State-Ave-Glendale-AZ-85305/61627820_zpid/,33.5431,-112.24799999999999,2017-11-11,2017-11-11
8992548,23569558,"4746 W Nicolet Ave, Glendale, AZ 85301 ",85301,0.6279082894325256,157900,https://www.zillow.com/homedetails/4746-W-Nicolet-Ave-Glendale-AZ-85301/7725721_zpid/,33.5426,-112.162,2017-10-13,2017-10-13
9019728,22738893,"17413 N 8th Ave, Phoenix, AZ 85023 ",85023,0.6277015805244446,189500,https://www.zillow.com/homedetails/17413-N-8th-Ave-Phoenix-AZ-85023/7963487_zpid/,33.6445,-112.085,2017-10-04,2017-10-04
223069,23526873,"13828 N 41st Ave, Phoenix, AZ 85053 ",85053,0.6276176273822784,243000,https://www.zillow.com/homedetails/13828-N-41st-Ave-Phoenix-AZ-85053/7945205_zpid/,33.6119,-112.147,2017-10-11,2017-10-11
407931,23816227,"6025 W Evans Dr, Glendale, AZ 85306 ",85306,0.6273765146732331,229900,https://www.zillow.com/homedetails/6025-W-Evans-Dr-Glendale-AZ-85306/8098871_zpid/,33.6168,-112.18799999999999,2017-10-31,2017-10-31
409111,23815119,"6540 W Phelps Rd, Glendale, AZ 85306 ",85306,0.6273736000061035,209900,https://www.zillow.com/homedetails/6540-W-Phelps-Rd-Glendale-AZ-85306/7901955_zpid/,33.6361,-112.20100000000001,2017-10-30,2017-10-30
413653,23822290,"6114 W Shaw Butte Dr, Glendale, AZ 85304 ",85304,0.6272299706935882,249999,https://www.zillow.com/homedetails/6114-W-Shaw-Butte-Dr-Glendale-AZ-85304/7698065_zpid/,33.596,-112.191,2017-11-06,2017-11-06
9019686,22738495,"17452 N 55th Ave, Glendale, AZ 85308 ",85308,0.6271266341209412,249900,https://www.zillow.com/homedetails/17452-N-55th-Ave-Glendale-AZ-85308/8099766_zpid/,33.6452,-112.178,2017-10-04,2017-10-04
8969496,23512165,"2433 E Karen Dr, Phoenix, AZ 85032 ",85032,0.626744931936264,247900,https://www.zillow.com/homedetails/2433-E-Karen-Dr-Phoenix-AZ-85032/8013849_zpid/,33.6257,-112.029,2017-10-02,2017-10-02
388342,23817469,"2312 W Laurel Ln, Phoenix, AZ 85029 ",85029,0.6264764308929444,191000,https://www.zillow.com/homedetails/2312-W-Laurel-Ln-Phoenix-AZ-85029/7749464_zpid/,33.5944,-112.109,2017-11-01,2017-11-01
402127,23814880,"14638 N 62nd Ave, Glendale, AZ 85306 ",85306,0.6263616800308227,230000,https://www.zillow.com/homedetails/14638-N-62nd-Ave-Glendale-AZ-85306/8098778_zpid/,33.6177,-112.191,2017-10-30,2017-10-30
391373,23814123,"3128 W Eugie Ave, Phoenix, AZ 85029 ",85029,0.6260064721107483,202000,https://www.zillow.com/homedetails/3128-W-Eugie-Ave-Phoenix-AZ-85029/7747973_zpid/,33.6085,-112.12700000000001,2017-10-29,2017-10-29
9016577,23797077,"9709 W Oak Ridge Dr, Sun City, AZ 85351 ",85351,0.6257323622703552,129900,https://www.zillow.com/homedetails/9709-W-Oak-Ridge-Dr-Sun-City-AZ-85351/7904524_zpid/,33.6274,-112.26799999999999,2017-10-24,2017-10-24
9012841,23819608,"8121 W Hatcher Rd, Peoria, AZ 85345 ",85345,0.625624668598175,239000,https://www.zillow.com/homedetails/8121-W-Hatcher-Rd-Peoria-AZ-85345/7682649_zpid/,33.57,-112.234,2017-11-02,2017-11-02
40212,23823118,"2916 S 72nd Ln, Phoenix, AZ 85043 ",85043,0.6252314567565918,175000,https://www.zillow.com/homedetails/2916-S-72nd-Ln-Phoenix-AZ-85043/67788654_zpid/,33.4218,-112.21700000000001,2017-11-09,2017-11-09
440456,23828490,"8111 W College Dr, Phoenix, AZ 85033 ",85033,0.6247831404209137,153000,https://www.zillow.com/homedetails/8111-W-College-Dr-Phoenix-AZ-85033/7482592_zpid/,33.5078,-112.234,2017-10-25,2017-10-25
243287,22690475,"3218 W Angela Dr, Phoenix, AZ 85053 ",85053,0.6246973872184753,209000,https://www.zillow.com/homedetails/3218-W-Angela-Dr-Phoenix-AZ-85053/7942085_zpid/,33.6461,-112.12899999999999,2017-09-18,2017-09-18
9022548,23818007,"6803 W Cherry Hills Dr, Peoria, AZ 85345 ",85345,0.6243908405303955,235000,https://www.zillow.com/homedetails/6803-W-Cherry-Hills-Dr-Peoria-AZ-85345/7700208_zpid/,33.5936,-112.205,2017-11-02,2017-11-02
9004346,22704088,"2412 N 73rd Ln, Phoenix, AZ 85035 ",85035,0.6239274203777313,219000,https://www.zillow.com/homedetails/2412-N-73rd-Ln-Phoenix-AZ-85035/95085660_zpid/,33.4744,-112.21799999999999,2017-09-21,2017-09-21
9022111,23817234,"7629 N 44th Dr, Glendale, AZ 85301 ",85301,0.6234961748123169,195000,https://www.zillow.com/homedetails/7629-N-44th-Dr-Glendale-AZ-85301/7725279_zpid/,33.5492,-112.155,2017-11-01,2017-11-01
412368,23816556,"5432 W Becker Ln, Glendale, AZ 85304 ",85304,0.6220996737480163,229900,https://www.zillow.com/homedetails/5432-W-Becker-Ln-Glendale-AZ-85304/7736570_zpid/,33.5824,-112.177,2017-11-01,2017-11-01
9019482,23822508,"8505 W Oraibi Dr, Peoria, AZ 85382 ",85382,0.6218307673931122,240000,https://www.zillow.com/homedetails/8505-W-Oraibi-Dr-Peoria-AZ-85382/8105887_zpid/,33.6616,-112.242,2017-11-05,2017-11-05
1344284,22924285,"4622 W Palmaire Ave, Glendale, AZ 85301 ",85301,0.6216669082641602,200000,https://www.zillow.com/homedetails/4622-W-Palmaire-Ave-Glendale-AZ-85301/7725531_zpid/,33.5407,-112.15899999999999,2017-10-07,2017-10-07
9019258,22732947,"3101 W Dailey St, Phoenix, AZ 85053 ",85053,0.6215373933315277,219000,https://www.zillow.com/homedetails/3101-W-Dailey-St-Phoenix-AZ-85053/7943122_zpid/,33.6127,-112.125,2017-10-01,2017-10-01
237433,23754381,"2957 W Michelle Dr, Phoenix, AZ 85053 ",85053,0.6215035438537597,230000,https://www.zillow.com/homedetails/2957-W-Michelle-Dr-Phoenix-AZ-85053/7940747_zpid/,33.6492,-112.124,2017-10-16,2017-10-16
386285,23809974,"3631 W Caron St, Phoenix, AZ 85051 ",85051,0.6214780330657959,245000,https://www.zillow.com/homedetails/3631-W-Caron-St-Phoenix-AZ-85051/7746596_zpid/,33.5684,-112.13799999999999,2017-10-26,2017-10-26
405626,23823339,"4809 W Beverly Ln, Glendale, AZ 85306 ",85306,0.6214058995246887,220000,https://www.zillow.com/homedetails/4809-W-Beverly-Ln-Glendale-AZ-85306/7951167_zpid/,33.6329,-112.162,2017-11-08,2017-11-08
1410407,23835273,"7080 W Glenn Dr, Glendale, AZ 85303 ",85303,0.6212872385978698,234900,https://www.zillow.com/homedetails/7080-W-Glenn-Dr-Glendale-AZ-85303/55173602_zpid/,33.5399,-112.211,2017-11-15,2017-11-15
8946582,23808705,"9637 W Tonto Ln, Peoria, AZ 85382 ",85382,0.6212264239788056,234900,https://www.zillow.com/homedetails/9637-W-Tonto-Ln-Peoria-AZ-85382/7895900_zpid/,33.6617,-112.26799999999999,2017-10-25,2017-10-25
420158,23823709,"5666 W Laurie Ln, Glendale, AZ 85302 ",85302,0.620389187335968,209000,https://www.zillow.com/homedetails/5666-W-Laurie-Ln-Glendale-AZ-85302/7732919_zpid/,33.5593,-112.181,2017-11-07,2017-11-07
249188,23819198,"404 E Sack Dr, Phoenix, AZ 85024 ",85024,0.6202367722988129,244000,https://www.zillow.com/homedetails/404-E-Sack-Dr-Phoenix-AZ-85024/7968312_zpid/,33.6583,-112.069,2017-11-02,2017-11-02
252431,23804898,"824 E Piute Ave, Phoenix, AZ 85024 ",85024,0.619884592294693,239900,https://www.zillow.com/homedetails/824-E-Piute-Ave-Phoenix-AZ-85024/7996367_zpid/,33.6639,-112.06200000000001,2017-10-21,2017-10-21
418501,23831030,"5136 W Laurie Ln, Glendale, AZ 85302 ",85302,0.6198521554470062,212000,https://www.zillow.com/homedetails/5136-W-Laurie-Ln-Glendale-AZ-85302/7732574_zpid/,33.559,-112.171,2017-11-09,2017-11-09
379293,23800540,"2626 W Northview Ave, Phoenix, AZ 85051 ",85051,0.6197985529899597,129900,https://www.zillow.com/homedetails/2626-W-Northview-Ave-Phoenix-AZ-85051/7779482_zpid/,33.5439,-112.116,2017-10-24,2017-10-24
1466624,23831203,"17462 N 92nd Gln, Peoria, AZ 85382 ",85382,0.6195756137371063,228000,https://www.zillow.com/homedetails/17462-N-92nd-Gln-Peoria-AZ-85382/95103614_zpid/,33.6425,-112.259,2017-11-14,2017-11-14
283658,23818597,"2234 E Paradise Dr, Phoenix, AZ 85028 ",85028,0.6192845523357391,242500,https://www.zillow.com/homedetails/2234-E-Paradise-Dr-Phoenix-AZ-85028/7816425_zpid/,33.5961,-112.03299999999999,2017-11-02,2017-11-02
1885528,22710615,"8223 W Carol Ave, Peoria, AZ 85345 ",85345,0.6192016661167145,205000,https://www.zillow.com/homedetails/8223-W-Carol-Ave-Peoria-AZ-85345/60978276_zpid/,33.5706,-112.236,2017-09-21,2017-09-21
9024040,23836165,"2215 S 99th Ln, Tolleson, AZ 85353 ",85353,0.6190576553344727,227000,https://www.zillow.com/homedetails/2215-S-99th-Ln-Tolleson-AZ-85353/95076703_zpid/,33.4261,-112.273,2017-11-18,2017-11-18
524525,23828676,"9119 W Cypress St, Phoenix, AZ 85037 ",85037,0.6188317239284515,189900,https://www.zillow.com/homedetails/9119-W-Cypress-St-Phoenix-AZ-85037/67762984_zpid/,33.4715,-112.256,2017-11-14,2017-11-14
261913,23649326,"5308 N 78th Pl, Scottsdale, AZ 85250 ",85250,0.61871697306633,229000,https://www.zillow.com/homedetails/5308-N-78th-Pl-Scottsdale-AZ-85250/7842267_zpid/,33.5142,-111.913,2017-10-13,2017-10-13
483706,22742318,"2639 N 63rd Ave, Phoenix, AZ 85035 ",85035,0.6187005519866944,197000,https://www.zillow.com/homedetails/2639-N-63rd-Ave-Phoenix-AZ-85035/7491672_zpid/,33.4781,-112.195,2017-10-06,2017-10-06
973060,23815015,"600 N Aspen Dr, Chandler, AZ 85226 ",85226,0.6183002889156342,244900,https://www.zillow.com/homedetails/600-N-Aspen-Dr-Chandler-AZ-85226/8262023_zpid/,33.3128,-111.945,2017-10-30,2017-10-30
8983659,23815882,"3101 N 59th Ave, Phoenix, AZ 85033 ",85033,0.6180546939373016,160000,https://www.zillow.com/homedetails/3101-N-59th-Ave-Phoenix-AZ-85033/7490062_zpid/,33.4833,-112.186,2017-10-31,2017-10-31
388766,22745700,"3835 W Ruth Ave, Phoenix, AZ 85051 ",85051,0.6177043378353119,162500,https://www.zillow.com/homedetails/3835-W-Ruth-Ave-Phoenix-AZ-85051/7752429_zpid/,33.5625,-112.14200000000001,2017-10-08,2017-10-08
8850973,23814108,"2525 E Michigan Ave, Phoenix, AZ 85032 ",85032,0.6170503437519074,225000,https://www.zillow.com/homedetails/2525-E-Michigan-Ave-Phoenix-AZ-85032/7999906_zpid/,33.6507,-112.027,2017-10-29,2017-10-29
9023077,23823738,"5810 W Saint John Rd, Glendale, AZ 85308 ",85308,0.6169939875602722,240000,https://www.zillow.com/homedetails/5810-W-Saint-John-Rd-Glendale-AZ-85308/8099795_zpid/,33.6464,-112.184,2017-11-07,2017-11-07
419177,23831045,"5336 W Alice Ave, Glendale, AZ 85302 ",85302,0.6168793439865112,219900,https://www.zillow.com/homedetails/5336-W-Alice-Ave-Glendale-AZ-85302/7733568_zpid/,33.5646,-112.175,2017-11-09,2017-11-09
351746,23822654,"6619 W Whyman Ave, Phoenix, AZ 85043 ",85043,0.6165305316448212,174900,https://www.zillow.com/homedetails/6619-W-Whyman-Ave-Phoenix-AZ-85043/62727350_zpid/,33.4269,-112.20200000000001,2017-11-08,2017-11-08
9023266,23825772,"8546 W Las Palmaritas Dr, Peoria, AZ 85345 ",85345,0.616457462310791,219900,https://www.zillow.com/homedetails/8546-W-Las-Palmaritas-Dr-Peoria-AZ-85345/14094752_zpid/,33.5569,-112.244,2017-11-11,2017-11-11
450658,23828592,"8740 W Earll Dr, Phoenix, AZ 85037 ",85037,0.6164497256278991,129999,https://www.zillow.com/homedetails/8740-W-Earll-Dr-Phoenix-AZ-85037/7479995_zpid/,33.4838,-112.249,2017-10-27,2017-10-27
17802,23821964,"8338 W Bluefield Ave, Peoria, AZ 85382 ",85382,0.6161819577217102,225000,https://www.zillow.com/homedetails/8338-W-Bluefield-Ave-Peoria-AZ-85382/8129243_zpid/,33.6507,-112.23899999999999,2017-11-04,2017-11-04
231468,23814655,"1516 W Hartford Ave, Phoenix, AZ 85023 ",85023,0.6157554030418396,150000,https://www.zillow.com/homedetails/1516-W-Hartford-Ave-Phoenix-AZ-85023/7965136_zpid/,33.6433,-112.09200000000001,2017-10-30,2017-10-30
394229,22745774,"7201 N 37th Ave, Phoenix, AZ 85051 ",85051,0.6157037615776062,164900,https://www.zillow.com/homedetails/7201-N-37th-Ave-Phoenix-AZ-85051/7756316_zpid/,33.5423,-112.13799999999999,2017-10-09,2017-10-09
1406108,23835268,"6734 N 77th Dr, Glendale, AZ 85303 ",85303,0.615669983625412,249000,https://www.zillow.com/homedetails/6734-N-77th-Dr-Glendale-AZ-85303/7463022_zpid/,33.5345,-112.226,2017-11-17,2017-11-17
9022653,23819042,"9669 N 82nd Ln, Peoria, AZ 85345 ",85345,0.6153536677360535,202000,https://www.zillow.com/homedetails/9669-N-82nd-Ln-Peoria-AZ-85345/67765071_zpid/,33.5728,-112.236,2017-11-02,2017-11-02
390740,23814265,"3037 W Charter Oak Rd, Phoenix, AZ 85029 ",85029,0.6152714252471924,229000,https://www.zillow.com/homedetails/3037-W-Charter-Oak-Rd-Phoenix-AZ-85029/7747216_zpid/,33.5977,-112.124,2017-10-28,2017-10-28
335242,23814162,"6803 N 19th Dr, Phoenix, AZ 85015 ",85015,0.6150657862424851,159900,https://www.zillow.com/homedetails/6803-N-19th-Dr-Phoenix-AZ-85015/7773475_zpid/,33.5368,-112.1,2017-10-28,2017-10-28
1092802,23820224,"731 W Palomino Dr, Chandler, AZ 85225 ",85225,0.6149333000183106,245900,https://www.zillow.com/homedetails/731-W-Palomino-Dr-Chandler-AZ-85225/8177603_zpid/,33.3404,-111.855,2017-11-03,2017-11-03
393461,22738571,"4244 W Butler Dr, Phoenix, AZ 85051 ",85051,0.6146203219890595,185900,https://www.zillow.com/homedetails/4244-W-Butler-Dr-Phoenix-AZ-85051/7752975_zpid/,33.5601,-112.15100000000001,2017-09-29,2017-09-29
9021735,23800650,"4211 N 10th St, Phoenix, AZ 85014 ",85014,0.6142295241355896,175000,https://www.zillow.com/homedetails/4211-N-10th-St-Phoenix-AZ-85014/7769742_zpid/,33.4967,-112.06,2017-10-24,2017-10-24
1407968,23823746,"6861 W State Ave, Glendale, AZ 85303 ",85303,0.6140843212604523,159888,https://www.zillow.com/homedetails/6861-W-State-Ave-Glendale-AZ-85303/7704780_zpid/,33.5438,-112.20700000000001,2017-11-07,2017-11-07
350131,22705127,"6405 W Preston Ln, Phoenix, AZ 85043 ",85043,0.6136272549629211,187000,https://www.zillow.com/homedetails/6405-W-Preston-Ln-Phoenix-AZ-85043/55257428_zpid/,33.4235,-112.198,2017-09-22,2017-09-22
388525,23754065,"2330 W Columbine Dr, Phoenix, AZ 85029 ",85029,0.6135953485965728,219900,https://www.zillow.com/homedetails/2330-W-Columbine-Dr-Phoenix-AZ-85029/7738746_zpid/,33.5996,-112.109,2017-10-16,2017-10-16
831318,23816388,"4008 W Citrus Way, Phoenix, AZ 85019 ",85019,0.6135488629341126,205000,https://www.zillow.com/homedetails/4008-W-Citrus-Way-Phoenix-AZ-85019/7761902_zpid/,33.5299,-112.145,2017-10-31,2017-10-31
457960,23512295,"5355 W Earll Dr, Phoenix, AZ 85031 ",85031,0.6135243356227875,179900,https://www.zillow.com/homedetails/5355-W-Earll-Dr-Phoenix-AZ-85031/7496878_zpid/,33.4846,-112.175,2017-10-10,2017-10-10
250720,23821217,"3627 W Hearn Rd, Phoenix, AZ 85053 ",85053,0.6133419930934906,239900,https://www.zillow.com/homedetails/3627-W-Hearn-Rd-Phoenix-AZ-85053/7944489_zpid/,33.6144,-112.137,2017-11-04,2017-11-04
256281,23819820,"4218 W Boca Raton Rd, Phoenix, AZ 85053 ",85053,0.6132791817188263,168000,https://www.zillow.com/homedetails/4218-W-Boca-Raton-Rd-Phoenix-AZ-85053/7945462_zpid/,33.6112,-112.15,2017-11-03,2017-11-03
830401,23753647,"3811 W Flower St, Phoenix, AZ 85019 ",85019,0.6132277071475982,150000,https://www.zillow.com/homedetails/3811-W-Flower-St-Phoenix-AZ-85019/7507570_zpid/,33.4861,-112.14200000000001,2017-10-16,2017-10-16
415220,23821258,"10031 N 56th Dr, Glendale, AZ 85302 ",85302,0.6130905985832215,203000,https://www.zillow.com/homedetails/10031-N-56th-Dr-Glendale-AZ-85302/7735304_zpid/,33.5778,-112.18,2017-11-04,2017-11-04
402050,23823691,"14629 N 63rd Dr, Glendale, AZ 85306 ",85306,0.6130441308021546,220000,https://www.zillow.com/homedetails/14629-N-63rd-Dr-Glendale-AZ-85306/8098816_zpid/,33.6179,-112.193,2017-11-06,2017-11-06
410753,23759090,"4934 W Becker Ln, Glendale, AZ 85304 ",85304,0.6129986345767975,238500,https://www.zillow.com/homedetails/4934-W-Becker-Ln-Glendale-AZ-85304/67083499_zpid/,33.5826,-112.166,2017-10-20,2017-10-20
9022220,23813743,"3934 W Sheridan St, Phoenix, AZ 85009 ",85009,0.6129344463348388,175000,https://www.zillow.com/homedetails/3934-W-Sheridan-St-Phoenix-AZ-85009/7512512_zpid/,33.4754,-112.145,2017-10-28,2017-10-28
9021200,23755671,"3819 N 63rd Ave, Phoenix, AZ 85033 ",85033,0.6128402590751648,169900,https://www.zillow.com/homedetails/3819-N-63rd-Ave-Phoenix-AZ-85033/7496525_zpid/,33.4925,-112.195,2017-10-18,2017-10-18
9022172,23811514,"9616 W Glen Oaks Cir, Sun City, AZ 85351 ",85351,0.612784481048584,198900,https://www.zillow.com/homedetails/9616-W-Glen-Oaks-Cir-Sun-City-AZ-85351/7922984_zpid/,33.632,-112.26799999999999,2017-10-27,2017-10-27
404210,23821259,"16410 N 66th Dr, Glendale, AZ 85306 ",85306,0.6126035630702973,205000,https://www.zillow.com/homedetails/16410-N-66th-Dr-Glendale-AZ-85306/7901919_zpid/,33.6346,-112.20200000000001,2017-11-04,2017-11-04
556883,23809047,"2529 N 40th Ave, Phoenix, AZ 85009 ",85009,0.6125752866268158,149899,https://www.zillow.com/homedetails/2529-N-40th-Ave-Phoenix-AZ-85009/88889007_zpid/,33.4758,-112.146,2017-10-26,2017-10-26
401171,22726857,"14216 N 45th Dr, Glendale, AZ 85306 ",85306,0.6125656425952911,199900,https://www.zillow.com/homedetails/14216-N-45th-Dr-Glendale-AZ-85306/7952135_zpid/,33.6149,-112.15700000000001,2017-09-26,2017-09-26
9021367,23757594,"9414 W Timberline Dr, Sun City, AZ 85351 ",85351,0.6125397622585297,178500,https://www.zillow.com/homedetails/9414-W-Timberline-Dr-Sun-City-AZ-85351/7922214_zpid/,33.6158,-112.26299999999999,2017-10-12,2017-10-12
483971,22688771,"2734 N 73rd Gln, Phoenix, AZ 85035 ",85035,0.6125387489795685,209900,https://www.zillow.com/homedetails/2734-N-73rd-Gln-Phoenix-AZ-85035/95167972_zpid/,33.4783,-112.21799999999999,2017-09-18,2017-09-18
9019087,22731125,"3117 E Charleston Ave, Phoenix, AZ 85032 ",85032,0.6123597979545593,239999,https://www.zillow.com/homedetails/3117-E-Charleston-Ave-Phoenix-AZ-85032/7999065_zpid/,33.6498,-112.015,2017-09-30,2017-09-30
1114416,23820184,"1617 W Stottler Dr, Chandler, AZ 85224 ",85224,0.612208753824234,229900,https://www.zillow.com/homedetails/1617-W-Stottler-Dr-Chandler-AZ-85224/8193816_zpid/,33.3325,-111.87,2017-11-03,2017-11-03
260981,23820604,"4449 W Oraibi Dr, Glendale, AZ 85308 ",85308,0.611760014295578,189900,https://www.zillow.com/homedetails/4449-W-Oraibi-Dr-Glendale-AZ-85308/7938341_zpid/,33.663000000000004,-112.155,2017-11-03,2017-11-03
9016917,22713964,"16415 N 29th Pl, Phoenix, AZ 85032 ",85032,0.6116668403148651,239000,https://www.zillow.com/homedetails/16415-N-29th-Pl-Phoenix-AZ-85032/8005881_zpid/,33.6358,-112.01899999999999,2017-09-24,2017-09-24
655,23759939,"2207 W Marlette Ave, Phoenix, AZ 85015 ",85015,0.6113563537597656,170000,https://www.zillow.com/homedetails/2207-W-Marlette-Ave-Phoenix-AZ-85015/7773096_zpid/,33.5291,-112.10700000000001,2017-10-20,2017-10-20
344412,23649622,"2406 W Tonto St, Phoenix, AZ 85009 ",85009,0.6111948430538178,195000,https://www.zillow.com/homedetails/2406-W-Tonto-St-Phoenix-AZ-85009/7515658_zpid/,33.4388,-112.111,2017-10-12,2017-10-12
8969572,23828388,"6331 W Whitton Ave, Phoenix, AZ 85033 ",85033,0.6111621022224426,126499,https://www.zillow.com/homedetails/6331-W-Whitton-Ave-Phoenix-AZ-85033/7489157_zpid/,33.4896,-112.196,2017-10-27,2017-10-27
449105,23819968,"8515 W College Dr, Phoenix, AZ 85037 ",85037,0.610866242647171,162750,https://www.zillow.com/homedetails/8515-W-College-Dr-Phoenix-AZ-85037/7483595_zpid/,33.5081,-112.243,2017-11-03,2017-11-03
386525,23810920,"2019 W Willow Ave, Phoenix, AZ 85029 ",85029,0.6108566045761108,189000,https://www.zillow.com/homedetails/2019-W-Willow-Ave-Phoenix-AZ-85029/7749707_zpid/,33.6066,-112.102,2017-10-27,2017-10-27
2048718,23757601,"9730 W Wrangler Dr, Sun City, AZ 85373 ",85373,0.6103723824024201,249900,https://www.zillow.com/homedetails/9730-W-Wrangler-Dr-Sun-City-AZ-85373/7898155_zpid/,33.6403,-112.27,2017-10-17,2017-10-17
9020725,23815067,"9537 W Sunnyslope Ln, Peoria, AZ 85345 ",85345,0.6101709365844726,224000,https://www.zillow.com/homedetails/9537-W-Sunnyslope-Ln-Peoria-AZ-85345/7697879_zpid/,33.5693,-112.265,2017-10-30,2017-10-30
449687,23828585,"8607 W Elm St, Phoenix, AZ 85037 ",85037,0.6095598101615906,175000,https://www.zillow.com/homedetails/8607-W-Elm-St-Phoenix-AZ-85037/7483653_zpid/,33.5059,-112.244,2017-11-10,2017-11-10
224538,23818658,"14264 N 33rd Ave, Phoenix, AZ 85053 ",85053,0.6094799399375915,244900,https://www.zillow.com/homedetails/14264-N-33rd-Ave-Phoenix-AZ-85053/7943194_zpid/,33.6163,-112.12899999999999,2017-11-02,2017-11-02
8978879,23830053,"3626 W Villa Maria Dr, Glendale, AZ 85308 ",85308,0.6093533337116241,249900,https://www.zillow.com/homedetails/3626-W-Villa-Maria-Dr-Glendale-AZ-85308/7947889_zpid/,33.6518,-112.137,2017-11-03,2017-11-03
9021253,23756561,"2832 N 28th Dr, Phoenix, AZ 85008 ",85008,0.6092367529869079,139900,https://www.zillow.com/homedetails/2832-N-28th-Dr-Phoenix-AZ-85008/7513343_zpid/,33.4797,-112.021,2017-10-13,2017-10-13
406153,23823704,"5114 W Acoma Dr, Glendale, AZ 85306 ",85306,0.6087464153766632,240000,https://www.zillow.com/homedetails/5114-W-Acoma-Dr-Glendale-AZ-85306/7910898_zpid/,33.6179,-112.17,2017-11-08,2017-11-08
9022772,23820307,"8547 W Cinnabar Ave, Peoria, AZ 85345 ",85345,0.6087130188941956,249900,https://www.zillow.com/homedetails/8547-W-Cinnabar-Ave-Peoria-AZ-85345/62728560_zpid/,33.576,-112.243,2017-11-03,2017-11-03
233478,23794869,"19046 N 15th Ave, Phoenix, AZ 85027 ",85027,0.6086783885955811,229900,https://www.zillow.com/homedetails/19046-N-15th-Ave-Phoenix-AZ-85027/7969522_zpid/,33.6598,-112.09200000000001,2017-10-22,2017-10-22
647317,23821015,"2310 W Onza Ave, Mesa, AZ 85202 ",85202,0.608658355474472,240000,https://www.zillow.com/homedetails/2310-W-Onza-Ave-Mesa-AZ-85202/8171724_zpid/,33.3621,-111.883,2017-11-04,2017-11-04
481614,23813543,"2502 N 47th Ln, Phoenix, AZ 85035 ",85035,0.6086120009422302,131900,https://www.zillow.com/homedetails/2502-N-47th-Ln-Phoenix-AZ-85035/7499147_zpid/,33.4751,-112.162,2017-10-28,2017-10-28
411351,23831053,"5194 W Paradise Dr, Glendale, AZ 85304 ",85304,0.6085938513278961,214900,https://www.zillow.com/homedetails/5194-W-Paradise-Dr-Glendale-AZ-85304/60978690_zpid/,33.5953,-112.171,2017-11-13,2017-11-13
329115,23755232,"2335 W Campus Dr, Phoenix, AZ 85015 ",85015,0.6083791792392731,212800,https://www.zillow.com/homedetails/2335-W-Campus-Dr-Phoenix-AZ-85015/7518987_zpid/,33.484,-112.11,2017-10-17,2017-10-17
9021527,23824183,"7384 W Greer Ave, Peoria, AZ 85345 ",85345,0.6081058621406555,209900,https://www.zillow.com/homedetails/7384-W-Greer-Ave-Peoria-AZ-85345/7701234_zpid/,33.5882,-112.21799999999999,2017-11-09,2017-11-09
9019399,23759454,"15032 N 26th St, Phoenix, AZ 85032 ",85032,0.6080012440681457,240000,https://www.zillow.com/homedetails/15032-N-26th-St-Phoenix-AZ-85032/8013907_zpid/,33.6237,-112.027,2017-10-20,2017-10-20
379250,23806503,"2622 W Northview Ave, Phoenix, AZ 85051 ",85051,0.6074150383472443,169900,https://www.zillow.com/homedetails/2622-W-Northview-Ave-Phoenix-AZ-85051/7779483_zpid/,33.5439,-112.115,2017-10-25,2017-10-25
339679,23527007,"7027 N 23rd Ln, Phoenix, AZ 85021 ",85021,0.6069457173347473,149750,https://www.zillow.com/homedetails/7027-N-23rd-Ln-Phoenix-AZ-85021/7779133_zpid/,33.5397,-112.11,2017-10-11,2017-10-11
9019398,23819886,"2116 E Vista Dr, Phoenix, AZ 85022 ",85022,0.6068897247314453,249900,https://www.zillow.com/homedetails/2116-E-Vista-Dr-Phoenix-AZ-85022/8010925_zpid/,33.6222,-112.037,2017-11-03,2017-11-03
9020195,23820290,"8638 W Laurel Ln, Peoria, AZ 85345 ",85345,0.6065097510814667,247700,https://www.zillow.com/homedetails/8638-W-Laurel-Ln-Peoria-AZ-85345/7685468_zpid/,33.5934,-112.245,2017-11-03,2017-11-03
8969573,22741412,"3002 N 54th Ln, Phoenix, AZ 85031 ",85031,0.6063623666763306,210000,https://www.zillow.com/homedetails/3002-N-54th-Ln-Phoenix-AZ-85031/7497284_zpid/,33.4831,-112.177,2017-10-06,2017-10-06
8977947,23799668,"5619 W Mariposa St, Phoenix, AZ 85031 ",85031,0.6063606202602386,199900,https://www.zillow.com/homedetails/5619-W-Mariposa-St-Phoenix-AZ-85031/7713521_zpid/,33.5077,-112.18,2017-10-13,2017-10-13
1416084,23831954,"7583 W Krall St, Glendale, AZ 85303 ",85303,0.6056142330169678,225000,https://www.zillow.com/homedetails/7583-W-Krall-St-Glendale-AZ-85303/7463213_zpid/,33.5346,-112.22200000000001,2017-11-14,2017-11-14
9017511,23821775,"7346 W Coolidge St, Phoenix, AZ 85033 ",85033,0.6054543256759644,210000,https://www.zillow.com/homedetails/7346-W-Coolidge-St-Phoenix-AZ-85033/7710836_zpid/,33.5042,-112.21799999999999,2017-11-02,2017-11-02
8992065,23759230,"1935 W Utopia Rd, Phoenix, AZ 85027 ",85027,0.6052569091320038,224000,https://www.zillow.com/homedetails/1935-W-Utopia-Rd-Phoenix-AZ-85027/7969900_zpid/,33.662,-112.102,2017-10-20,2017-10-20
391229,23512195,"3120 W Clinton St, Phoenix, AZ 85029 ",85029,0.6052129328250885,182000,https://www.zillow.com/homedetails/3120-W-Clinton-St-Phoenix-AZ-85029/7740856_zpid/,33.5834,-112.126,2017-10-07,2017-10-07
418832,23830316,"5234 W Diana Ave, Glendale, AZ 85302 ",85302,0.605038994550705,249999,https://www.zillow.com/homedetails/5234-W-Diana-Ave-Glendale-AZ-85302/7733937_zpid/,33.5632,-112.17299999999999,2017-11-09,2017-11-09
1367,22703940,"18821 N 45th Ave, Glendale, AZ 85308 ",85308,0.6049698472023011,214900,https://www.zillow.com/homedetails/18821-N-45th-Ave-Glendale-AZ-85308/7938702_zpid/,33.6571,-112.15700000000001,2017-09-20,2017-09-20
149903,23800141,"8309 E Indian School Rd, Scottsdale, AZ 85251 ",85251,0.6047282159328461,239850,https://www.zillow.com/homedetails/8309-E-Indian-School-Rd-Scottsdale-AZ-85251/7577019_zpid/,33.4948,-111.902,2017-10-15,2017-10-15
973844,23809132,"628 N Dustin Ln, Chandler, AZ 85226 ",85226,0.6045784413814544,239900,https://www.zillow.com/homedetails/628-N-Dustin-Ln-Chandler-AZ-85226/8157254_zpid/,33.3139,-111.95200000000001,2017-10-05,2017-10-05
9020415,23814144,"4822 N 64th Dr, Phoenix, AZ 85033 ",85033,0.6045551776885987,225000,https://www.zillow.com/homedetails/4822-N-64th-Dr-Phoenix-AZ-85033/7712268_zpid/,33.5082,-112.198,2017-10-29,2017-10-29
441326,23650432,"3042 N 87th Ave, Phoenix, AZ 85037 ",85037,0.6045319855213165,204999,https://www.zillow.com/homedetails/3042-N-87th-Ave-Phoenix-AZ-85037/7479842_zpid/,33.483000000000004,-112.24700000000001,2017-10-13,2017-10-13
9020435,22875945,"3838 W Carol Ave, Phoenix, AZ 85051 ",85051,0.6045012652873993,219990,https://www.zillow.com/homedetails/3838-W-Carol-Ave-Phoenix-AZ-85051/7746969_zpid/,33.5731,-112.14200000000001,2017-10-10,2017-10-10
42499,23811581,"6906 W Garfield St, Phoenix, AZ 85043 ",85043,0.6044431626796722,169000,https://www.zillow.com/homedetails/6906-W-Garfield-St-Phoenix-AZ-85043/7476239_zpid/,33.4575,-112.208,2017-10-28,2017-10-28
389751,23821705,"2641 W Wethersfield Rd, Phoenix, AZ 85029 ",85029,0.6043642997741699,149000,https://www.zillow.com/homedetails/2641-W-Wethersfield-Rd-Phoenix-AZ-85029/7748488_zpid/,33.5968,-112.115,2017-11-03,2017-11-03
481368,23814944,"2346 N 47th Ln, Phoenix, AZ 85035 ",85035,0.6041223704814911,174900,https://www.zillow.com/homedetails/2346-N-47th-Ln-Phoenix-AZ-85035/7499146_zpid/,33.4749,-112.162,2017-10-29,2017-10-29
1469883,23825764,"8507 W Oraibi Dr, Peoria, AZ 85382 ",85382,0.6040388226509095,237500,https://www.zillow.com/homedetails/8507-W-Oraibi-Dr-Peoria-AZ-85382/8105886_zpid/,33.6613,-112.242,2017-11-11,2017-11-11
389662,23818645,"3931 W Gardenia Ave, Phoenix, AZ 85051 ",85051,0.6037858843803405,237000,https://www.zillow.com/homedetails/3931-W-Gardenia-Ave-Phoenix-AZ-85051/7757846_zpid/,33.5448,-112.14399999999999,2017-11-01,2017-11-01
336902,23813533,"2125 W State Ave, Phoenix, AZ 85021 ",85021,0.6037015318870544,215000,https://www.zillow.com/homedetails/2125-W-State-Ave-Phoenix-AZ-85021/7778867_zpid/,33.5442,-112.105,2017-10-28,2017-10-28
9022473,23817353,"1710 E Mitchell Dr, Phoenix, AZ 85016 ",85016,0.6033761680126191,160000,https://www.zillow.com/homedetails/1710-E-Mitchell-Dr-Phoenix-AZ-85016/7540510_zpid/,33.4889,-112.045,2017-11-01,2017-11-01
441892,23814741,"4001 N 87th Ave, Phoenix, AZ 85037 ",85037,0.6033285140991211,189900,https://www.zillow.com/homedetails/4001-N-87th-Ave-Phoenix-AZ-85037/7469655_zpid/,33.4933,-112.24600000000001,2017-10-30,2017-10-30
460843,23755985,"2901 N 55th Ave, Phoenix, AZ 85031 ",85031,0.6032814383506775,169000,https://www.zillow.com/homedetails/2901-N-55th-Ave-Phoenix-AZ-85031/7497233_zpid/,33.4808,-112.178,2017-10-18,2017-10-18
354848,22739897,"2320 E Beck Ln, Phoenix, AZ 85022 ",85022,0.603153133392334,170000,https://www.zillow.com/homedetails/2320-E-Beck-Ln-Phoenix-AZ-85022/8007959_zpid/,33.626999999999995,-112.03299999999999,2017-10-04,2017-10-04
483950,23828214,"2680 N 73rd Gln, Phoenix, AZ 85035 ",85035,0.6026506900787354,183900,https://www.zillow.com/homedetails/2680-N-73rd-Gln-Phoenix-AZ-85035/95158912_zpid/,33.4777,-112.21799999999999,2017-11-13,2017-11-13
559806,23840296,"1320 W Pecos Ave, Mesa, AZ 85202 ",85202,0.6025167554616928,235900,https://www.zillow.com/homedetails/1320-W-Pecos-Ave-Mesa-AZ-85202/8171833_zpid/,33.36,-111.861,2017-11-17,2017-11-17
9018977,23810709,"4415 W Keating Cir, Glendale, AZ 85308 ",85308,0.6024245679378509,235000,https://www.zillow.com/homedetails/4415-W-Keating-Cir-Glendale-AZ-85308/7950373_zpid/,33.6423,-112.154,2017-10-26,2017-10-26
448988,23831998,"8504 W College Dr, Phoenix, AZ 85037 ",85037,0.6019774734973907,184900,https://www.zillow.com/homedetails/8504-W-College-Dr-Phoenix-AZ-85037/7483600_zpid/,33.5084,-112.243,2017-11-13,2017-11-13
426687,22730847,"4834 N 81st Dr, Phoenix, AZ 85033 ",85033,0.601823890209198,179900,https://www.zillow.com/homedetails/4834-N-81st-Dr-Phoenix-AZ-85033/7482505_zpid/,33.5079,-112.235,2017-09-29,2017-09-29
485536,22747620,"4501 W Granada Rd, Phoenix, AZ 85035 ",85035,0.6016793429851532,160000,https://www.zillow.com/homedetails/4501-W-Granada-Rd-Phoenix-AZ-85035/7494981_zpid/,33.468,-112.156,2017-10-10,2017-10-10
460344,23756288,"5811 W Cheery Lynn Rd, Phoenix, AZ 85031 ",85031,0.6015242397785187,144900,https://www.zillow.com/homedetails/5811-W-Cheery-Lynn-Rd-Phoenix-AZ-85031/7497530_zpid/,33.4852,-112.184,2017-10-18,2017-10-18
7449241,23819586,"11935 N 68th Ave, Peoria, AZ 85345 ",85345,0.6008817434310914,245000,https://www.zillow.com/homedetails/11935-N-68th-Ave-Peoria-AZ-85345/7700139_zpid/,33.594,-112.204,2017-11-03,2017-11-03
322674,23758532,"4248 N 4th Ave, Phoenix, AZ 85013 ",85013,0.6007018357515335,199900,https://www.zillow.com/homedetails/4248-N-4th-Ave-Phoenix-AZ-85013/7770331_zpid/,33.4974,-112.08200000000001,2017-10-20,2017-10-20
389548,23813548,"2610 W Corrine Dr, Phoenix, AZ 85029 ",85029,0.6005055427551269,189900,https://www.zillow.com/homedetails/2610-W-Corrine-Dr-Phoenix-AZ-85029/7748242_zpid/,33.601,-112.115,2017-10-26,2017-10-26
9021845,23828309,"6123 W Indianola Ave, Phoenix, AZ 85033 ",85033,0.6004871666431427,184900,https://www.zillow.com/homedetails/6123-W-Indianola-Ave-Phoenix-AZ-85033/7496562_zpid/,33.4921,-112.19200000000001,2017-10-25,2017-10-25
503463,22747409,"5608 N 31st Dr, Phoenix, AZ 85017 ",85017,0.6002718091011048,166900,https://www.zillow.com/homedetails/5608-N-31st-Dr-Phoenix-AZ-85017/7764292_zpid/,33.5186,-112.12700000000001,2017-10-10,2017-10-10
502001,23811351,"3601 N 51st Ave, Phoenix, AZ 85031 ",85031,0.6002209424972534,179800,https://www.zillow.com/homedetails/3601-N-51st-Ave-Phoenix-AZ-85031/7508530_zpid/,33.4902,-112.169,2017-10-27,2017-10-27
9022041,23810319,"3120 W Pierce St, Phoenix, AZ 85009 ",85009,0.5999066710472107,124900,https://www.zillow.com/homedetails/3120-W-Pierce-St-Phoenix-AZ-85009/7513849_zpid/,33.4559,-112.12700000000001,2017-10-27,2017-10-27
9012867,23821644,"13235 N 31st Way, Phoenix, AZ 85032 ",85032,0.59980808198452,239900,https://www.zillow.com/homedetails/13235-N-31st-Way-Phoenix-AZ-85032/50188569_zpid/,33.6073,-112.014,2017-11-01,2017-11-01
388744,23819809,"3835 W Camino Acequia, Phoenix, AZ 85051 ",85051,0.5998041093349457,233900,https://www.zillow.com/homedetails/3835-W-Camino-Acequia-Phoenix-AZ-85051/7745922_zpid/,33.5749,-112.14200000000001,2017-11-03,2017-11-03
833447,23561389,"5713 N 42nd Ave, Phoenix, AZ 85019 ",85019,0.5998014748096466,165000,https://www.zillow.com/homedetails/5713-N-42nd-Ave-Phoenix-AZ-85019/7718429_zpid/,33.5207,-112.148,2017-10-13,2017-10-13
383046,23830799,"13002 N 26th Ave, Phoenix, AZ 85029 ",85029,0.5997326791286468,210000,https://www.zillow.com/homedetails/13002-N-26th-Ave-Phoenix-AZ-85029/7738395_zpid/,33.6038,-112.11399999999999,2017-11-10,2017-11-10
240200,23815565,"17428 N 13th Ave, Phoenix, AZ 85023 ",85023,0.5996837317943573,225000,https://www.zillow.com/homedetails/17428-N-13th-Ave-Phoenix-AZ-85023/7963349_zpid/,33.6448,-112.089,2017-10-31,2017-10-31
1466622,23825709,"17462 N 92nd Ave, Peoria, AZ 85382 ",85382,0.5995606005191803,245000,https://www.zillow.com/homedetails/17462-N-92nd-Ave-Peoria-AZ-85382/95087683_zpid/,33.6427,-112.258,2017-11-13,2017-11-13
410256,23810938,"4730 W Shaw Butte Dr, Glendale, AZ 85304 ",85304,0.5994154572486877,240000,https://www.zillow.com/homedetails/4730-W-Shaw-Butte-Dr-Glendale-AZ-85304/7727507_zpid/,33.5952,-112.161,2017-10-27,2017-10-27
220078,23817452,"8352 N 3rd St, Phoenix, AZ 85020 ",85020,0.5993913412094116,200000,https://www.zillow.com/homedetails/8352-N-3rd-St-Phoenix-AZ-85020/7794017_zpid/,33.5605,-112.07,2017-11-01,2017-11-01
359603,23837384,"2538 S 88th Ln, Tolleson, AZ 85353 ",85353,0.5993553340435028,209900,https://www.zillow.com/homedetails/2538-S-88th-Ln-Tolleson-AZ-85353/67772866_zpid/,33.4242,-112.251,2017-11-20,2017-11-20
221405,23805257,"9801 N 2nd Pl, Phoenix, AZ 85020 ",85020,0.5991900444030762,225000,https://www.zillow.com/homedetails/9801-N-2nd-Pl-Phoenix-AZ-85020/55261037_zpid/,33.5752,-112.071,2017-10-22,2017-10-22
9021916,23821887,"5114 W Vogel Ave, Glendale, AZ 85302 ",85302,0.5989905774593354,152000,https://www.zillow.com/homedetails/5114-W-Vogel-Ave-Glendale-AZ-85302/92348849_zpid/,33.5721,-112.17,2017-11-05,2017-11-05
448532,23828597,"8415 W Granada Rd, Phoenix, AZ 85037 ",85037,0.5987002313137054,149900,https://www.zillow.com/homedetails/8415-W-Granada-Rd-Phoenix-AZ-85037/7487944_zpid/,33.4684,-112.241,2017-10-24,2017-10-24
242053,23839085,"3148 W Port Au Prince Ln, Phoenix, AZ 85053 ",85053,0.5984918177127838,205000,https://www.zillow.com/homedetails/3148-W-Port-Au-Prince-Ln-Phoenix-AZ-85053/7953096_zpid/,33.6233,-112.12700000000001,2017-11-09,2017-11-09
9023079,23823755,"6809 W Puget Ave, Peoria, AZ 85345 ",85345,0.598247903585434,224900,https://www.zillow.com/homedetails/6809-W-Puget-Ave-Peoria-AZ-85345/50187931_zpid/,33.5666,-112.206,2017-11-08,2017-11-08
402730,23831013,"15243 N 66th Dr, Glendale, AZ 85306 ",85306,0.598111879825592,239900,https://www.zillow.com/homedetails/15243-N-66th-Dr-Glendale-AZ-85306/8100497_zpid/,33.6248,-112.20100000000001,2017-11-11,2017-11-11
9016683,23754755,"2816 N 32nd Pl, Phoenix, AZ 85008 ",85008,0.5976848661899566,185000,https://www.zillow.com/homedetails/2816-N-32nd-Pl-Phoenix-AZ-85008/7540834_zpid/,33.4793,-112.012,2017-10-17,2017-10-17
9006569,23813547,"2520 E Hillery Dr, Phoenix, AZ 85032 ",85032,0.5976325929164886,240000,https://www.zillow.com/homedetails/2520-E-Hillery-Dr-Phoenix-AZ-85032/8013787_zpid/,33.6223,-112.027,2017-10-26,2017-10-26
454952,23752844,"4630 W Indianola Ave, Phoenix, AZ 85031 ",85031,0.5976148784160614,159000,https://www.zillow.com/homedetails/4630-W-Indianola-Ave-Phoenix-AZ-85031/7508079_zpid/,33.4927,-112.15899999999999,2017-10-15,2017-10-15
502874,23757862,"4315 N 51st Ave, Phoenix, AZ 85031 ",85031,0.5973623394966125,149900,https://www.zillow.com/homedetails/4315-N-51st-Ave-Phoenix-AZ-85031/7720846_zpid/,33.4993,-112.169,2017-10-20,2017-10-20
1404969,23834294,"6396 N 73rd Dr, Glendale, AZ 85303 ",85303,0.5972969233989716,240000,https://www.zillow.com/homedetails/6396-N-73rd-Dr-Glendale-AZ-85303/95163104_zpid/,33.5285,-112.21700000000001,2017-11-16,2017-11-16
9021813,23820289,"8528 W Eva St, Peoria, AZ 85345 ",85345,0.5972533345222473,186000,https://www.zillow.com/homedetails/8528-W-Eva-St-Peoria-AZ-85345/7696910_zpid/,33.5674,-112.243,2017-11-03,2017-11-03
486236,22747377,"4809 W Monte Vista Rd, Phoenix, AZ 85035 ",85035,0.597012460231781,172900,https://www.zillow.com/homedetails/4809-W-Monte-Vista-Rd-Phoenix-AZ-85035/87791786_zpid/,33.4713,-112.163,2017-10-10,2017-10-10
422023,23835263,"6461 W Ruth Ave, Glendale, AZ 85302 ",85302,0.5969282269477845,210000,https://www.zillow.com/homedetails/6461-W-Ruth-Ave-Glendale-AZ-85302/67790198_zpid/,33.5625,-112.198,2017-11-18,2017-11-18
218427,23813727,"7308 N 16th Pl, Phoenix, AZ 85020 ",85020,0.5968134224414825,238000,https://www.zillow.com/homedetails/7308-N-16th-Pl-Phoenix-AZ-85020/7806951_zpid/,33.5439,-112.046,2017-10-28,2017-10-28
9002420,23799270,"4040 E Whitney Ln, Phoenix, AZ 85032 ",85032,0.5961662113666535,240000,https://www.zillow.com/homedetails/4040-E-Whitney-Ln-Phoenix-AZ-85032/8029522_zpid/,33.6217,-111.995,2017-10-18,2017-10-18
9019057,23796416,"3122 N 63rd Ave, Phoenix, AZ 85033 ",85033,0.5961609303951263,160000,https://www.zillow.com/homedetails/3122-N-63rd-Ave-Phoenix-AZ-85033/7498587_zpid/,33.4849,-112.195,2017-10-23,2017-10-23
452056,23828606,"8831 W Mariposa St, Phoenix, AZ 85037 ",85037,0.5960262298583985,214900,https://www.zillow.com/homedetails/8831-W-Mariposa-St-Phoenix-AZ-85037/7483281_zpid/,33.5074,-112.25,2017-11-03,2017-11-03
1404598,23821104,"6113 N 71st Ln, Glendale, AZ 85303 ",85303,0.5958892285823822,194990,https://www.zillow.com/homedetails/6113-N-71st-Ln-Glendale-AZ-85303/7707065_zpid/,33.5257,-112.214,2017-11-04,2017-11-04
326650,23796634,"1822 W Turney Ave, Phoenix, AZ 85015 ",85015,0.5956948339939118,199900,https://www.zillow.com/homedetails/1822-W-Turney-Ave-Phoenix-AZ-85015/7772298_zpid/,33.5007,-112.09899999999999,2017-10-23,2017-10-23
433199,23828411,"7230 W Turney Ave, Phoenix, AZ 85033 ",85033,0.5955221652984619,178900,https://www.zillow.com/homedetails/7230-W-Turney-Ave-Phoenix-AZ-85033/7711378_zpid/,33.5008,-112.215,2017-10-26,2017-10-26
524793,23837280,"9129 W Vernon Ave, Phoenix, AZ 85037 ",85037,0.5952972412109375,220000,https://www.zillow.com/homedetails/9129-W-Vernon-Ave-Phoenix-AZ-85037/67764435_zpid/,33.4726,-112.257,2017-11-18,2017-11-18
1373229,23823765,"8731 W Mclellan Rd, Glendale, AZ 85305 ",85305,0.5949081480503082,220000,https://www.zillow.com/homedetails/8731-W-Mclellan-Rd-Glendale-AZ-85305/7461580_zpid/,33.5321,-112.24799999999999,2017-11-06,2017-11-06
337572,22740038,"2307 W Alice Ave, Phoenix, AZ 85021 ",85021,0.5948256492614746,217900,https://www.zillow.com/homedetails/2307-W-Alice-Ave-Phoenix-AZ-85021/7782260_zpid/,33.5637,-112.109,2017-10-05,2017-10-05
452983,23814740,"4423 W Flower St, Phoenix, AZ 85031 ",85031,0.5946989536285401,168500,https://www.zillow.com/homedetails/4423-W-Flower-St-Phoenix-AZ-85031/7509750_zpid/,33.4865,-112.154,2017-10-30,2017-10-30
384676,23814267,"3501 W Ironwood Dr, Phoenix, AZ 85051 ",85051,0.5945626378059388,239900,https://www.zillow.com/homedetails/3501-W-Ironwood-Dr-Phoenix-AZ-85051/7745307_zpid/,33.5759,-112.134,2017-10-29,2017-10-29
9023242,23825253,"8510 W Aster Dr, Peoria, AZ 85381 ",85381,0.5945000976324082,240000,https://www.zillow.com/homedetails/8510-W-Aster-Dr-Peoria-AZ-85381/7914617_zpid/,33.6015,-112.243,2017-11-10,2017-11-10
388234,23821695,"2301 W Wethersfield Rd, Phoenix, AZ 85029 ",85029,0.5944535493850708,228500,https://www.zillow.com/homedetails/2301-W-Wethersfield-Rd-Phoenix-AZ-85029/7738588_zpid/,33.597,-112.10799999999999,2017-11-01,2017-11-01
829049,23814294,"3625 W San Juan Ave, Phoenix, AZ 85019 ",85019,0.5941451191902161,150000,https://www.zillow.com/homedetails/3625-W-San-Juan-Ave-Phoenix-AZ-85019/7719375_zpid/,33.5186,-112.13799999999999,2017-10-29,2017-10-29
43392,23823135,"7910 W Chickasaw St, Phoenix, AZ 85043 ",85043,0.5939616560935974,179000,https://www.zillow.com/homedetails/7910-W-Chickasaw-St-Phoenix-AZ-85043/59271721_zpid/,33.4308,-112.23,2017-11-09,2017-11-09
379528,22745656,"11438 N 30th Ave, Phoenix, AZ 85029 ",85029,0.5938918828964234,239900,https://www.zillow.com/homedetails/11438-N-30th-Ave-Phoenix-AZ-85029/7739912_zpid/,33.5907,-112.124,2017-10-10,2017-10-10
8987564,23814063,"14067 N 35th St, Phoenix, AZ 85032 ",85032,0.5935186624526978,215000,https://www.zillow.com/homedetails/14067-N-35th-St-Phoenix-AZ-85032/8011904_zpid/,33.6149,-112.007,2017-10-29,2017-10-29
459700,22721620,"5715 W Roma Ave, Phoenix, AZ 85031 ",85031,0.5934003978967667,139900,https://www.zillow.com/homedetails/5715-W-Roma-Ave-Phoenix-AZ-85031/7712868_zpid/,33.4993,-112.18299999999999,2017-09-26,2017-09-26
330130,23649302,"3841 N 21st Ave, Phoenix, AZ 85015 ",85015,0.593137064576149,165000,https://www.zillow.com/homedetails/3841-N-21st-Ave-Phoenix-AZ-85015/7516223_zpid/,33.4929,-112.104,2017-10-13,2017-10-13
9019605,22737585,"9213 W Fillmore St, Tolleson, AZ 85353 ",85353,0.5927373886108398,195000,https://www.zillow.com/homedetails/9213-W-Fillmore-St-Tolleson-AZ-85353/7476932_zpid/,33.4532,-112.258,2017-10-04,2017-10-04
639679,23822703,"606 W Laguna Azul Ave, Mesa, AZ 85210",85210,0.59268639087677,234900,https://www.zillow.com/homedetails/606-W-Laguna-Azul-Ave-Mesa-AZ-85210/8170728_zpid/,33.3729,-111.84700000000001,2017-11-08,2017-11-08
1421352,23835289,"8016 W Sierra Vista Dr, Glendale, AZ 85303 ",85303,0.5925843298435212,235000,https://www.zillow.com/homedetails/8016-W-Sierra-Vista-Dr-Glendale-AZ-85303/7462651_zpid/,33.5314,-112.23299999999999,2017-11-15,2017-11-15
838479,23818647,"4127 W Cavalier Dr, Phoenix, AZ 85019 ",85019,0.5924778163433075,174900,https://www.zillow.com/homedetails/4127-W-Cavalier-Dr-Phoenix-AZ-85019/7760505_zpid/,33.525999999999996,-112.148,2017-11-02,2017-11-02
408027,23819948,"6041 W Mary Jane Ln, Glendale, AZ 85306 ",85306,0.5921297013759613,234000,https://www.zillow.com/homedetails/6041-W-Mary-Jane-Ln-Glendale-AZ-85306/8097191_zpid/,33.6273,-112.19,2017-11-03,2017-11-03
344279,23649625,"2322 W Papago St, Phoenix, AZ 85009 ",85009,0.5920996546745301,125000,https://www.zillow.com/homedetails/2322-W-Papago-St-Phoenix-AZ-85009/81972695_zpid/,33.4343,-112.11,2017-10-14,2017-10-14
9021795,23822865,"747 W Rosal Pl, Chandler, AZ 85225 ",85225,0.591915225982666,249800,https://www.zillow.com/homedetails/747-W-Rosal-Pl-Chandler-AZ-85225/8177685_zpid/,33.3412,-111.855,2017-11-07,2017-11-07
9022874,23821269,"5728 W Villa Maria Dr, Glendale, AZ 85308 ",85308,0.5916853487491608,229900,https://www.zillow.com/homedetails/5728-W-Villa-Maria-Dr-Glendale-AZ-85308/7901229_zpid/,33.6509,-112.18299999999999,2017-11-04,2017-11-04
1342305,22747361,"4413 W Maryland Ave, Glendale, AZ 85301 ",85301,0.5912747621536255,234500,https://www.zillow.com/homedetails/4413-W-Maryland-Ave-Glendale-AZ-85301/7724234_zpid/,33.5309,-112.154,2017-10-06,2017-10-06
9023962,23835311,"8819 N 67th Ln, Peoria, AZ 85345 ",85345,0.591193413734436,234900,https://www.zillow.com/homedetails/8819-N-67th-Ln-Peoria-AZ-85345/50187857_zpid/,33.5661,-112.205,2017-11-14,2017-11-14
250469,22705843,"2302 W Village Dr, Phoenix, AZ 85023 ",85023,0.5909060895442962,244499,https://www.zillow.com/homedetails/2302-W-Village-Dr-Phoenix-AZ-85023/7963978_zpid/,33.645,-112.109,2017-09-20,2017-09-20
9021086,23815044,"8137 W Aster Dr, Peoria, AZ 85381 ",85381,0.5905077338218689,239000,https://www.zillow.com/homedetails/8137-W-Aster-Dr-Peoria-AZ-85381/8100990_zpid/,33.6013,-112.235,2017-10-30,2017-10-30
1116922,23835892,"1826 W Mission Dr, Chandler, AZ 85224 ",85224,0.590490335226059,223000,https://www.zillow.com/homedetails/1826-W-Mission-Dr-Chandler-AZ-85224/8176710_zpid/,33.3446,-111.875,2017-11-15,2017-11-15
1407490,23835267,"6827 N 77th Dr, Glendale, AZ 85303 ",85303,0.5904621213674546,180000,https://www.zillow.com/homedetails/6827-N-77th-Dr-Glendale-AZ-85303/7463055_zpid/,33.537,-112.225,2017-11-18,2017-11-18
342848,23829559,"16841 N 18th Pl, Phoenix, AZ 85022 ",85022,0.5901224195957184,238900,https://www.zillow.com/homedetails/16841-N-18th-Pl-Phoenix-AZ-85022/8004961_zpid/,33.6391,-112.04299999999999,2017-11-09,2017-11-09
831187,23815076,"3944 W Cavalier Dr, Phoenix, AZ 85019 ",85019,0.5900745928287506,210000,https://www.zillow.com/homedetails/3944-W-Cavalier-Dr-Phoenix-AZ-85019/7760413_zpid/,33.5263,-112.145,2017-10-30,2017-10-30
435667,22734446,"7942 W Verde Ln, Phoenix, AZ 85033 ",85033,0.589974907040596,175000,https://www.zillow.com/homedetails/7942-W-Verde-Ln-Phoenix-AZ-85033/7479526_zpid/,33.4815,-112.23100000000001,2017-10-02,2017-10-02
416064,23818791,"4416 W Turquoise Ave, Glendale, AZ 85302 ",85302,0.5899070501327515,249900,https://www.zillow.com/homedetails/4416-W-Turquoise-Ave-Glendale-AZ-85302/7729268_zpid/,33.5757,-112.154,2017-11-02,2017-11-02
424708,23831125,"9609 N 52nd Ln, Glendale, AZ 85302 ",85302,0.5898981094360352,202900,https://www.zillow.com/homedetails/9609-N-52nd-Ln-Glendale-AZ-85302/7734410_zpid/,33.5731,-112.17299999999999,2017-11-13,2017-11-13
392492,23818671,"3250 W Shangri La Rd, Phoenix, AZ 85029 ",85029,0.589656525850296,224900,https://www.zillow.com/homedetails/3250-W-Shangri-La-Rd-Phoenix-AZ-85029/7740618_zpid/,33.5877,-112.13,2017-11-02,2017-11-02
410068,23831025,"4632 W Mescal St, Glendale, AZ 85304 ",85304,0.5894123196601868,204900,https://www.zillow.com/homedetails/4632-W-Mescal-St-Glendale-AZ-85304/7727760_zpid/,33.5869,-112.16,2017-11-10,2017-11-10
347034,23817446,"9213 N 18th Ave, Phoenix, AZ 85021 ",85021,0.5890561074018479,200000,https://www.zillow.com/homedetails/9213-N-18th-Ave-Phoenix-AZ-85021/7781043_zpid/,33.5697,-112.09700000000001,2017-11-01,2017-11-01
9023114,23824121,"10235 W Townley Ave, Peoria, AZ 85345 ",85345,0.5890492916107177,230925,https://www.zillow.com/homedetails/10235-W-Townley-Ave-Peoria-AZ-85345/2092119227_zpid/,33.5659,-112.208,2017-11-08,2017-11-08
9022959,23825235,"7726 W Shangri La Rd, Peoria, AZ 85345 ",85345,0.5889837861061096,224900,https://www.zillow.com/homedetails/7726-W-Shangri-La-Rd-Peoria-AZ-85345/7681844_zpid/,33.5866,-112.229,2017-11-10,2017-11-10
388893,23756003,"2420 W Willow Ave, Phoenix, AZ 85029 ",85029,0.5889405965805053,179900,https://www.zillow.com/homedetails/2420-W-Willow-Ave-Phoenix-AZ-85029/7738239_zpid/,33.6079,-112.111,2017-10-18,2017-10-18
9017508,23796415,"6407 W Mulberry Dr, Phoenix, AZ 85033 ",85033,0.5888237953186035,162500,https://www.zillow.com/homedetails/6407-W-Mulberry-Dr-Phoenix-AZ-85033/7498482_zpid/,33.4866,-112.197,2017-10-23,2017-10-23
1107574,23832074,"1050 W Estrella Dr, Chandler, AZ 85224 ",85224,0.588710343837738,248000,https://www.zillow.com/homedetails/1050-W-Estrella-Dr-Chandler-AZ-85224/8194446_zpid/,33.3311,-111.861,2017-11-13,2017-11-13
1409866,23835277,"7017 N 77th Dr, Glendale, AZ 85303 ",85303,0.5886844009160995,215000,https://www.zillow.com/homedetails/7017-N-77th-Dr-Glendale-AZ-85303/55260208_zpid/,33.5385,-112.225,2017-11-16,2017-11-16
347659,23821801,"9425 N 11th Ave, Phoenix, AZ 85021 ",85021,0.5885183393955231,127000,https://www.zillow.com/homedetails/9425-N-11th-Ave-Phoenix-AZ-85021/7782046_zpid/,33.5723,-112.086,2017-11-02,2017-11-02
415521,23831012,"10301 N 65th Dr, Glendale, AZ 85302 ",85302,0.5884874641895295,151500,https://www.zillow.com/homedetails/10301-N-65th-Dr-Glendale-AZ-85302/7706446_zpid/,33.5798,-112.199,2017-11-14,2017-11-14
9021398,23835196,"15243 N 67th Dr, Peoria, AZ 85381 ",85381,0.5883601993322373,225000,https://www.zillow.com/homedetails/15243-N-67th-Dr-Peoria-AZ-85381/60048597_zpid/,33.6235,-112.20299999999999,2017-11-17,2017-11-17
9013787,22693106,"5647 W Villa Theresa Dr, Glendale, AZ 85308 ",85308,0.5882779479026794,210000,https://www.zillow.com/homedetails/5647-W-Villa-Theresa-Dr-Glendale-AZ-85308/7901269_zpid/,33.6537,-112.182,2017-09-19,2017-09-19
9023033,23823351,"437 E Wescott Dr, Phoenix, AZ 85024 ",85024,0.5882354378700256,225000,https://www.zillow.com/homedetails/437-E-Wescott-Dr-Phoenix-AZ-85024/2092120604_zpid/,33.6585,-112.068,2017-11-08,2017-11-08
8970005,22734447,"7637 W Whitton Ave, Phoenix, AZ 85033 ",85033,0.5881450414657593,179900,https://www.zillow.com/homedetails/7637-W-Whitton-Ave-Phoenix-AZ-85033/7478287_zpid/,33.4901,-112.22399999999999,2017-10-03,2017-10-03
486075,23803976,"4735 W Hubbell St, Phoenix, AZ 85035 ",85035,0.5881344318389893,160000,https://www.zillow.com/homedetails/4735-W-Hubbell-St-Phoenix-AZ-85035/7494702_zpid/,33.4699,-112.162,2017-10-22,2017-10-22
9022729,23819770,"12221 N 38th Pl, Phoenix, AZ 85032 ",85032,0.5877899378538132,219900,https://www.zillow.com/homedetails/12221-N-38th-Pl-Phoenix-AZ-85032/7820907_zpid/,33.598,-111.999,2017-11-03,2017-11-03
383928,23818660,"13245 N 15th Dr, Phoenix, AZ 85029 ",85029,0.5869020998477936,230000,https://www.zillow.com/homedetails/13245-N-15th-Dr-Phoenix-AZ-85029/7784183_zpid/,33.6081,-112.09299999999999,2017-11-02,2017-11-02
9021757,23840669,"9008 W Charleston Ave, Peoria, AZ 85382 ",85382,0.5867826551198959,244900,https://www.zillow.com/homedetails/9008-W-Charleston-Ave-Peoria-AZ-85382/8105059_zpid/,33.6467,-112.25299999999999,2017-11-17,2017-11-17
8948906,23828565,"7614 W Weldon Ave, Phoenix, AZ 85033 ",85033,0.5867804229259491,159900,https://www.zillow.com/homedetails/7614-W-Weldon-Ave-Phoenix-AZ-85033/7478212_zpid/,33.4914,-112.22399999999999,2017-10-24,2017-10-24
484960,23758546,"2837 N 72nd Dr, Phoenix, AZ 85035 ",85035,0.586735725402832,169900,https://www.zillow.com/homedetails/2837-N-72nd-Dr-Phoenix-AZ-85035/7474537_zpid/,33.4793,-112.21600000000001,2017-10-20,2017-10-20
403656,22738452,"12633 N 47th Dr, Glendale, AZ 85304 ",85304,0.5864021480083466,186999,https://www.zillow.com/homedetails/12633-N-47th-Dr-Glendale-AZ-85304/7954518_zpid/,33.601,-112.161,2017-09-28,2017-09-28
8985061,23798423,"1918 E Willetta St, Phoenix, AZ 85006 ",85006,0.5863013535737991,220000,https://www.zillow.com/homedetails/1918-E-Willetta-St-Phoenix-AZ-85006/7528826_zpid/,33.464,-112.04,2017-10-12,2017-10-12
968057,23816718,"510 N Los Feliz Dr, Chandler, AZ 85226 ",85226,0.5858707815408707,199900,https://www.zillow.com/homedetails/510-N-Los-Feliz-Dr-Chandler-AZ-85226/8154966_zpid/,33.3119,-111.905,2017-11-01,2017-11-01
394881,23830983,"7533 N 30th Ave, Phoenix, AZ 85051 ",85051,0.5856232643127441,237900,https://www.zillow.com/homedetails/7533-N-30th-Ave-Phoenix-AZ-85051/95143966_zpid/,33.5471,-112.124,2017-11-11,2017-11-11
392885,23819817,"4216 W Royal Palm Rd, Phoenix, AZ 85051 ",85051,0.5855947315692902,215000,https://www.zillow.com/homedetails/4216-W-Royal-Palm-Rd-Phoenix-AZ-85051/7753122_zpid/,33.5558,-112.15,2017-11-03,2017-11-03
9021937,23809351,"9129 W Hutton Dr, Sun City, AZ 85351 ",85351,0.5854890525341034,184900,https://www.zillow.com/homedetails/9129-W-Hutton-Dr-Sun-City-AZ-85351/7904717_zpid/,33.6309,-112.257,2017-10-26,2017-10-26
9021304,23756946,"2800 E Danbury Rd, Phoenix, AZ 85032 ",85032,0.5853738039731979,185000,https://www.zillow.com/homedetails/2800-E-Danbury-Rd-Phoenix-AZ-85032/7999387_zpid/,33.6418,-112.022,2017-10-19,2017-10-19
9020113,23816784,"1108 N 29th Ave, Phoenix, AZ 85009 ",85009,0.5852577269077301,178000,https://www.zillow.com/homedetails/1108-N-29th-Ave-Phoenix-AZ-85009/7513421_zpid/,33.4604,-112.12200000000001,2017-11-01,2017-11-01
326871,23818637,"1917 W Campbell Ave, Phoenix, AZ 85015 ",85015,0.5852144658565521,192000,https://www.zillow.com/homedetails/1917-W-Campbell-Ave-Phoenix-AZ-85015/7767390_zpid/,33.5022,-112.101,2017-11-01,2017-11-01
9012842,23818998,"8008 W Corrine Dr, Peoria, AZ 85381 ",85381,0.584992316365242,224900,https://www.zillow.com/homedetails/8008-W-Corrine-Dr-Peoria-AZ-85381/8101079_zpid/,33.6,-112.23200000000001,2017-11-01,2017-11-01
829808,23512219,"3721 W Osborn Rd, Phoenix, AZ 85019 ",85019,0.5846409916877746,160000,https://www.zillow.com/homedetails/3721-W-Osborn-Rd-Phoenix-AZ-85019/7507721_zpid/,33.4875,-112.14,2017-10-10,2017-10-10
392781,23831799,"4212 W Townley Ave, Phoenix, AZ 85051 ",85051,0.5842189252376556,239000,https://www.zillow.com/homedetails/4212-W-Townley-Ave-Phoenix-AZ-85051/7754721_zpid/,33.5659,-112.149,2017-11-04,2017-11-04
368437,23829034,"3430 E Renee Dr, Phoenix, AZ 85050 ",85050,0.5841788947582245,249000,https://www.zillow.com/homedetails/3430-E-Renee-Dr-Phoenix-AZ-85050/7993430_zpid/,33.6562,-112.008,2017-11-09,2017-11-09
8959410,23817220,"6709 W Minnezona Ave, Phoenix, AZ 85033 ",85033,0.5839960098266601,168900,https://www.zillow.com/homedetails/6709-W-Minnezona-Ave-Phoenix-AZ-85033/7716819_zpid/,33.503,-112.204,2017-10-31,2017-10-31
226936,23833915,"15039 N 30th Dr, Phoenix, AZ 85053 ",85053,0.5831011563539505,187999,https://www.zillow.com/homedetails/15039-N-30th-Dr-Phoenix-AZ-85053/7952779_zpid/,33.6227,-112.124,2017-11-09,2017-11-09
497164,23820780,"6725 W Holly St, Phoenix, AZ 85035 ",85035,0.582866781949997,160000,https://www.zillow.com/homedetails/6725-W-Holly-St-Phoenix-AZ-85035/7481511_zpid/,33.4707,-112.204,2017-11-03,2017-11-03
9022382,23816381,"17606 N 36th St, Phoenix, AZ 85032 ",85032,0.5826780498027802,195000,https://www.zillow.com/homedetails/17606-N-36th-St-Phoenix-AZ-85032/2092220385_zpid/,33.6453,-112.00299999999999,2017-10-31,2017-10-31
9020793,23836414,"8425 W Cocopah St, Tolleson, AZ 85353 ",85353,0.5826125502586365,218000,https://www.zillow.com/homedetails/8425-W-Cocopah-St-Tolleson-AZ-85353/58626898_zpid/,33.431999999999995,-112.241,2017-11-16,2017-11-16
409027,23831079,"6509 W Grandview Rd, Glendale, AZ 85306 ",85306,0.58256676197052,232900,https://www.zillow.com/homedetails/6509-W-Grandview-Rd-Glendale-AZ-85306/7902066_zpid/,33.6342,-112.198,2017-11-10,2017-11-10
