address,bedrooms,bathrooms,sqft,source,origin_url,longitude,latitude,elevation,year_built,garage,level,transaction_type,price,transaction_status,days_on_market,date_closed,date_listed,neighborhood,nid,shapefile_source
"3726 W Denton Ln, Phoenix, AZ 85019",4,2,1733,zillow_ph,http://www.zillow.com/homedetails/3726-W-Denton-Ln-Phoenix-AZ-85019/7719652_zpid/,-112.14,33.5162,350.53,,,1,rental,995,open,,,2015-08-18,Alahambra,201,PH
"4017 E Burgess Ln, Phoenix, AZ 85042",3,2,1331,zillow_ph,http://www.zillow.com/homedetails/4017-E-Burgess-Ln-Phoenix-AZ-85042/7551375_zpid/,-111.995,33.3898,352.617,,,1,rental,895,open,,,2015-08-11,South Mountain,151,PH
"4001 W Villa Rita Dr, Glendale, AZ 85308",3,2,1397,zillow_ph,http://www.zillow.com/homedetails/4001-W-Villa-Rita-Dr-Glendale-AZ-85308/7948489_zpid/,-112.145,33.6503,400.324,,,1,rental,1150,open,,,2015-08-14,Deer Valley,307,PH
"4541 W Bluefield Ave, Glendale, AZ 85308",4,2,2620,zillow_ph,http://www.zillow.com/homedetails/4541-W-Bluefield-Ave-Glendale-AZ-85308/7949024_zpid/,-112.158,33.6518,396.672,,,1,rental,1600,open,,,2015-08-13,Deer Valley,307,PH
"13624 N 44th Pl, Phoenix, AZ 85032",3,2,1468,zillow_ph,http://www.zillow.com/homedetails/13624-N-44th-Pl-Phoenix-AZ-85032/7822835_zpid/,-111.986,33.6107,429.627,,,1,rental,1575,open,,,2015-08-21,Paradise Valley,288,PH
"921 W Villa Theresa Dr, Phoenix, AZ 85023",3,1,1342,zillow_ph,http://www.zillow.com/homedetails/921-W-Villa-Theresa-Dr-Phoenix-AZ-85023/7956788_zpid/,-112.086,33.6539,424.266,,,1,rental,1025,open,,,2015-08-10,Deer Valley,307,PH
"2331 W Larkspur Dr, Phoenix, AZ 85029",3,2,1494,zillow_ph,http://www.zillow.com/homedetails/2331-W-Larkspur-Dr-Phoenix-AZ-85029/7738617_zpid/,-112.11,33.5999,390.622,,,1,rental,995,open,,,2015-08-14,North Mountain,176,PH
"206 E Danbury Rd, Phoenix, AZ 85022",3,2,1322,zillow_ph,http://www.zillow.com/homedetails/206-E-Danbury-Rd-Phoenix-AZ-85022/7959349_zpid/,-112.072,33.6424,419.987,,,1,rental,1195,open,,,2015-08-10,Deer Valley,307,PH
"9847 S 46th St, Phoenix, AZ 85044",4,2,1400,zillow_ph,http://www.zillow.com/homedetails/9847-S-46th-St-Phoenix-AZ-85044/8142395_zpid/,-111.982,33.3566,404.578,,,1,rental,1125,open,,,2015-08-21,Ahwatukee Foothills 0,274,PH
"1028 E Paradise Ln, Phoenix, AZ 85022",3,2,1624,zillow_ph,http://www.zillow.com/homedetails/1028-E-Paradise-Ln-Phoenix-AZ-85022/8003410_zpid/,-112.058,33.6333,428.535,,,1,rental,1295,open,,,2015-08-14,North Mountain,176,PH
"4734 W Michigan Ave, Glendale, AZ 85308",3,2,1273,zillow_ph,http://www.zillow.com/homedetails/4734-W-Michigan-Ave-Glendale-AZ-85308/7949542_zpid/,-112.162,33.6511,394.732,,,1,rental,975,open,,,2015-08-10,Deer Valley,307,PH
"3815 W Tonopah Dr, Glendale, AZ 85308",3,2,1264,zillow_ph,http://www.zillow.com/homedetails/3815-W-Tonopah-Dr-Glendale-AZ-85308/7936540_zpid/,-112.142,33.6713,408.96,,,1,rental,1200,open,,,2015-07-25,Deer Valley,307,PH
"4607 E Cheyenne Dr, Phoenix, AZ 85044",2,2,1200,zillow_ph,http://www.zillow.com/homedetails/4607-E-Cheyenne-Dr-Phoenix-AZ-85044/8149685_zpid/,-111.984,33.3476,394.889,,,1,rental,1200,open,,,2015-08-22,Ahwatukee Foothills 0,274,PH
"3844 E Kings Ave, Phoenix, AZ 85032",4,2,2576,zillow_ph,http://www.zillow.com/homedetails/3844-E-Kings-Ave-Phoenix-AZ-85032/8006686_zpid/,-111.999,33.6365,444.003,,,1,rental,1895,open,,,2015-08-13,Paradise Valley,288,PH
"3509 E Rockledge Rd, Phoenix, AZ 85044",4,2,2308,zillow_ph,http://www.zillow.com/homedetails/3509-E-Rockledge-Rd-Phoenix-AZ-85044/8161785_zpid/,-112.008,33.3126,392.955,,,1,rental,2075,open,,,2015-08-15,Ahwatukee Foothills 0,274,PH
"33236 N 48th Pl, Cave Creek, AZ 85331",4,2,2410,zillow_ph,http://www.zillow.com/homedetails/33236-N-48th-Pl-Cave-Creek-AZ-85331/7977199_zpid/,-111.978,33.788,596.644,,,1,rental,2200,open,,,2015-08-13,Desert View,273,PH
"19616 N 15th Pl, Phoenix, AZ 85024",3,2,1883,zillow_ph,http://www.zillow.com/homedetails/19616-N-15th-Pl-Phoenix-AZ-85024/7995671_zpid/,-112.049,33.6647,451.733,,,1,rental,1550,open,,,2015-08-10,Deer Valley,307,PH
"2327 W Avalon Dr, Phoenix, AZ 85015",3,1,1160,zillow_ph,http://www.zillow.com/homedetails/2327-W-Avalon-Dr-Phoenix-AZ-85015/7518997_zpid/,-112.11,33.4833,336.518,,,1,rental,750,open,,,2015-08-19,Encanto,314,PH
"16635 S 45th Pl, Phoenix, AZ 85048",3,2,2000,zillow_ph,http://www.zillow.com/homedetails/16635-S-45th-Pl-Phoenix-AZ-85048/8260024_zpid/,-111.986,33.2947,358.525,,,1,rental,1545,open,,,2015-08-17,Ahwatukee Foothills 0,274,PH
"6624 S 19th Pl, Phoenix, AZ 85042",3,2,1867,zillow_ph,http://www.zillow.com/homedetails/6624-S-19th-Pl-Phoenix-AZ-85042/35964556_zpid/,-112.039,33.3862,348.726,,,1,rental,1295,open,,,2015-08-19,South Mountain,151,PH
"17601 N 38th Ave, Glendale, AZ 85308",4,2,1832,zillow_ph,http://www.zillow.com/homedetails/17601-N-38th-Ave-Glendale-AZ-85308/7947509_zpid/,-112.141,33.6456,400.493,,,1,rental,1400,open,,,2015-08-10,Deer Valley,307,PH
"4047 E Windrose Dr, Phoenix, AZ 85032",3,2,1248,zillow_ph,http://www.zillow.com/homedetails/4047-E-Windrose-Dr-Phoenix-AZ-85032/7825063_zpid/,-111.994,33.602,424.183,,,1,rental,1175,open,,,2015-08-18,Paradise Valley,288,PH
"2437 E Marmora St, Phoenix, AZ 85032",3,2,1400,zillow_ph,http://www.zillow.com/homedetails/2437-E-Marmora-St-Phoenix-AZ-85032/7820127_zpid/,-112.029,33.5995,438.825,,,1,rental,1200,open,,,2015-08-13,Paradise Valley,288,PH
"18418 N 30th Pl, Phoenix, AZ 85032",3,2,1230,zillow_ph,http://www.zillow.com/homedetails/18418-N-30th-Pl-Phoenix-AZ-85032/7999249_zpid/,-112.018,33.6538,447.874,,,1,rental,1200,open,,,2015-08-13,Paradise Valley,288,PH
"3121 W Roberta Dr, Phoenix, AZ 85083",4,2,1919,zillow_ph,http://www.zillow.com/homedetails/3121-W-Roberta-Dr-Phoenix-AZ-85083/55265072_zpid/,-112.127,33.7426,459.865,,,1,rental,1400,open,,,2015-08-18,Deer Valley,307,PH
"9005 W Avalon Dr, Phoenix, AZ 85037",4,2,1514,zillow_ph,http://www.zillow.com/homedetails/9005-W-Avalon-Dr-Phoenix-AZ-85037/55257113_zpid/,-112.253,33.4827,317.017,,,1,rental,975,open,,,2015-06-30,Maryvale,208,PH
"6810 S 39th Ln, Phoenix, AZ 85041",4,2,3159,zillow_ph,http://www.zillow.com/homedetails/6810-S-39th-Ln-Phoenix-AZ-85041/55258490_zpid/,-112.144,33.3841,316.724,,,1,rental,1295,open,,,2015-08-11,Laveen,158,PH
"3402 W Pershing Ave, Phoenix, AZ 85029",4,2,2132,zillow_ph,http://www.zillow.com/homedetails/3402-W-Pershing-Ave-Phoenix-AZ-85029/7741273_zpid/,-112.132,33.6053,387.031,,,1,rental,1200,open,,,2015-08-10,North Mountain,176,PH
"3322 W Shumway Farm Rd, Phoenix, AZ 85041",3,2,1553,zillow_ph,http://www.zillow.com/homedetails/3322-W-Shumway-Farm-Rd-Phoenix-AZ-85041/59899338_zpid/,-112.131,33.3839,322.876,,,1,rental,1050,open,,,2015-08-21,Laveen,158,PH
"15239 N 10th Pl, Phoenix, AZ 85022",4,3,3572,zillow_ph,http://www.zillow.com/homedetails/15239-N-10th-Pl-Phoenix-AZ-85022/8008545_zpid/,-112.059,33.625,441.421,,,1,rental,2500,open,,,2015-08-18,North Mountain,176,PH
"6032 S 22nd Dr, Phoenix, AZ 85041",3,2,1259,zillow_ph,http://www.zillow.com/homedetails/6032-S-22nd-Dr-Phoenix-AZ-85041/59272682_zpid/,-112.107,33.3907,329.184,,,1,rental,1095,open,,,2015-08-14,South Mountain,151,PH
"1109 E Wong Way, Phoenix, AZ 85040",2,1,1000,zillow_ph,http://www.zillow.com/homedetails/1109-E-Wong-Way-Phoenix-AZ-85040/60977511_zpid/,-112.057,33.3938,339.724,,,1,rental,795,open,,,2015-08-21,South Mountain,151,PH
"4040 E Desert Forest Trl, Cave Creek, AZ 85331",4,3,2732,zillow_ph,http://www.zillow.com/homedetails/4040-E-Desert-Forest-Trl-Cave-Creek-AZ-85331/52427809_zpid/,-111.994,33.7817,569.527,,,1,rental,1795,open,,,2015-08-14,Desert View,273,PH
"16634 S 28th Pl, Phoenix, AZ 85048",4,3,2340,zillow_ph,http://www.zillow.com/homedetails/16634-S-28th-Pl-Phoenix-AZ-85048/8158833_zpid/,-112.022,33.2937,363.143,,,1,rental,1750,open,,,2015-08-15,Ahwatukee Foothills 0,274,PH
"3136 W Pollack St, Phoenix, AZ 85041",3,2,1540,zillow_ph,http://www.zillow.com/homedetails/3136-W-Pollack-St-Phoenix-AZ-85041/60977172_zpid/,-112.127,33.3801,325.325,,,1,rental,1100,open,,,2015-07-12,Laveen,158,PH
"22212 N 29th Dr, Phoenix, AZ 85027",3,2,1529,zillow_ph,http://www.zillow.com/homedetails/22212-N-29th-Dr-Phoenix-AZ-85027/55265383_zpid/,-112.122,33.688,425.302,,,1,rental,1050,open,,,2015-08-21,Deer Valley,307,PH
"1607 S 79th Ln, Phoenix, AZ 85043",3,2,1685,zillow_ph,http://www.zillow.com/homedetails/1607-S-79th-Ln-Phoenix-AZ-85043/59271861_zpid/,-112.23,33.4331,308.744,,,1,rental,1075,open,,,2015-08-14,Estrella,157,PH
"12005 N 49th Dr, Glendale, AZ 85304",3,2,1700,zillow_ph,http://www.zillow.com/homedetails/12005-N-49th-Dr-Glendale-AZ-85304/7727413_zpid/,-112.165,33.5951,372.983,,,1,rental,950,open,,,2015-08-14,North Mountain,176,PH
"34806 N 31st Ave, Anthem, AZ 85086",3,2,1642,zillow_ph,http://www.zillow.com/homedetails/34806-N-31st-Ave-Anthem-AZ-85086/60981112_zpid/,-112.126,33.8009,515.153,,,1,rental,1300,open,,,2015-08-15,North Gateway,219,PH
"22617 N 19th Way, Phoenix, AZ 85024",5,2,2677,zillow_ph,http://www.zillow.com/homedetails/22617-N-19th-Way-Phoenix-AZ-85024/61629207_zpid/,-112.04,33.6923,467.484,,,1,rental,1800,open,,,2015-08-11,Desert View,273,PH
"24409 N 40th Ave, Glendale, AZ 85310",4,3,2723,zillow_ph,http://www.zillow.com/homedetails/24409-N-40th-Ave-Glendale-AZ-85310/7931443_zpid/,-112.145,33.7077,428.448,,,1,rental,1950,open,,,2015-08-21,Deer Valley,307,PH
"3220 S 81st Dr, Phoenix, AZ 85043",4,2,1529,zillow_ph,http://www.zillow.com/homedetails/3220-S-81st-Dr-Phoenix-AZ-85043/60975398_zpid/,-112.235,33.4191,305.965,,,1,rental,995,open,,,2015-08-11,Estrella,157,PH
"4328 N 42nd Pl, Phoenix, AZ 85018",3,2,1400,zillow_ph,http://www.zillow.com/homedetails/4328-N-42nd-Pl-Phoenix-AZ-85018/7835895_zpid/,-111.99,33.4996,375.405,,,1,rental,1550,open,,,2015-06-25,Camelback East,133,PH
"3836 E Mulberry Dr, Phoenix, AZ 85018",3,1,1007,zillow_ph,http://www.zillow.com/homedetails/3836-E-Mulberry-Dr-Phoenix-AZ-85018/7564450_zpid/,-111.998,33.487,363.525,,,1,rental,995,open,,,2015-08-21,Camelback East,133,PH
"42323 N 46th Dr, Phoenix, AZ 85086",3,2,2293,zillow_ph,http://www.zillow.com/homedetails/42323-N-46th-Dr-Phoenix-AZ-85086/67774906_zpid/,-112.159,33.8694,570.353,,,1,rental,1300,open,,,2015-08-21,New Village,249,PH
"17633 N 35th Way, Phoenix, AZ 85032",3,2,1661,zillow_ph,http://www.zillow.com/homedetails/17633-N-35th-Way-Phoenix-AZ-85032/7998295_zpid/,-112.003,33.6465,449.396,,,1,rental,1100,open,,,2015-08-16,Paradise Valley,288,PH
"2725 W Redwood Ln, Phoenix, AZ 85045",5,3,3152,zillow_ph,http://www.zillow.com/homedetails/2725-W-Redwood-Ln-Phoenix-AZ-85045/59265629_zpid/,-112.119,33.2923,336.955,,,1,rental,1995,open,,,2015-08-22,Ahwatukee Foothills 0,274,PH
"3002 W Tierra Buena Ln, Phoenix, AZ 85053",3,2,1822,zillow_ph,http://www.zillow.com/homedetails/3002-W-Tierra-Buena-Ln-Phoenix-AZ-85053/7954237_zpid/,-112.122,33.6291,399.509,,,1,rental,1150,open,,,2015-08-28,Deer Valley,307,PH
"4465 E Paradise Village Pkwy S, Phoenix, AZ 85032",2,2,1240,zillow_ph,http://www.zillow.com/homedetails/4465-E-Paradise-Village-Pkwy-S-Phoenix-AZ-85032/67805166_zpid/,-111.982,33.5955,419.952,,,1,rental,1400,open,,,2015-08-21,Paradise Valley,288,PH
"25426 N Hackberry Dr, Phoenix, AZ 85083",5,3,3482,zillow_ph,http://www.zillow.com/homedetails/25426-N-Hackberry-Dr-Phoenix-AZ-85083/52426580_zpid/,-112.147,33.7168,429.627,,,1,rental,1850,open,,,2015-08-21,Deer Valley,307,PH
"1656 E Mitchell Dr, Phoenix, AZ 85016",2,1,757,zillow_ph,http://www.zillow.com/homedetails/1656-E-Mitchell-Dr-Phoenix-AZ-85016/7540514_zpid/,-112.045,33.4891,343.449,,,1,rental,700,open,,,2015-08-23,Encanto,314,PH
"2407 W Via Dona Rd, Phoenix, AZ 85085",4,2,2232,zillow_ph,http://www.zillow.com/homedetails/2407-W-Via-Dona-Rd-Phoenix-AZ-85085/67791440_zpid/,-112.11,33.7405,462.685,,,1,rental,1495,open,,,2015-08-22,Deer Valley,307,PH
"2215 N 94th Ave, Phoenix, AZ 85037",4,2,3050,zillow_ph,http://www.zillow.com/homedetails/2215-N-94th-Ave-Phoenix-AZ-85037/67762938_zpid/,-112.262,33.4724,312.075,,,1,rental,1950,open,,,2015-08-21,Maryvale,208,PH
"3119 W Saint Catherine Ave, Phoenix, AZ 85041",5,2,3182,zillow_ph,http://www.zillow.com/homedetails/3119-W-Saint-Catherine-Ave-Phoenix-AZ-85041/67764948_zpid/,-112.126,33.3876,322.391,2005,0,1,rental,1250,open,,,2015-10-13,Laveen,158,PH
"3979 E Pollack St, Phoenix, AZ 85042",3,2,1458,zillow_ph,http://www.zillow.com/homedetails/3979-E-Pollack-St-Phoenix-AZ-85042/71599943_zpid/,-111.996,33.3804,362.844,,,1,rental,1215,open,,,2015-08-21,South Mountain,151,PH
"2215 W Spur Dr, Phoenix, AZ 85085",3,2,2231,zillow_ph,http://www.zillow.com/homedetails/2215-W-Spur-Dr-Phoenix-AZ-85085/71620818_zpid/,-112.106,33.7261,453.376,,,1,rental,1775,open,,,2015-08-13,Deer Valley,307,PH
"311 W Georgia Ave, Phoenix, AZ 85013",3,3,4000,zillow_ph,http://www.zillow.com/homedetails/311-W-Georgia-Ave-Phoenix-AZ-85013/7801750_zpid/,-112.079,33.5145,347.321,,,1,rental,6000,open,,,2015-08-21,Alahambra,201,PH
"3327 W La Salle St, Phoenix, AZ 85041",4,2,1601,zillow_ph,http://www.zillow.com/homedetails/3327-W-La-Salle-St-Phoenix-AZ-85041/71605325_zpid/,-112.13,33.3967,316.433,,,1,rental,1100,open,,,2015-08-21,Laveen,158,PH
"2315 E La Salle St, Phoenix, AZ 85040",4,2,3073,zillow_ph,http://www.zillow.com/homedetails/2315-E-La-Salle-St-Phoenix-AZ-85040/71612746_zpid/,-112.032,33.3974,339.732,,,1,rental,1550,open,,,2015-08-21,South Mountain,151,PH
"6329 W Constance Way, Laveen, AZ 85339",4,2,2208,zillow_ph,http://www.zillow.com/homedetails/6329-W-Constance-Way-Laveen-AZ-85339/71607660_zpid/,-112.196,33.375,305.219,,,1,rental,1200,open,,,2015-08-10,Laveen,158,PH
"6836 S 8th Dr, Phoenix, AZ 85041",3,2,1560,zillow_ph,http://www.zillow.com/homedetails/6836-S-8th-Dr-Phoenix-AZ-85041/81979614_zpid/,-112.084,33.384,344.396,,,1,rental,1200,open,,,2015-08-19,South Mountain,151,PH
"2555 E Robb Ln, Phoenix, AZ 85024",6,4,3903,zillow_ph,http://www.zillow.com/homedetails/2555-E-Robb-Ln-Phoenix-AZ-85024/82823824_zpid/,-112.028,33.7055,484.001,,,1,rental,2600,open,,,2015-08-12,Desert View,273,PH
"5124 W Andrea Dr, Phoenix, AZ 85083",4,3,3813,zillow_ph,http://www.zillow.com/homedetails/5124-W-Andrea-Dr-Phoenix-AZ-85083/72292081_zpid/,-112.17,33.7266,451.348,,,1,rental,2150,open,,,2015-08-21,Deer Valley,307,PH
"26704 N Babbling Brook Dr, Phoenix, AZ 85083",3,2,1661,zillow_ph,http://www.zillow.com/homedetails/26704-N-Babbling-Brook-Dr-Phoenix-AZ-85083/82823553_zpid/,-112.174,33.7262,449.979,,,1,rental,1375,open,,,2015-08-17,Deer Valley,307,PH
"6220 S 20th Gln, Phoenix, AZ 85041",3,2,1496,zillow_ph,http://www.zillow.com/homedetails/6220-S-20th-Gln-Phoenix-AZ-85041/2137405100_zpid/,-112.103,33.3897,331.065,,,1,rental,1250,open,,,2015-08-18,South Mountain,151,PH
"4313 E Folgers Rd, Phoenix, AZ 85050",4,2,3207,zillow_ph,http://www.zillow.com/homedetails/4313-E-Folgers-Rd-Phoenix-AZ-85050/92347095_zpid/,-111.978,33.6958,509.311,,,1,rental,2800,open,,,2015-06-23,Desert View,273,PH
"2316 E Dry Wood Rd, Phoenix, AZ 85024",5,2,3207,zillow_ph,http://www.zillow.com/homedetails/2316-E-Dry-Wood-Rd-Phoenix-AZ-85024/94882397_zpid/,-112.024,33.7057,485.901,,,1,rental,2199,closed,2,2015-10-10,2015-10-08,Desert View,273,PH
"1644 W Straight Arrow Ln, Phoenix, AZ 85085",3,2,1505,zillow_ph,http://www.zillow.com/homedetails/1644-W-Straight-Arrow-Ln-Phoenix-AZ-85085/95089445_zpid/,-112.095,33.7333,478.158,,,1,rental,1595,open,,,2015-08-13,North Gateway,219,PH
"910 E Fairmount Ave, Phoenix, AZ 85014",1,1,510,zillow_ph,http://www.zillow.com/homedetails/910-E-Fairmount-Ave-Phoenix-AZ-85014/81976246_zpid/,-112.062,33.4932,339.977,,,1,rental,545,open,,,2015-08-13,Encanto,314,PH
"2520 E Marilyn Rd, Phoenix, AZ 85032",3,2,1080,zillow_ph,http://www.zillow.com/homedetails/2520-E-Marilyn-Rd-Phoenix-AZ-85032/8013736_zpid/,-112.027,33.6206,444.15,,,1,rental,1150,open,,,2015-08-15,Paradise Valley,288,PH
"6438 W Sells Dr, Phoenix, AZ 85033",5,2,1913,zillow_ph,http://www.zillow.com/homedetails/6438-W-Sells-Dr-Phoenix-AZ-85033/7717217_zpid/,-112.199,33.5015,336.381,,,1,rental,1100,open,,,2015-08-12,Maryvale,208,PH
"5024 S 21st Pl, Phoenix, AZ 85040",3,2,1275,zillow_ph,http://www.zillow.com/homedetails/5024-S-21st-Pl-Phoenix-AZ-85040/7546863_zpid/,-112.036,33.4005,337.236,,,1,rental,1050,open,,,2015-08-12,South Mountain,151,PH
"3028 N 48th Ave, Phoenix, AZ 85031",3,2,1884,zillow_ph,http://www.zillow.com/homedetails/3028-N-48th-Ave-Phoenix-AZ-85031/7510176_zpid/,-112.162,33.4834,332.216,,,1,rental,940,open,,,2015-08-17,Maryvale,208,PH
"5244 S 3rd St, Phoenix, AZ 85040",2,1,924,zillow_ph,http://www.zillow.com/homedetails/5244-S-3rd-St-Phoenix-AZ-85040/2122630787_zpid/,-112.07,33.398,332.958,,,1,rental,765,open,,,2015-08-10,South Mountain,151,PH
"1805 W Straight Arrow Ln, Phoenix, AZ 85085",3,2,2214,zillow_ph,http://www.zillow.com/homedetails/1805-W-Straight-Arrow-Ln-Phoenix-AZ-85085/95176387_zpid/,-112.098,33.7333,473.322,,,1,rental,2050,open,,,2015-08-21,North Gateway,219,PH
"2942 W Montebello Ave, Phoenix, AZ 85017",3,2,1407,zillow_ph,http://www.zillow.com/homedetails/2942-W-Montebello-Ave-Phoenix-AZ-85017/7762917_zpid/,-112.123,33.5206,353.727,,,1,rental,999,open,,,2015-08-16,Alahambra,201,PH
"15801 N 29th St, Phoenix, AZ 85032",2,2,1121,zillow_ph,http://www.zillow.com/homedetails/15801-N-29th-St-Phoenix-AZ-85032/2111784420_zpid/,-112.018,33.6301,438.504,,,1,rental,850,open,,,2015-08-18,Paradise Valley,288,PH
"7724 N 14th St, Phoenix, AZ 85020",3,2,1803,zillow_ph,http://www.zillow.com/homedetails/7724-N-14th-St-Phoenix-AZ-85020/95150871_zpid/,-112.052,33.55,386.797,,,1,rental,2500,open,,,2015-08-21,Camelback East,133,PH
"2035 N 64th Ln, Phoenix, AZ 85035",3,2,1280,zillow_ph,http://www.zillow.com/homedetails/2035-N-64th-Ln-Phoenix-AZ-85035/7490712_zpid/,-112.198,33.4708,325.186,,,1,rental,875,open,,,2015-08-17,Maryvale,208,PH
"15230 S 42nd St, Phoenix, AZ 85044",3,2,1779,zillow_ph,http://www.zillow.com/homedetails/15230-S-42nd-St-Phoenix-AZ-85044/92353755_zpid/,-111.992,33.308,374.76,,,1,rental,1395,open,,,2015-07-22,Ahwatukee Foothills 0,274,PH
"10811 N Calle Del Sol, Phoenix, AZ 85037",3,2,1240,zillow_ph,http://www.zillow.com/homedetails/10811-N-Calle-Del-Sol-Phoenix-AZ-85037/2105146507_zpid/,-112.293,33.4955,311.707,,,1,rental,900,open,,,2015-09-15,Maryvale,208,PH
"17 W Vernon Ave, Phoenix, AZ 85003",2,2,1386,zillow_ph,http://www.zillow.com/homedetails/17-W-Vernon-Ave-Phoenix-AZ-85003/2105356946_zpid/,-112.075,33.4737,333.48,,,1,rental,1545,open,,,2015-08-27,Encanto,314,PH
"E Berridge Ln Phoenix, AZ 85014",3,2,1542,zillow_ph,http://www.zillow.com/homedetails/E-Berridge-Ln-Phoenix-AZ-85014/2101440773_zpid/,-112.061,33.5252,357.152,,,1,rental,1300,open,,,2015-08-11,Camelback East,133,PH
"E Ahwatukee Dr Phoenix, AZ 85044",2,2,1715,zillow_ph,http://www.zillow.com/homedetails/E-Ahwatukee-Dr-Phoenix-AZ-85044/2101430795_zpid/,-111.991,33.3358,394.299,,,1,rental,1300,open,,,2015-08-12,Ahwatukee Foothills 0,274,PH
"2421 W Monte Cristo Cir, Phoenix, AZ 85023",3,2,1440,zillow_ph,http://www.zillow.com/homedetails/2421-W-Monte-Cristo-Cir-Phoenix-AZ-85023/2101427361_zpid/,-112.112,33.6306,404.484,,,1,rental,1250,open,,,2015-08-12,Deer Valley,307,PH
"3311 N 18th St, Phoenix, AZ 85016",2,1,900,zillow_ph,http://www.zillow.com/homedetails/3311-N-18th-St-Phoenix-AZ-85016/2104565441_zpid/,-112.043,33.4864,344.033,,,1,rental,925,closed,56,2015-10-10,2015-08-15,Encanto,314,PH
"S 2nd St Phoenix, AZ 85004",0,1,1000,zillow_ph,http://www.zillow.com/homedetails/S-2nd-St-Phoenix-AZ-85004/2101386042_zpid/,-112.071,33.4391,329.562,,,1,rental,1499,open,,,2015-08-16,Central City,285,PH
"W Alice Ave Phoenix, AZ 85021",3,2,1354,zillow_ph,http://www.zillow.com/homedetails/W-Alice-Ave-Phoenix-AZ-85021/2101379277_zpid/,-112.078,33.5644,376.223,,,1,rental,1400,open,,,2015-08-17,North Mountain,176,PH
"3551 E Campo Bello Dr, Phoenix, AZ 85032",3,2,1297,zillow_ph,http://www.zillow.com/homedetails/3551-E-Campo-Bello-Dr-Phoenix-AZ-85032/7998212_zpid/,-112.004,33.6436,448.471,,,1,rental,985,open,,,2015-08-18,Paradise Valley,288,PH
"W Blackhawk Dr Phoenix, AZ 85027",3,2,1263,zillow_ph,http://www.zillow.com/homedetails/W-Blackhawk-Dr-Phoenix-AZ-85027/2101366011_zpid/,-112.087,33.6706,433.162,,,1,rental,1250,open,,,2015-08-18,Deer Valley,307,PH
"4416 E Amberwood Dr, Phoenix, AZ 85048",3,2,1300,zillow_ph,http://www.zillow.com/homedetails/4416-E-Amberwood-Dr-Phoenix-AZ-85048/8158645_zpid/,-111.988,33.2999,363.892,,,1,rental,1325,open,,,2015-08-18,Ahwatukee Foothills 0,274,PH
"E Indianola Ave Phoenix, AZ 85016",2,1,1100,zillow_ph,http://www.zillow.com/homedetails/E-Indianola-Ave-Phoenix-AZ-85016/2135805483_zpid/,-112.035,33.4921,349.677,,,1,rental,1450,open,,,2015-08-19,Camelback East,133,PH
"512 N 53rd St, Phoenix, AZ 85008",2,2,850,zillow_ph,http://www.zillow.com/homedetails/512-N-53rd-St-Phoenix-AZ-85008/2116156042_zpid/,-111.968,33.454,368.957,,,1,rental,850,open,,,2015-08-21,Camelback East,133,PH
"W Roma Ave Phoenix, AZ 85013",3,2,1500,zillow_ph,http://www.zillow.com/homedetails/W-Roma-Ave-Phoenix-AZ-85013/2101397588_zpid/,-112.082,33.501,342.176,,,1,rental,1395,open,,,2015-08-21,Encanto,314,PH
"2219 N 92nd Dl, Phoenix, AZ 85037",3,2,1430,zillow_ph,http://www.zillow.com/homedetails/2219-N-92nd-Dl-Phoenix-AZ-85037/2130009698_zpid/,-112.26,33.4743,313.12,,,1,rental,975,open,,,2015-08-21,Maryvale,208,PH
"3716 W Mescal St, Phoenix, AZ 85029",3,2,1821,zillow_ph,http://www.zillow.com/homedetails/3716-W-Mescal-St-Phoenix-AZ-85029/7743646_zpid/,-112.139,33.5862,378.431,,,1,rental,1100,open,,,2015-08-21,North Mountain,176,PH
"7234 S 40th Ave, Phoenix, AZ 85041",3,2,2061,zillow_ph,http://www.zillow.com/homedetails/7234-S-40th-Ave-Phoenix-AZ-85041/2114092127_zpid/,-112.145,33.3805,317.944,,,1,rental,1175,open,,,2015-08-22,Laveen,158,PH
"1323 W Morrow Dr, Phoenix, AZ 85027",3,1,1417,zillow_ph,http://www.zillow.com/homedetails/1323-W-Morrow-Dr-Phoenix-AZ-85027/7969023_zpid/,-112.088,33.6569,424.663,,,1,rental,1045,open,,,2015-08-22,Deer Valley,307,PH
"7125 W Heatherbrae Dr, Phoenix, AZ 85033",3,2,1092,zillow_ph,http://www.zillow.com/homedetails/7125-W-Heatherbrae-Dr-Phoenix-AZ-85033/7711527_zpid/,-112.213,33.4981,331.602,,,1,rental,875,open,,,2015-08-27,Maryvale,208,PH
"4408 E Pershing Ave, Phoenix, AZ 85032",3,2,2007,zillow_ph,http://www.zillow.com/homedetails/4408-E-Pershing-Ave-Phoenix-AZ-85032/7822971_zpid/,-111.986,33.6069,427.015,,,1,rental,1475,open,,,2015-08-25,Paradise Valley,288,PH
"7035 N Barbados Pl, Phoenix, AZ 85021",3,2,1625,zillow_ph,http://www.zillow.com/homedetails/7035-N-Barbados-Pl-Phoenix-AZ-85021/7792432_zpid/,-112.081,33.5401,360.806,,,1,rental,1550,open,,,2015-08-25,Alahambra,201,PH
"2836 W Palo Verde Dr, Phoenix, AZ 85017",2,1,1192,zillow_ph,http://www.zillow.com/homedetails/2836-W-Palo-Verde-Dr-Phoenix-AZ-85017/7763050_zpid/,-112.121,33.5235,354.157,,,1,rental,825,open,,,2012-08-01,Alahambra,201,PH
"3342 E Mercer Ln, Phoenix, AZ 85028",3,2,2001,zillow_ph,http://www.zillow.com/homedetails/3342-E-Mercer-Ln-Phoenix-AZ-85028/7818386_zpid/,-112.009,33.5846,432.556,,,1,rental,4500,open,,,2015-08-25,Paradise Valley,288,PH
"4039 E Sunnyside Dr, Phoenix, AZ 85028",3,2,2071,zillow_ph,http://www.zillow.com/homedetails/4039-E-Sunnyside-Dr-Phoenix-AZ-85028/7826094_zpid/,-111.991,33.5946,422.075,,,1,rental,1795,open,,,2013-09-14,Paradise Valley,288,PH
"4534 E Villa Maria Dr, Phoenix, AZ 85032",3,2,1832,zillow_ph,http://www.zillow.com/homedetails/4534-E-Villa-Maria-Dr-Phoenix-AZ-85032/8017360_zpid/,-111.983,33.6525,460.685,,,1,rental,1195,open,,,2011-09-08,Paradise Valley,288,PH
"3506 E Montreal Pl, Phoenix, AZ 85032",2,2,2140,zillow_ph,http://www.zillow.com/homedetails/3506-E-Montreal-Pl-Phoenix-AZ-85032/8007105_zpid/,-112.007,33.6333,440.745,,,1,rental,950,open,,,2013-05-16,Paradise Valley,288,PH
"3901 W Park St, Phoenix, AZ 85041",3,2,1881,zillow_ph,http://www.zillow.com/homedetails/3901-W-Park-St-Phoenix-AZ-85041/55258382_zpid/,-112.143,33.3802,319.371,,,1,rental,1075,open,,,2015-08-25,Laveen,158,PH
"3313 E Topeka Dr, Phoenix, AZ 85050",3,2,1633,zillow_ph,http://www.zillow.com/homedetails/3313-E-Topeka-Dr-Phoenix-AZ-85050/7993006_zpid/,-112.011,33.6602,456.937,,,1,rental,1450,open,,,2015-08-24,Paradise Valley,288,PH
"1707 W Saint Catherine Ave, Phoenix, AZ 85041",5,3,2323,zillow_ph,http://www.zillow.com/homedetails/1707-W-Saint-Catherine-Ave-Phoenix-AZ-85041/60047477_zpid/,-112.095,33.388,335.959,,,1,rental,1300,open,,,2012-09-11,South Mountain,151,PH
"5121 S 15th Pl, Phoenix, AZ 85040",4,2,1580,zillow_ph,http://www.zillow.com/homedetails/5121-S-15th-Pl-Phoenix-AZ-85040/61627478_zpid/,-112.049,33.4002,336.875,,,1,rental,995,open,,,2015-08-25,South Mountain,151,PH
"1632 W Chanute Pass, Phoenix, AZ 85041",4,2,1675,zillow_ph,http://www.zillow.com/homedetails/1632-W-Chanute-Pass-Phoenix-AZ-85041/67789559_zpid/,-112.094,33.3984,328.23,,,1,rental,950,open,,,2011-09-02,South Mountain,151,PH
"5715 S 31st Dr, Phoenix, AZ 85041",5,2,2230,zillow_ph,http://www.zillow.com/homedetails/5715-S-31st-Dr-Phoenix-AZ-85041/67781676_zpid/,-112.126,33.3946,318.096,,,1,rental,1199,open,,,2013-10-06,Laveen,158,PH
"9914 W Odeum Ln, Tolleson, AZ 85353",4,2,1701,zillow_ph,http://www.zillow.com/homedetails/9914-W-Odeum-Ln-Tolleson-AZ-85353/71612142_zpid/,-112.273,33.4109,300.347,,,1,rental,1000,open,,,2011-08-24,Estrella,157,PH
"7235 S 54th Dr, Laveen, AZ 85339",4,3,2361,zillow_ph,http://www.zillow.com/homedetails/7235-S-54th-Dr-Laveen-AZ-85339/71627963_zpid/,-112.175,33.3803,307.54,,,1,rental,1175,open,,,2015-08-24,Laveen,158,PH
"5336 W El Cortez Trl, Phoenix, AZ 85083",3,2,2492,zillow_ph,http://www.zillow.com/homedetails/5336-W-El-Cortez-Trl-Phoenix-AZ-85083/71606881_zpid/,-112.175,33.718,437.481,,,1,rental,1895,open,,,2015-08-25,Deer Valley,307,PH
"5428 W Hobby Horse Dr, Phoenix, AZ 85083",3,3,1909,zillow_ph,http://www.zillow.com/homedetails/5428-W-Hobby-Horse-Dr-Phoenix-AZ-85083/89222254_zpid/,-112.175,33.7183,437.89,,,1,rental,1495,open,,,2015-08-23,Deer Valley,307,PH
"850 W Solano Dr, Phoenix, AZ 85013",4,2,2400,zillow_ph,http://www.zillow.com/homedetails/850-W-Solano-Dr-Phoenix-AZ-85013/7775560_zpid/,-112.085,33.5215,350.919,,,1,rental,2675,open,,,2015-08-25,Alahambra,201,PH
"11845 S 46th St, Phoenix, AZ 85044",3,2,2075,zillow_ph,http://www.zillow.com/homedetails/11845-S-46th-St-Phoenix-AZ-85044/8258327_zpid/,-111.987,33.3382,390.427,,,1,rental,1550,open,,,2013-01-12,Ahwatukee Foothills 0,274,PH
"16030 S 36th St, Phoenix, AZ 85048",3,2,2535,zillow_ph,http://www.zillow.com/homedetails/16030-S-36th-St-Phoenix-AZ-85048/8162988_zpid/,-112.006,33.3004,363.152,,,1,rental,2300,open,,,2015-07-03,Ahwatukee Foothills 0,274,PH
"6315 N 16th St, Phoenix, AZ 85016",2,1,885,zillow_ph,http://www.zillow.com/homedetails/6315-N-16th-St-Phoenix-AZ-85016/2111852039_zpid/,-112.047,33.5295,366.376,,,1,rental,775,open,,,2015-08-12,Camelback East,133,PH
"E Paradise Ln Scottsdale, AZ 85254",4,3,2616,zillow_ph,http://www.zillow.com/homedetails/E-Paradise-Ln-Scottsdale-AZ-85254/2106483830_zpid/,-111.952,33.6332,450.253,,,1,rental,6500,open,,,2014-06-13,Paradise Valley,288,PH
"6901 S Central Ave Mobile Home, Phoenix, AZ 85042",2,1,1500,zillow_ph,http://www.zillow.com/homedetails/6901-S-Central-Ave-Mobile-Home-Phoenix-AZ-85042/2103266906_zpid/,-112.036,33.3763,366.105,,,1,rental,750,open,,,2015-02-20,South Mountain,151,PH
"W Soft Wind Dr Glendale, AZ 85310",3,2,1951,zillow_ph,http://www.zillow.com/homedetails/W-Soft-Wind-Dr-Glendale-AZ-85310/2103020237_zpid/,-112.169,33.7025,425.075,,,1,rental,3000,open,,,2015-03-13,Deer Valley,307,PH
"1015 E Meadowbrook Ave, Phoenix, AZ 85014",2,1,1100,zillow_ph,http://www.zillow.com/homedetails/1015-E-Meadowbrook-Ave-Phoenix-AZ-85014/7769425_zpid/,-112.06,33.5035,344.506,,,1,rental,730,open,,,2015-07-06,Camelback East,133,PH
"E Sheridan St Phoenix, AZ 85008",3,1,900,zillow_ph,http://www.zillow.com/homedetails/E-Sheridan-St-Phoenix-AZ-85008/2139260574_zpid/,-112.016,33.4749,349.76,,,1,rental,1000,open,,,2015-08-24,Camelback East,133,PH
"5801 W Osborn Road Sold, Phoenix, AZ 85031",3,2,1482,zillow_ph,http://www.zillow.com/homedetails/5801-W-Osborn-Road-Sold-Phoenix-AZ-85031/2101309151_zpid/,-112.161,33.4968,341.357,,,1,rental,900,open,,,2015-08-25,Maryvale,208,PH
"212 W Roma Ave, Phoenix, AZ 85013",3,2,1500,zillow_ph,http://www.zillow.com/homedetails/212-W-Roma-Ave-Phoenix-AZ-85013/7770131_zpid/,-112.077,33.5014,342.215,,,1,rental,1395,open,,,2015-08-25,Encanto,314,PH
"W Diana Ave Phoenix, AZ 85051",3,2,1113,zillow_ph,http://www.zillow.com/homedetails/W-Diana-Ave-Phoenix-AZ-85051/2121410476_zpid/,-112.135,33.5625,370.052,,,1,rental,975,open,,,2015-08-25,North Mountain,176,PH
"1125 E Belmont Ave, Phoenix, AZ 85020",2,2,988,zillow_ph,http://www.zillow.com/homedetails/1125-E-Belmont-Ave-Phoenix-AZ-85020/7791275_zpid/,-112.058,33.5487,377.457,,,1,rental,895,open,,,2015-08-28,Camelback East,133,PH
"8117 N 29th Dr, Phoenix, AZ 85051",3,1,1300,zillow_ph,http://www.zillow.com/homedetails/8117-N-29th-Dr-Phoenix-AZ-85051/7751214_zpid/,-112.122,33.5554,368.155,,,1,rental,850,open,,,2015-07-29,North Mountain,176,PH
"2048 W Wagoner Rd, Phoenix, AZ 85023",4,2,2013,zillow_ph,http://www.zillow.com/homedetails/2048-W-Wagoner-Rd-Phoenix-AZ-85023/7957540_zpid/,-112.105,33.6536,418.024,,,1,rental,895,open,,,2015-08-27,Deer Valley,307,PH
"836 E Paradise Ln, Phoenix, AZ 85022",3,2,1921,zillow_ph,http://www.zillow.com/homedetails/836-E-Paradise-Ln-Phoenix-AZ-85022/8003550_zpid/,-112.063,33.6333,421.248,,,1,rental,1400,open,,,2015-08-29,North Mountain,176,PH
"938 E San Miguel Ave, Phoenix, AZ 85014",3,1,1170,zillow_ph,http://www.zillow.com/homedetails/938-E-San-Miguel-Ave-Phoenix-AZ-85014/7800056_zpid/,-112.061,33.5196,354.46,,,1,rental,1100,open,,,2015-08-30,Camelback East,133,PH
"2222 E Marconi Ave, Phoenix, AZ 85022",2,1,1138,zillow_ph,http://www.zillow.com/homedetails/2222-E-Marconi-Ave-Phoenix-AZ-85022/8008206_zpid/,-112.035,33.6305,433.286,,,1,rental,940,open,,,2015-08-29,Paradise Valley,288,PH
"1301 E Granada Rd, Phoenix, AZ 85006",3,1,1120,zillow_ph,http://www.zillow.com/homedetails/1301-E-Granada-Rd-Phoenix-AZ-85006/7533126_zpid/,-112.054,33.4682,336.262,,,1,rental,1000,open,,,2015-08-29,Encanto,314,PH
"6630 W Paso Trl, Phoenix, AZ 85083",4,2,1571,zillow_ph,http://www.zillow.com/homedetails/6630-W-Paso-Trl-Phoenix-AZ-85083/50184929_zpid/,-112.202,33.7208,432.226,,,1,rental,1350,open,,,2015-08-29,Deer Valley,307,PH
"2411 W Augusta Ave, Phoenix, AZ 85021",2,1,750,zillow_ph,http://www.zillow.com/homedetails/2411-W-Augusta-Ave-Phoenix-AZ-85021/7779298_zpid/,-112.111,33.5512,365.547,,,1,rental,850,open,,,2015-08-29,Alahambra,201,PH
"615 E Cody Dr, Phoenix, AZ 85040",4,2,1649,zillow_ph,http://www.zillow.com/homedetails/615-E-Cody-Dr-Phoenix-AZ-85040/71612489_zpid/,-112.065,33.4015,329.988,,,1,rental,1025,open,,,2015-06-18,South Mountain,151,PH
"2138 W Redbird Dr, Phoenix, AZ 85085",5,3,3128,zillow_ph,http://www.zillow.com/homedetails/2138-W-Redbird-Dr-Phoenix-AZ-85085/71620842_zpid/,-112.106,33.7291,455.916,,,1,rental,1850,open,,,2015-08-26,Deer Valley,307,PH
"7204 S 14th St, Phoenix, AZ 85042",4,2,1889,zillow_ph,http://www.zillow.com/homedetails/7204-S-14th-St-Phoenix-AZ-85042/71619515_zpid/,-112.052,33.3814,354.39,,,1,rental,1175,open,,,2015-07-23,South Mountain,151,PH
"3770 E Kristal Way, Phoenix, AZ 85050",3,2,1588,zillow_ph,http://www.zillow.com/homedetails/3770-E-Kristal-Way-Phoenix-AZ-85050/81956372_zpid/,-112.001,33.6619,461.908,,,1,rental,1495,open,,,2015-08-26,Paradise Valley,288,PH
"2525 E Earll Dr, Phoenix, AZ 85016",3,2,1246,zillow_ph,http://www.zillow.com/homedetails/2525-E-Earll-Dr-Phoenix-AZ-85016/7539242_zpid/,-112.027,33.4837,349.4,,,1,rental,1250,open,,,2015-08-29,Camelback East,133,PH
"4423 N 24th Way, Phoenix, AZ 85016",3,3,2140,zillow_ph,http://www.zillow.com/homedetails/4423-N-24th-Way-Phoenix-AZ-85016/2106293650_zpid/,-112.028,33.5006,356.455,,,1,rental,2295,open,,,2015-04-09,Camelback East,133,PH
"W Campbell Ave Phoenix, AZ 85015",3,3,2082,zillow_ph,http://www.zillow.com/homedetails/W-Campbell-Ave-Phoenix-AZ-85015/2103130884_zpid/,-112.102,33.5025,343.319,,,1,rental,2000,open,,,2015-06-18,Alahambra,201,PH
"3215 E Flower St, Phoenix, AZ 85018",4,4,2134,zillow_ph,http://www.zillow.com/homedetails/3215-E-Flower-St-Phoenix-AZ-85018/81986845_zpid/,-112.012,33.4855,356.952,,,1,rental,2300,open,,,2015-07-01,Camelback East,133,PH
"5550 N 16th St, Phoenix, AZ 85016",2,3,1841,zillow_ph,http://www.zillow.com/homedetails/5550-N-16th-St-Phoenix-AZ-85016/121711554_zpid/,-112.048,33.5176,355.186,,,1,rental,2500,open,,,2015-08-26,Camelback East,133,PH
"2226 E Vista Dr, Phoenix, AZ 85022",4,2,1364,zillow_ph,http://www.zillow.com/homedetails/2226-E-Vista-Dr-Phoenix-AZ-85022/2101299330_zpid/,-112.034,33.622,437.747,,,1,rental,1250,open,,,2015-09-07,Paradise Valley,288,PH
"6224 S 1st St, Phoenix, AZ 85042",3,2,1277,zillow_ph,http://www.zillow.com/homedetails/6224-S-1st-St-Phoenix-AZ-85042/7525701_zpid/,-112.072,33.3896,341.907,,,1,rental,800,open,,,2015-08-29,South Mountain,151,PH
"W Gaby Rd Phoenix, AZ 85041",3,2,1665,zillow_ph,http://www.zillow.com/homedetails/W-Gaby-Rd-Phoenix-AZ-85041/2101770103_zpid/,-112.113,33.4037,319.842,,,1,rental,1050,open,,,2015-08-30,South Mountain,151,PH
"4686 N 13th St, Phoenix, AZ 85014",2,1,900,zillow_ph,http://www.zillow.com/homedetails/4686-N-13th-St-Phoenix-AZ-85014/2101266994_zpid/,-112.054,33.5053,346.372,,,1,rental,900,open,,,2015-08-30,Camelback East,133,PH
"911 E San Juan Ave, Phoenix, AZ 85014",3,1,1170,zillow_ph,http://www.zillow.com/homedetails/911-E-San-Juan-Ave-Phoenix-AZ-85014/7800077_zpid/,-112.062,33.5184,353.293,,,1,rental,1050,open,,,2015-08-30,Camelback East,133,PH
"3807 E Hillery Dr, Phoenix, AZ 85032",3,2,1064,zillow_ph,http://www.zillow.com/homedetails/3807-E-Hillery-Dr-Phoenix-AZ-85032/8013395_zpid/,-112.0,33.6218,434.334,,,1,rental,1095,open,,,2015-09-04,Paradise Valley,288,PH
"4901 E Indianola Ave, Phoenix, AZ 85018",3,1,1100,zillow_ph,http://www.zillow.com/homedetails/4901-E-Indianola-Ave-Phoenix-AZ-85018/7565857_zpid/,-111.976,33.4911,378.013,,,1,rental,1575,open,,,2015-09-02,Camelback East,133,PH
"4525 E Heatherbrae Dr, Phoenix, AZ 85018",4,2,1819,zillow_ph,http://www.zillow.com/homedetails/4525-E-Heatherbrae-Dr-Phoenix-AZ-85018/7837367_zpid/,-111.984,33.4975,378.527,,,1,rental,1295,open,,,2013-12-23,Camelback East,133,PH
"3038 E Yucca St, Phoenix, AZ 85028",3,2,1570,zillow_ph,http://www.zillow.com/homedetails/3038-E-Yucca-St-Phoenix-AZ-85028/7819086_zpid/,-112.016,33.5885,434.772,,,1,rental,1195,open,,,2014-04-26,Paradise Valley,288,PH
"12424 N 60th St, Scottsdale, AZ 85254",4,3,3050,zillow_ph,http://www.zillow.com/homedetails/12424-N-60th-St-Scottsdale-AZ-85254/7822197_zpid/,-111.952,33.6001,424.107,,,1,rental,2990,open,,,2015-09-07,Paradise Valley,288,PH
"4116 E Sweetwater Ave, Phoenix, AZ 85032",2,1,840,zillow_ph,http://www.zillow.com/homedetails/4116-E-Sweetwater-Ave-Phoenix-AZ-85032/7823059_zpid/,-111.993,33.6046,425.84,,,1,rental,1050,open,,,2015-08-03,Paradise Valley,288,PH
"1613 W North Ln, Phoenix, AZ 85021",3,1,1000,zillow_ph,http://www.zillow.com/homedetails/1613-W-North-Ln-Phoenix-AZ-85021/7782123_zpid/,-112.094,33.5811,382.553,,,1,rental,825,open,,,2011-11-08,North Mountain,176,PH
"1510 E Marco Polo Rd, Phoenix, AZ 85024",3,2,1883,zillow_ph,http://www.zillow.com/homedetails/1510-E-Marco-Polo-Rd-Phoenix-AZ-85024/7995622_zpid/,-112.05,33.6671,454.866,,,1,rental,1350,open,,,2015-09-05,Deer Valley,307,PH
"3542 E Anderson Dr, Phoenix, AZ 85032",4,3,2140,zillow_ph,http://www.zillow.com/homedetails/3542-E-Anderson-Dr-Phoenix-AZ-85032/7998674_zpid/,-112.007,33.6465,449.023,,,1,rental,1245,open,,,2015-09-04,Paradise Valley,288,PH
"3229 W Pierce St, Phoenix, AZ 85009",3,1,891,zillow_ph,http://www.zillow.com/homedetails/3229-W-Pierce-St-Phoenix-AZ-85009/7513888_zpid/,-112.13,33.4557,325.971,,,1,rental,900,open,,,2015-08-06,Estrella,157,PH
"4911 W Tonto Rd, Glendale, AZ 85308",3,2,1593,zillow_ph,http://www.zillow.com/homedetails/4911-W-Tonto-Rd-Glendale-AZ-85308/7938034_zpid/,-112.166,33.6648,398.105,,,1,rental,1200,open,,,2012-04-16,Deer Valley,307,PH
"9913 W Kirby Ave, Tolleson, AZ 85353",4,3,2319,zillow_ph,http://www.zillow.com/homedetails/9913-W-Kirby-Ave-Tolleson-AZ-85353/52389292_zpid/,-112.274,33.4157,298.246,,,1,rental,1330,open,,,2015-09-04,Estrella,157,PH
"16412 N 49th Ave, Glendale, AZ 85306",3,2,1866,zillow_ph,http://www.zillow.com/homedetails/16412-N-49th-Ave-Glendale-AZ-85306/7950959_zpid/,-112.164,33.6342,387.152,,,1,rental,1395,open,,,2015-09-04,Deer Valley,307,PH
"931 E Wagoner Rd, Phoenix, AZ 85022",2,1,1134,zillow_ph,http://www.zillow.com/homedetails/931-E-Wagoner-Rd-Phoenix-AZ-85022/8002560_zpid/,-112.06,33.6527,429.279,,,1,rental,1199,open,,,2011-06-03,Deer Valley,307,PH
"8226 W Lumbee St, Phoenix, AZ 85043",5,2,2100,zillow_ph,http://www.zillow.com/homedetails/8226-W-Lumbee-St-Phoenix-AZ-85043/60047334_zpid/,-112.237,33.4339,307.395,,,1,rental,1350,open,,,2012-04-03,Estrella,157,PH
"3318 E Montecito Ave, Phoenix, AZ 85018",4,2,2138,zillow_ph,http://www.zillow.com/homedetails/3318-E-Montecito-Ave-Phoenix-AZ-85018/7834387_zpid/,-112.009,33.4999,366.069,,,1,rental,2000,open,,,2011-11-18,Camelback East,133,PH
"3624 N 72nd Ln, Phoenix, AZ 85033",3,2,1262,zillow_ph,http://www.zillow.com/homedetails/3624-N-72nd-Ln-Phoenix-AZ-85033/7468945_zpid/,-112.216,33.4906,328.142,,,1,rental,795,open,,,2011-01-11,Maryvale,208,PH
"4636 E Evans Dr, Phoenix, AZ 85032",4,3,2718,zillow_ph,http://www.zillow.com/homedetails/4636-E-Evans-Dr-Phoenix-AZ-85032/8029142_zpid/,-111.981,33.6183,433.474,,,1,rental,2495,open,,,2015-01-30,Paradise Valley,288,PH
"4314 W Heyerdahl Dr, Phoenix, AZ 85087",4,3,2546,zillow_ph,http://www.zillow.com/homedetails/4314-W-Heyerdahl-Dr-Phoenix-AZ-85087/71601917_zpid/,-112.153,33.872,575.724,,,1,rental,1635,open,,,2015-07-25,New Village,249,PH
"9212 W Williams St, Tolleson, AZ 85353",3,2,2048,zillow_ph,http://www.zillow.com/homedetails/9212-W-Williams-St-Tolleson-AZ-85353/81975254_zpid/,-112.258,33.4192,302.043,,,1,rental,4800,open,,,2015-09-03,Estrella,157,PH
"23519 N 24th Ter, Phoenix, AZ 85024",3,3,1829,zillow_ph,http://www.zillow.com/homedetails/23519-N-24th-Ter-Phoenix-AZ-85024/82823767_zpid/,-112.03,33.7002,478.658,,,1,rental,1799,open,,,2012-02-09,Desert View,273,PH
"4921 W Kastler Ln, Phoenix, AZ 85087",3,2,2128,zillow_ph,http://www.zillow.com/homedetails/4921-W-Kastler-Ln-Phoenix-AZ-85087/81954433_zpid/,-112.166,33.8814,585.139,,,1,rental,1575,open,,,2015-09-04,New Village,249,PH
"5564 N 12th St, Phoenix, AZ 85014",3,2,2371,zillow_ph,http://www.zillow.com/homedetails/5564-N-12th-St-Phoenix-AZ-85014/82823499_zpid/,-112.057,33.5184,354.528,,,1,rental,3000,open,,,2015-07-30,Camelback East,133,PH
"18202 N 18th Pl, Phoenix, AZ 85022",3,2,1453,zillow_ph,http://www.zillow.com/homedetails/18202-N-18th-Pl-Phoenix-AZ-85022/8001374_zpid/,-112.043,33.6515,439.187,,,1,rental,1195,open,,,2012-01-19,Paradise Valley,288,PH
"4555 W Corrine Dr, Glendale, AZ 85304",3,2,1845,zillow_ph,http://www.zillow.com/homedetails/4555-W-Corrine-Dr-Glendale-AZ-85304/7955164_zpid/,-112.158,33.6001,376.955,,,1,rental,1250,open,,,2015-09-01,North Mountain,176,PH
"3634 W Redfield Rd, Phoenix, AZ 85053",4,2,1980,zillow_ph,http://www.zillow.com/homedetails/3634-W-Redfield-Rd-Phoenix-AZ-85053/7944469_zpid/,-112.138,33.6141,386.512,,,1,rental,1495,open,,,2015-08-06,North Mountain,176,PH
"2910 E Cholla St, Phoenix, AZ 85028",3,2,1557,zillow_ph,http://www.zillow.com/homedetails/2910-E-Cholla-St-Phoenix-AZ-85028/7819393_zpid/,-112.019,33.5895,436.718,,,1,rental,1295,open,,,2012-10-27,Paradise Valley,288,PH
"7154 W Globe Ave, Phoenix, AZ 85043",3,2,1711,zillow_ph,http://www.zillow.com/homedetails/7154-W-Globe-Ave-Phoenix-AZ-85043/2115877093_zpid/,-112.214,33.4187,307.354,,,1,rental,1050,open,,,2013-07-17,Estrella,157,PH
"2300 W Missouri Ave, Phoenix, AZ 85015",3,2,1200,zillow_ph,http://www.zillow.com/homedetails/2300-W-Missouri-Ave-Phoenix-AZ-85015/2101252709_zpid/,-112.108,33.5168,349.413,,,1,rental,795,open,,,2015-09-01,Alahambra,201,PH
"1004 E Pierson St, Phoenix, AZ 85014",3,1,1167,zillow_ph,http://www.zillow.com/homedetails/1004-E-Pierson-St-Phoenix-AZ-85014/7769356_zpid/,-112.06,33.5077,346.989,,,1,rental,1100,open,,,2015-09-02,Camelback East,133,PH
"2604 E Bighorn Ave, Phoenix, AZ 85048",4,2,2500,zillow_ph,http://www.zillow.com/homedetails/2604-E-Bighorn-Ave-Phoenix-AZ-85048/2101219308_zpid/,-112.026,33.3063,379.822,,,1,rental,1599,open,,,2015-09-03,Ahwatukee Foothills 0,274,PH
"334 E Monte Way, Phoenix, AZ 85042",3,2,1300,zillow_ph,http://www.zillow.com/homedetails/334-E-Monte-Way-Phoenix-AZ-85042/2101214325_zpid/,-112.069,33.3609,396.029,,,1,rental,1025,open,,,2015-09-03,South Mountain,151,PH
"1917 E Avalon Dr, Phoenix, AZ 85016",3,2,1333,zillow_ph,http://www.zillow.com/homedetails/1917-E-Avalon-Dr-Phoenix-AZ-85016/7540140_zpid/,-112.04,33.4831,343.893,,,1,rental,895,open,,,2015-09-04,Encanto,314,PH
"E Villa Rita Dr Phoenix, AZ 85022",2,2,1097,zillow_ph,http://www.zillow.com/homedetails/E-Villa-Rita-Dr-Phoenix-AZ-85022/2101199803_zpid/,-112.056,33.6505,430.659,,,1,rental,1100,open,,,2015-09-05,Deer Valley,307,PH
"E Amelia Ave Phoenix, AZ 85018",3,1,1100,zillow_ph,http://www.zillow.com/homedetails/E-Amelia-Ave-Phoenix-AZ-85018/2101193518_zpid/,-111.991,33.4941,370.874,,,1,rental,1475,open,,,2015-09-07,Camelback East,133,PH
"4801 W Aster Dr, Glendale, AZ 85304",3,2,1690,zillow_ph,http://www.zillow.com/homedetails/4801-W-Aster-Dr-Glendale-AZ-85304/7954582_zpid/,-112.162,33.602,376.91,,,1,rental,1095,open,,,2015-09-16,North Mountain,176,PH
"4770 W Menadota Dr, Glendale, AZ 85308",3,2,1136,zillow_ph,http://www.zillow.com/homedetails/4770-W-Menadota-Dr-Glendale-AZ-85308/7937529_zpid/,-112.163,33.6686,400.538,,,1,rental,995,open,,,2015-09-19,Deer Valley,307,PH
"5026 E Oakhurst Way, Scottsdale, AZ 85254",5,3,3400,zillow_ph,http://www.zillow.com/homedetails/5026-E-Oakhurst-Way-Scottsdale-AZ-85254/7826421_zpid/,-111.973,33.591,418.019,,,1,rental,2995,open,,,2015-09-15,Paradise Valley,288,PH
"4126 N 30th Dr, Phoenix, AZ 85017",3,1,1371,zillow_ph,http://www.zillow.com/homedetails/4126-N-30th-Dr-Phoenix-AZ-85017/7768477_zpid/,-112.125,33.496,343.269,,,1,rental,825,open,,,2015-09-09,Alahambra,201,PH
"3134 E Cottonwood Ln, Phoenix, AZ 85048",4,3,2000,zillow_ph,http://www.zillow.com/homedetails/3134-E-Cottonwood-Ln-Phoenix-AZ-85048/8159266_zpid/,-112.015,33.2938,362.571,,,1,rental,1750,open,,,2015-09-09,Ahwatukee Foothills 0,274,PH
"17435 N 46th St, Phoenix, AZ 85032",4,2,1881,zillow_ph,http://www.zillow.com/homedetails/17435-N-46th-St-Phoenix-AZ-85032/8019181_zpid/,-111.981,33.6454,454.325,,,1,rental,1800,open,,,2015-09-18,Paradise Valley,288,PH
"4749 E Desert Wind Dr, Phoenix, AZ 85044",3,2,1300,zillow_ph,http://www.zillow.com/homedetails/4749-E-Desert-Wind-Dr-Phoenix-AZ-85044/8261143_zpid/,-111.982,33.3157,375.329,,,1,rental,1195,open,,,2015-09-17,Ahwatukee Foothills 0,274,PH
"19021 N 12th Dr, Phoenix, AZ 85027",3,2,1181,zillow_ph,http://www.zillow.com/homedetails/19021-N-12th-Dr-Phoenix-AZ-85027/7969740_zpid/,-112.086,33.6591,427.112,,,1,rental,1150,open,,,2015-09-19,Deer Valley,307,PH
"3833 W Mission Ln, Phoenix, AZ 85051",4,2,1931,zillow_ph,http://www.zillow.com/homedetails/3833-W-Mission-Ln-Phoenix-AZ-85051/7746885_zpid/,-112.142,33.5712,372.608,,,1,rental,1350,open,,,2015-09-10,North Mountain,176,PH
"4401 W Redfield Rd, Glendale, AZ 85306",3,2,1778,zillow_ph,http://www.zillow.com/homedetails/4401-W-Redfield-Rd-Glendale-AZ-85306/7952095_zpid/,-112.153,33.6138,384.374,,,1,rental,1300,open,,,2015-09-11,North Mountain,176,PH
"16053 S 18th Ave, Phoenix, AZ 85045",3,2,1854,zillow_ph,http://www.zillow.com/homedetails/16053-S-18th-Ave-Phoenix-AZ-85045/8284954_zpid/,-112.099,33.2999,380.094,,,1,rental,1450,open,,,2015-09-15,Ahwatukee Foothills 0,274,PH
"3029 E Roveen Ave, Phoenix, AZ 85032",3,2,1632,zillow_ph,http://www.zillow.com/homedetails/3029-E-Roveen-Ave-Phoenix-AZ-85032/7814896_zpid/,-112.016,33.6055,431.878,,,1,rental,1495,open,,,2015-09-15,Paradise Valley,288,PH
"12219 S Shasta Pl, Phoenix, AZ 85044",3,2,2300,zillow_ph,http://www.zillow.com/homedetails/12219-S-Shasta-Pl-Phoenix-AZ-85044/8149449_zpid/,-111.994,33.3358,398.106,,,1,rental,1450,open,,,2015-09-18,Ahwatukee Foothills 0,274,PH
"6018 W Mulberry Dr, Phoenix, AZ 85033",3,1,1030,zillow_ph,http://www.zillow.com/homedetails/6018-W-Mulberry-Dr-Phoenix-AZ-85033/7497852_zpid/,-112.189,33.4872,332.562,,,1,rental,795,open,,,2015-09-14,Maryvale,208,PH
"1626 W Saint Catherine Ave, Phoenix, AZ 85041",3,2,1345,zillow_ph,http://www.zillow.com/homedetails/1626-W-Saint-Catherine-Ave-Phoenix-AZ-85041/56392365_zpid/,-112.094,33.3885,335.423,,,1,rental,1000,open,,,2015-09-11,South Mountain,151,PH
"4202 W Denton Ln, Phoenix, AZ 85019",4,2,1997,zillow_ph,http://www.zillow.com/homedetails/4202-W-Denton-Ln-Phoenix-AZ-85019/92353875_zpid/,-112.149,33.5165,350.183,,,1,rental,1150,open,,,2015-09-11,Alahambra,201,PH
"510 E Piute Ave, Phoenix, AZ 85024",3,2,1100,zillow_ph,http://www.zillow.com/homedetails/510-E-Piute-Ave-Phoenix-AZ-85024/7967879_zpid/,-112.067,33.6635,435.482,,,1,rental,1150,open,,,2015-09-18,Deer Valley,307,PH
"502 W Monona Dr, Phoenix, AZ 85027",3,1,1440,zillow_ph,http://www.zillow.com/homedetails/502-W-Monona-Dr-Phoenix-AZ-85027/7967313_zpid/,-112.081,33.6755,438.866,,,1,rental,1195,open,,,2015-09-09,Deer Valley,307,PH
"3033 W Grenadine Rd, Phoenix, AZ 85041",4,3,2400,zillow_ph,http://www.zillow.com/homedetails/3033-W-Grenadine-Rd-Phoenix-AZ-85041/67789420_zpid/,-112.124,33.3985,317.162,,,1,rental,1249,open,,,2015-09-17,Laveen,158,PH
"3910 E Pollack St, Phoenix, AZ 85042",4,3,1770,zillow_ph,http://www.zillow.com/homedetails/3910-E-Pollack-St-Phoenix-AZ-85042/62728260_zpid/,-111.998,33.3806,362.016,,,1,rental,1450,open,,,2015-09-16,South Mountain,151,PH
"22520 N 38th Pl, Phoenix, AZ 85050",3,3,3090,zillow_ph,http://www.zillow.com/homedetails/22520-N-38th-Pl-Phoenix-AZ-85050/67791805_zpid/,-111.995,33.6912,492.047,,,1,rental,2999,open,,,2015-09-11,Desert View,273,PH
"7929 S Kelsie Dr, Laveen, AZ 85339",3,2,1347,zillow_ph,http://www.zillow.com/homedetails/7929-S-Kelsie-Dr-Laveen-AZ-85339/67782762_zpid/,-112.201,33.3736,304.488,,,1,rental,1150,open,,,2015-09-15,Laveen,158,PH
"2514 W Mark Ln, Phoenix, AZ 85085",3,2,1860,zillow_ph,http://www.zillow.com/homedetails/2514-W-Mark-Ln-Phoenix-AZ-85085/71628356_zpid/,-112.113,33.7445,462.332,,,1,rental,1500,open,,,2015-09-11,Deer Valley,307,PH
"27723 N 18th Dr, Phoenix, AZ 85085",3,2,1783,zillow_ph,http://www.zillow.com/homedetails/27723-N-18th-Dr-Phoenix-AZ-85085/81970272_zpid/,-112.098,33.7365,475.304,,,1,rental,1500,open,,,2015-09-15,North Gateway,219,PH
"2423 W Fawn Dr, Phoenix, AZ 85041",5,3,2685,zillow_ph,http://www.zillow.com/homedetails/2423-W-Fawn-Dr-Phoenix-AZ-85041/81952898_zpid/,-112.112,33.376,335.384,,,1,rental,1400,open,,,2015-09-18,South Mountain,151,PH
"7507 S 30th Run, Phoenix, AZ 85042",3,2,1439,zillow_ph,http://www.zillow.com/homedetails/7507-S-30th-Run-Phoenix-AZ-85042/82823456_zpid/,-112.016,33.3789,359.851,,,1,rental,1245,open,,,2015-09-09,South Mountain,151,PH
"315 W Herro Ln, Phoenix, AZ 85013",3,2,2236,zillow_ph,http://www.zillow.com/homedetails/315-W-Herro-Ln-Phoenix-AZ-85013/109634393_zpid/,-112.079,33.5322,357.054,,,1,rental,2400,open,,,2015-09-10,Alahambra,201,PH
"5732 W Encanto Blvd, Phoenix, AZ 85035",3,2,1375,zillow_ph,http://www.zillow.com/homedetails/5732-W-Encanto-Blvd-Phoenix-AZ-85035/7492020_zpid/,-112.184,33.4735,327.767,,,1,rental,930,open,,,2015-09-18,Maryvale,208,PH
"E Ashland Ave Phoenix, AZ 85004",3,2,2100,zillow_ph,http://www.zillow.com/homedetails/E-Ashland-Ave-Phoenix-AZ-85004/2103329704_zpid/,-112.072,33.4753,333.377,,,1,rental,2650,open,,,2015-06-15,Encanto,314,PH
"6230 E Via Estrella Ave, Paradise Valley, AZ 85253",4,2,2528,zillow_ph,http://www.zillow.com/homedetails/6230-E-Via-Estrella-Ave-Paradise-Valley-AZ-85253/2101777025_zpid/,-111.946,33.5778,412.028,,,1,rental,2500,open,,,2015-07-06,Paradise Valley,288,PH
"5121 E Nambe St, Phoenix, AZ 85044",3,1,1200,zillow_ph,http://www.zillow.com/homedetails/5121-E-Nambe-St-Phoenix-AZ-85044/8151172_zpid/,-111.974,33.3299,378.017,,,1,rental,1195,open,,,2015-07-14,Ahwatukee Foothills 0,274,PH
"E Weldon Ave Phoenix, AZ 85016",4,2,1819,zillow_ph,http://www.zillow.com/homedetails/E-Weldon-Ave-Phoenix-AZ-85016/2101509625_zpid/,-112.03,33.4903,351.577,,,1,rental,1650,open,,,2015-08-21,Camelback East,133,PH
"4301 E Greenway Ln, Phoenix, AZ 85032",4,2,2162,zillow_ph,http://www.zillow.com/homedetails/4301-E-Greenway-Ln-Phoenix-AZ-85032/8029814_zpid/,-111.989,33.6247,437.615,,,1,rental,2000,open,,,2015-09-09,Paradise Valley,288,PH
"N 92nd Ln Phoenix, AZ 85037",4,2,2881,zillow_ph,http://www.zillow.com/homedetails/N-92nd-Ln-Phoenix-AZ-85037/2101180774_zpid/,-112.259,33.4964,318.077,,,1,rental,1375,open,,,2015-09-09,Maryvale,208,PH
"W Southern Hills Rd Phoenix, AZ 85023",3,2,3056,zillow_ph,http://www.zillow.com/homedetails/W-Southern-Hills-Rd-Phoenix-AZ-85023/2101163190_zpid/,-112.077,33.6094,409.697,,,1,rental,3200,open,,,2015-09-11,North Mountain,176,PH
"910 E Fairmount Ave, Phoenix, AZ 85014",1,1,510,zillow_ph,http://www.zillow.com/homedetails/910-E-Fairmount-Ave-Phoenix-AZ-85014/2101162729_zpid/,-112.062,33.4932,339.977,,,1,rental,545,open,,,2015-09-11,Encanto,314,PH
"S Yuta St Phoenix, AZ 85044",3,2,1200,zillow_ph,http://www.zillow.com/homedetails/S-Yuta-St-Phoenix-AZ-85044/2120750214_zpid/,-111.993,33.3481,404.871,,,1,rental,1250,open,,,2015-09-13,Ahwatukee Foothills 0,274,PH
"2508 E Hazelwood St, Phoenix, AZ 85016",3,2,1137,zillow_ph,http://www.zillow.com/homedetails/2508-E-Hazelwood-St-Phoenix-AZ-85016/7803617_zpid/,-112.028,33.5045,358.069,,,1,rental,1295,open,,,2015-09-14,Camelback East,133,PH
"3805 W Saguaro Ln, Glendale, AZ 85310",3,2,1859,zillow_ph,http://www.zillow.com/homedetails/3805-W-Saguaro-Ln-Glendale-AZ-85310/2106908474_zpid/,-112.139,33.7088,431.626,,,1,rental,1375,open,,,2015-09-14,Deer Valley,307,PH
"E Hamblin Dr Phoenix, AZ 85050",3,2,2408,zillow_ph,http://www.zillow.com/homedetails/E-Hamblin-Dr-Phoenix-AZ-85050/2123808112_zpid/,-111.977,33.693,507.194,,,1,rental,2100,open,,,2015-09-15,Desert View,273,PH
"1301 E Hubbell St, Phoenix, AZ 85006",3,1,1447,zillow_ph,http://www.zillow.com/homedetails/1301-E-Hubbell-St-Phoenix-AZ-85006/7533102_zpid/,-112.054,33.4701,336.304,,,1,rental,895,open,,,2015-09-15,Encanto,314,PH
"2919 E Saltsage Dr, Phoenix, AZ 85048",3,2,1710,zillow_ph,http://www.zillow.com/homedetails/2919-E-Saltsage-Dr-Phoenix-AZ-85048/8159394_zpid/,-112.021,33.2959,366.177,,,1,rental,1450,open,,,2015-09-16,Ahwatukee Foothills 0,274,PH
"W Pierson St Phoenix, AZ 85013",3,2,1500,zillow_ph,http://www.zillow.com/homedetails/W-Pierson-St-Phoenix-AZ-85013/2105207238_zpid/,-112.082,33.5075,344.211,,,1,rental,1475,open,,,2015-09-17,Alahambra,201,PH
"5123 E Encanto Blvd, Phoenix, AZ 85035",3,1,1584,zillow_ph,http://www.zillow.com/homedetails/5123-E-Encanto-Blvd-Phoenix-AZ-85035/2103245796_zpid/,-112.17,33.473,329.44,,,1,rental,900,open,,,2015-09-18,Maryvale,208,PH
"604 N 5th Ave, Phoenix, AZ 85003",1,1,800,zillow_ph,http://www.zillow.com/homedetails/604-N-5th-Ave-Phoenix-AZ-85003/2101105735_zpid/,-112.08,33.4548,329.816,,,1,rental,875,open,,,2015-09-18,Central City,285,PH
"N 48th Dr Glendale, AZ 85304",3,2,1348,zillow_ph,http://www.zillow.com/homedetails/N-48th-Dr-Glendale-AZ-85304/2101099252_zpid/,-112.163,33.5955,372.862,,,1,rental,1295,open,,,2015-09-18,North Mountain,176,PH
"11515 N 91st St UNIT 140, Scottsdale, AZ 85260",2,2,1270,zillow_ph,http://www.zillow.com/homedetails/11515-N-91st-St-UNIT-140-Scottsdale-AZ-85260/8059188_zpid/,-111.883,33.5903,422.992,,,1,rental,1395,closed,3,2015-09-29,2015-09-26,North Scottsdale,94,PH
"1903 W Obispo Ave, Mesa, AZ 85202",3,2,1288,zillow_ph,http://www.zillow.com/homedetails/1903-W-Obispo-Ave-Mesa-AZ-85202/8191424_zpid/,-111.875,33.3614,365.93,,,1,rental,1200,open,,,2015-09-26,Southwest,204,PH
"3725 W Butler Dr, Phoenix, AZ 85051",3,2,1400,zillow_ph,http://www.zillow.com/homedetails/3725-W-Butler-Dr-Phoenix-AZ-85051/7752609_zpid/,-112.14,33.5601,368.112,,,1,rental,1150,open,,,2015-09-27,North Mountain,176,PH
"4533 E Rock Wren Rd, Phoenix, AZ 85044",4,2,1704,zillow_ph,http://www.zillow.com/homedetails/4533-E-Rock-Wren-Rd-Phoenix-AZ-85044/8165105_zpid/,-111.986,33.3112,372.274,,,1,rental,1450,open,,,2015-09-27,Ahwatukee Foothills 0,274,PH
"3721 W Villa Rita Dr, Glendale, AZ 85308",3,1,1414,zillow_ph,http://www.zillow.com/homedetails/3721-W-Villa-Rita-Dr-Glendale-AZ-85308/7948166_zpid/,-112.14,33.65,402.175,,,1,rental,1100,closed,3,2015-09-30,2015-09-27,Deer Valley,307,PH
"7458 E Hannibal St, Mesa, AZ 85207",3,2,1743,zillow_ph,http://www.zillow.com/homedetails/7458-E-Hannibal-St-Mesa-AZ-85207/8066866_zpid/,-111.67,33.4443,472.198,,,1,rental,1500,open,,,2015-09-26,Northeast 0,293,PH
"7714 E Vernon Ave, Scottsdale, AZ 85257",2,2,1400,zillow_ph,http://www.zillow.com/homedetails/7714-E-Vernon-Ave-Scottsdale-AZ-85257/7579647_zpid/,-111.914,33.4744,370.41,,,1,rental,1250,open,,,2015-09-26,South Scottsdale,148,PH
"29011 N 51st Pl, Cave Creek, AZ 85331",4,2,1950,zillow_ph,http://www.zillow.com/homedetails/29011-N-51st-Pl-Cave-Creek-AZ-85331/50183244_zpid/,-111.97,33.7488,582.675,,,1,rental,1700,open,,,2015-09-27,Desert View,273,PH
"1954 E Missouri Ave, Phoenix, AZ 85016",3,2,1492,zillow_ph,http://www.zillow.com/homedetails/1954-E-Missouri-Ave-Phoenix-AZ-85016/7809100_zpid/,-112.039,33.5168,357.156,,,1,rental,2375,open,,,2015-09-26,Camelback East,133,PH
"4010 W Park St, Phoenix, AZ 85041",3,2,1830,zillow_ph,http://www.zillow.com/homedetails/4010-W-Park-St-Phoenix-AZ-85041/55258600_zpid/,-112.145,33.3806,318.04,,,1,rental,1130,closed,2,2015-09-29,2015-09-27,Laveen,158,PH
"77 W Wilshire Dr, Phoenix, AZ 85003",2,2,1650,zillow_ph,http://www.zillow.com/homedetails/77-W-Wilshire-Dr-Phoenix-AZ-85003/7536740_zpid/,-112.078,33.4755,333.17,,,1,rental,1875,open,,,2015-09-26,Encanto,314,PH
"2326 W Oberlin Way, Phoenix, AZ 85085",4,2,2045,zillow_ph,http://www.zillow.com/homedetails/2326-W-Oberlin-Way-Phoenix-AZ-85085/55265793_zpid/,-112.11,33.7368,457.433,,,1,rental,1650,open,,,2015-09-26,Deer Valley,307,PH
"4607 W Wilshire Dr, Phoenix, AZ 85035",4,2,1242,zillow_ph,http://www.zillow.com/homedetails/4607-W-Wilshire-Dr-Phoenix-AZ-85035/7495364_zpid/,-112.158,33.4758,329.347,,,1,rental,895,closed,2,2015-09-29,2015-09-27,Maryvale,208,PH
"3055 N Red Mtn UNIT 207, Mesa, AZ 85207",4,2,2150,zillow_ph,http://www.zillow.com/homedetails/3055-N-Red-Mtn-UNIT-207-Mesa-AZ-85207/8080382_zpid/,-111.673,33.4744,499.729,,,1,rental,1750,open,,,2015-09-26,Northeast 0,293,PH
"4117 E Janice Way, Phoenix, AZ 85032",3,2,1215,zillow_ph,http://www.zillow.com/homedetails/4117-E-Janice-Way-Phoenix-AZ-85032/8029559_zpid/,-111.993,33.6242,437.269,,,1,rental,1200,open,,,2015-09-27,Paradise Valley,288,PH
"14000 N 94th St UNIT 1169, Scottsdale, AZ 85260",2,2,1279,zillow_ph,http://www.zillow.com/homedetails/14000-N-94th-St-UNIT-1169-Scottsdale-AZ-85260/62731602_zpid/,-111.881,33.6125,443.926,,,1,rental,1250,closed,2,2015-09-29,2015-09-27,North Scottsdale,94,PH
"16612 S 2nd Pl, Phoenix, AZ 85048",3,2,1907,zillow_ph,http://www.zillow.com/homedetails/16612-S-2nd-Pl-Phoenix-AZ-85048/8134748_zpid/,-112.072,33.2955,380.205,,,1,rental,1900,closed,3,2015-09-29,2015-09-26,Ahwatukee Foothills 0,274,PH
"13980 E Kalil Dr, Scottsdale, AZ 85259",3,2,2343,zillow_ph,http://www.zillow.com/homedetails/13980-E-Kalil-Dr-Scottsdale-AZ-85259/8045755_zpid/,-111.779,33.591,541.29,,,1,rental,2600,open,,,2015-09-26,North Scottsdale,94,PH
"1602 N 55th Ave, Phoenix, AZ 85035",4,2,1592,zillow_ph,http://www.zillow.com/homedetails/1602-N-55th-Ave-Phoenix-AZ-85035/7492832_zpid/,-112.178,33.4662,326.785,,,1,rental,900,closed,2,2015-09-29,2015-09-27,Maryvale,208,PH
"8117 E Via De Viva, Scottsdale, AZ 85258",2,2,1812,zillow_ph,http://www.zillow.com/homedetails/8117-E-Via-De-Viva-Scottsdale-AZ-85258/7855210_zpid/,-111.906,33.5482,395.113,,,1,rental,5500,closed,2,2015-09-29,2015-09-27,South Scottsdale,148,PH
"18811 N 19th Ave APT 2016, Phoenix, AZ 85027",2,2,1022,zillow_ph,http://www.zillow.com/homedetails/18811-N-19th-Ave-APT-2016-Phoenix-AZ-85027/7971352_zpid/,-112.098,33.6575,421.7,,,20,rental,850,open,,,2015-09-27,Deer Valley,307,PH
"2809 E Rock Wren Rd, Phoenix, AZ 85048",3,2,1463,zillow_ph,http://www.zillow.com/homedetails/2809-E-Rock-Wren-Rd-Phoenix-AZ-85048/8160697_zpid/,-112.021,33.3091,387.474,,,1,rental,1300,open,,,2015-09-26,Ahwatukee Foothills 0,274,PH
"15550 N Frank Lloyd Wright Blvd UNIT 1035, Scottsdale, AZ 85260",3,2,1656,zillow_ph,http://www.zillow.com/homedetails/15550-N-Frank-Lloyd-Wright-Blvd-UNIT-1035-Scottsdale-AZ-85260/8042605_zpid/,-111.882,33.627,457.957,,,1,rental,1650,open,,,2015-09-26,North Scottsdale,94,PH
"8120 E Valley View Rd, Scottsdale, AZ 85250",3,2,2100,zillow_ph,http://www.zillow.com/homedetails/8120-E-Valley-View-Rd-Scottsdale-AZ-85250/7839544_zpid/,-111.905,33.519,385.001,,,1,rental,2500,closed,3,2015-09-29,2015-09-26,South Scottsdale,148,PH
"1535 N Horne UNIT 25, Mesa, AZ 85203",3,2,1421,zillow_ph,http://www.zillow.com/homedetails/1535-N-Horne-UNIT-25-Mesa-AZ-85203/7618653_zpid/,-111.815,33.4447,382.387,,,1,rental,975,open,,,2015-09-26,Northwest,281,PH
"2308 S 66th Ln, Phoenix, AZ 85043",5,3,2800,zillow_ph,http://www.zillow.com/homedetails/2308-S-66th-Ln-Phoenix-AZ-85043/67773206_zpid/,-112.204,33.4269,311.414,,,1,rental,1325,closed,2,2015-09-29,2015-09-27,Estrella,157,PH
"3826 W Shumway Farm Rd, Phoenix, AZ 85041",4,2,2169,zillow_ph,http://www.zillow.com/homedetails/3826-W-Shumway-Farm-Rd-Phoenix-AZ-85041/67789784_zpid/,-112.141,33.3836,317.317,,,1,rental,1345,closed,2,2015-09-29,2015-09-27,Laveen,158,PH
"8236 W Florence Ave, Phoenix, AZ 85043",5,3,2609,zillow_ph,http://www.zillow.com/homedetails/8236-W-Florence-Ave-Phoenix-AZ-85043/67764606_zpid/,-112.238,33.4206,306.025,,,1,rental,1500,closed,2,2015-09-29,2015-09-27,Estrella,157,PH
"4354 N 82nd St UNIT 154, Scottsdale, AZ 85251",1,1,790,zillow_ph,http://www.zillow.com/homedetails/4354-N-82nd-St-UNIT-154-Scottsdale-AZ-85251/61628160_zpid/,-111.907,33.4988,379.571,,,1,rental,2600,open,,,2015-09-26,South Scottsdale,148,PH
"3135 S Fairfield Dr, Tempe, AZ 85282",3,1,1852,zillow_ph,http://www.zillow.com/homedetails/3135-S-Fairfield-Dr-Tempe-AZ-85282/7595428_zpid/,-111.898,33.3941,363.541,,,1,rental,1295,open,,,2015-09-26,Shalimar,255,PH
"2528 W Fawn Dr, Phoenix, AZ 85041",3,2,2320,zillow_ph,http://www.zillow.com/homedetails/2528-W-Fawn-Dr-Phoenix-AZ-85041/81980497_zpid/,-112.114,33.3755,333.128,,,1,rental,1350,closed,3,2015-09-30,2015-09-27,South Mountain,151,PH
"5995 N 78th St APT 1069, Scottsdale, AZ 85250",1,1,664,zillow_ph,http://www.zillow.com/homedetails/5995-N-78th-St-APT-1069-Scottsdale-AZ-85250/81767909_zpid/,-111.912,33.523,388.197,,,10,rental,875,open,,,2015-09-26,South Scottsdale,148,PH
"4937 W Marcus Dr, Phoenix, AZ 85083",5,4,3436,zillow_ph,http://www.zillow.com/homedetails/4937-W-Marcus-Dr-Phoenix-AZ-85083/67791036_zpid/,-112.171,33.7232,447.081,,,1,rental,2595,closed,3,2015-09-29,2015-09-26,Deer Valley,307,PH
"9026 S 58th Dr, Laveen, AZ 85339",4,2,1819,zillow_ph,http://www.zillow.com/homedetails/9026-S-58th-Dr-Laveen-AZ-85339/92352934_zpid/,-112.185,33.364,313.358,,,1,rental,1200,open,,,2015-09-26,Laveen,158,PH
"3244 W Joan De Arc Ave, Phoenix, AZ 85029",4,3,1704,zillow_ph,http://www.zillow.com/homedetails/3244-W-Joan-De-Arc-Ave-Phoenix-AZ-85029/7748006_zpid/,-112.129,33.6075,389.431,,,1,rental,1225,open,,,2015-09-26,North Mountain,176,PH
"1250 E Bethany Home Rd UNIT 23, Phoenix, AZ 85014",1,1,840,zillow_ph,http://www.zillow.com/homedetails/1250-E-Bethany-Home-Rd-UNIT-23-Phoenix-AZ-85014/7797315_zpid/,-112.054,33.5247,359.07,,,1,rental,850,closed,2,2015-09-29,2015-09-27,Camelback East,133,PH
"921 W University Dr UNIT 1205, Mesa, AZ 85201",2,1,956,zillow_ph,http://www.zillow.com/homedetails/921-W-University-Dr-UNIT-1205-Mesa-AZ-85201/7611400_zpid/,-111.851,33.4219,377.578,,,1,rental,850,open,,,2015-09-26,Southwest,204,PH
"425 E 2nd Ave, Mesa, AZ 85204",1,1,800,zillow_ph,http://www.zillow.com/homedetails/425-E-2nd-Ave-Mesa-AZ-85204/88793704_zpid/,-111.822,33.411,376.647,,,1,rental,560,closed,3,2015-09-29,2015-09-26,West Central,107,PH
"3827 E Willow Ave, Phoenix, AZ 85032",3,2,1240,zillow_ph,http://www.zillow.com/homedetails/3827-E-Willow-Ave-Phoenix-AZ-85032/7814122_zpid/,-111.998,33.6079,428.819,,,1,rental,1200,open,,,2015-09-27,Paradise Valley,288,PH
"6202 W Cheery Lynn Rd, Phoenix, AZ 85033",3,2,1401,zillow_ph,http://www.zillow.com/homedetails/6202-W-Cheery-Lynn-Rd-Phoenix-AZ-85033/7498267_zpid/,-112.194,33.4831,330.405,,,1,rental,850,open,,,2015-09-26,Maryvale,208,PH
"7979 E Princess Dr, Scottsdale, AZ 85255",3,3,2253,zillow_ph,http://www.zillow.com/homedetails/7979-E-Princess-Dr-Scottsdale-AZ-85255/8015518_zpid/,-111.91,33.6412,471.346,,,1,rental,3000,closed,3,2015-09-29,2015-09-26,North Scottsdale,94,PH
"2819 E Monte Cristo Ave APT 101, Phoenix, AZ 85032",2,2,900,zillow_ph,http://www.zillow.com/homedetails/2819-E-Monte-Cristo-Ave-APT-101-Phoenix-AZ-85032/2101024618_zpid/,-112.021,33.6318,436.676,,,1,rental,595,open,,,2015-09-26,Paradise Valley,288,PH
"1529 W 7th Dr, Mesa, AZ 85202",3,2,1450,zillow_ph,http://www.zillow.com/homedetails/1529-W-7th-Dr-Mesa-AZ-85202/7604622_zpid/,-111.865,33.4013,370.572,,,1,rental,1100,open,,,2015-09-26,Southwest,204,PH
"214 S Udall, Mesa, AZ 85204",1,1,800,zillow_ph,http://www.zillow.com/homedetails/214-S-Udall-Mesa-AZ-85204/2107561932_zpid/,-111.822,33.4108,376.689,,,1,rental,560,closed,3,2015-09-29,2015-09-26,West Central,107,PH
"210 S Udall, Mesa, AZ 85204",1,1,800,zillow_ph,http://www.zillow.com/homedetails/210-S-Udall-Mesa-AZ-85204/2105018186_zpid/,-111.822,33.4109,376.669,,,1,rental,560,closed,3,2015-09-29,2015-09-26,West Central,107,PH
"3006 E Cicero St APT 101, Mesa, AZ 85213",2,2,1000,zillow_ph,http://www.zillow.com/homedetails/3006-E-Cicero-St-APT-101-Mesa-AZ-85213/2101016552_zpid/,-111.767,33.4234,388.225,,,1,rental,750,closed,3,2015-09-29,2015-09-26,Central,238,PH
"6620 E Earll Dr APT 2, Scottsdale, AZ 85251",1,1,600,zillow_ph,http://www.zillow.com/homedetails/6620-E-Earll-Dr-APT-2-Scottsdale-AZ-85251/2101016561_zpid/,-111.938,33.4838,383.194,,,1,rental,625,closed,3,2015-09-29,2015-09-26,South Scottsdale,148,PH
"1838 E El Moro Ave, Mesa, AZ 85204",3,2,1092,zillow_ph,http://www.zillow.com/homedetails/1838-E-El-Moro-Ave-Mesa-AZ-85204/7627316_zpid/,-111.791,33.3989,376.062,,,1,rental,895,open,,,2015-09-26,West Central,107,PH
"901 E Berridge Ln # A, Phoenix, AZ 85014",2,2,1275,zillow_ph,http://www.zillow.com/homedetails/901-E-Berridge-Ln-A-Phoenix-AZ-85014/2101024683_zpid/,-112.062,33.525,356.571,,,1,rental,1195,closed,3,2015-09-29,2015-09-26,Camelback East,133,PH
"4510 E San Gabriel Avenue Phoenix Az # 85044, Phoenix, AZ 85044",3,2,1350,zillow_ph,http://www.zillow.com/homedetails/4510-E-San-Gabriel-Avenue-Phoenix-Az-85044-Phoenix-AZ-85044/2101015652_zpid/,-111.986,33.351,397.065,,,1,rental,1000,closed,2,2015-09-29,2015-09-27,Ahwatukee Foothills 0,274,PH
"2601 W Via Perugia Phoenix Az # 85086, Phoenix, AZ 85086",6,5,4306,zillow_ph,http://www.zillow.com/homedetails/2601-W-Via-Perugia-Phoenix-Az-85086-Phoenix-AZ-85086/2101015659_zpid/,-112.115,33.8011,528.721,,,1,rental,2499,closed,2,2015-09-29,2015-09-27,North Gateway,219,PH
"16621 N 49th Way Scottsdale Az # 85254, Scottsdale, AZ 85254",4,3,2302,zillow_ph,http://www.zillow.com/homedetails/16621-N-49th-Way-Scottsdale-Az-85254-Scottsdale-AZ-85254/2101015661_zpid/,-111.972,33.6377,450.91,,,1,rental,1800,closed,2,2015-09-29,2015-09-27,Paradise Valley,288,PH
"2662 N 43rd Ave, Phoenix, AZ 85009",2,1,1036,zillow_ph,http://www.zillow.com/homedetails/2662-N-43rd-Ave-Phoenix-AZ-85009/2101015260_zpid/,-112.153,33.4783,326.393,,,1,rental,550,closed,2,2015-09-29,2015-09-27,Maryvale,208,PH
"137 W Pierson St, Phoenix, AZ 85013",3,2,1500,zillow_ph,http://www.zillow.com/homedetails/137-W-Pierson-St-Phoenix-AZ-85013/7770021_zpid/,-112.077,33.5072,343.399,,,1,rental,1475,closed,2,2015-09-29,2015-09-27,Alahambra,201,PH
"19908 N 41st Ln, Glendale, AZ 85308",4,2,2490,zillow_ph,http://www.zillow.com/homedetails/19908-N-41st-Ln-Glendale-AZ-85308/2101015389_zpid/,-112.149,33.6674,404.428,,,1,rental,1850,closed,2,2015-09-29,2015-09-27,Deer Valley,307,PH
"2014 N Hunt Cir APT 104, Mesa, AZ 85203",2,1,850,zillow_ph,http://www.zillow.com/homedetails/2014-N-Hunt-Cir-APT-104-Mesa-AZ-85203/2101014789_zpid/,-111.798,33.4519,389.606,,,1,rental,575,closed,3,2015-09-30,2015-09-27,Northwest,281,PH
"333 E Roosevelt St, Phoenix, AZ 85004",1,1,650,zillow_ph,http://www.zillow.com/homedetails/333-E-Roosevelt-St-Phoenix-AZ-85004/2101014785_zpid/,-112.07,33.4587,331.188,,,1,rental,1026,closed,3,2015-09-30,2015-09-27,Central City,285,PH
"3711 E Monterosa St UNIT 5, Phoenix, AZ 85018",2,1,1088,zillow_ph,http://www.zillow.com/homedetails/3711-E-Monterosa-St-UNIT-5-Phoenix-AZ-85018/2105180984_zpid/,-112.001,33.4962,367.827,,,1,rental,950,closed,2,2015-09-29,2015-09-27,Camelback East,133,PH
"2520 S Rita Ln, Tempe, AZ 85282",3,2,1715,zillow_ph,http://www.zillow.com/homedetails/2520-S-Rita-Ln-Tempe-AZ-85282/7594800_zpid/,-111.922,33.4014,359.803,,,1,rental,1500,closed,2,2015-09-30,2015-09-28,Hughes Acres,211,PH
"7042 S Golfside Ln, Phoenix, AZ 85042",3,2,1703,zillow_ph,http://www.zillow.com/homedetails/7042-S-Golfside-Ln-Phoenix-AZ-85042/50186151_zpid/,-112.018,33.3821,354.434,,,1,rental,1495,closed,2,2015-09-30,2015-09-28,South Mountain,151,PH
"3504 E Carol Ave, Mesa, AZ 85204",3,2,1242,zillow_ph,http://www.zillow.com/homedetails/3504-E-Carol-Ave-Mesa-AZ-85204/7645451_zpid/,-111.756,33.4059,387.296,,,1,rental,995,closed,2,2015-09-30,2015-09-28,Central,238,PH
"461 W Holmes Ave UNIT 253, Mesa, AZ 85210",1,1,570,zillow_ph,http://www.zillow.com/homedetails/461-W-Holmes-Ave-UNIT-253-Mesa-AZ-85210/7599510_zpid/,-111.843,33.3878,369.691,,,1,rental,625,closed,2,2015-09-30,2015-09-28,Southwest,204,PH
"15692 N 104th St, Scottsdale, AZ 85255",4,2,1963,zillow_ph,http://www.zillow.com/homedetails/15692-N-104th-St-Scottsdale-AZ-85255/8042869_zpid/,-111.857,33.6288,487.146,,,1,rental,1995,open,,,2015-09-28,North Scottsdale,94,PH
"3727 E Joan De Arc Ave, Phoenix, AZ 85032",4,1,1546,zillow_ph,http://www.zillow.com/homedetails/3727-E-Joan-De-Arc-Ave-Phoenix-AZ-85032/7813800_zpid/,-112.001,33.6089,428.827,,,1,rental,1205,open,,,2015-09-28,Paradise Valley,288,PH
"7777 E Main St UNIT 159, Scottsdale, AZ 85251",2,2,1130,zillow_ph,http://www.zillow.com/homedetails/7777-E-Main-St-UNIT-159-Scottsdale-AZ-85251/7574289_zpid/,-111.913,33.4917,377.488,,,1,rental,3500,closed,2,2015-09-30,2015-09-28,South Scottsdale,148,PH
"14236 N 35th St, Phoenix, AZ 85032",4,2,1900,zillow_ph,http://www.zillow.com/homedetails/14236-N-35th-St-Phoenix-AZ-85032/8012243_zpid/,-112.008,33.6167,431.779,,,1,rental,1350,closed,2,2015-09-30,2015-09-28,Paradise Valley,288,PH
"7777 E Main St UNIT 153, Scottsdale, AZ 85251",2,2,1130,zillow_ph,http://www.zillow.com/homedetails/7777-E-Main-St-UNIT-153-Scottsdale-AZ-85251/7574283_zpid/,-111.913,33.4917,377.488,,,1,rental,2100,closed,2,2015-09-30,2015-09-28,South Scottsdale,148,PH
"3339 E Hononegh Dr, Phoenix, AZ 85050",4,2,2209,zillow_ph,http://www.zillow.com/homedetails/3339-E-Hononegh-Dr-Phoenix-AZ-85050/7991925_zpid/,-112.011,33.6713,464.345,,,1,rental,1700,open,,,2015-09-28,Paradise Valley,288,PH
"533 W Guadalupe Rd UNIT 2108, Mesa, AZ 85210",2,2,1003,zillow_ph,http://www.zillow.com/homedetails/533-W-Guadalupe-Rd-UNIT-2108-Mesa-AZ-85210/8201139_zpid/,-111.844,33.3638,368.733,,,1,rental,750,open,,,2015-09-28,Southwest,204,PH
"1536 W Hadley St, Phoenix, AZ 85007",3,2,1196,zillow_ph,http://www.zillow.com/homedetails/1536-W-Hadley-St-Phoenix-AZ-85007/7522603_zpid/,-112.093,33.4398,325.049,,,1,rental,935,closed,2,2015-09-30,2015-09-28,Central City,285,PH
"7777 E Main St UNIT 144, Scottsdale, AZ 85251",2,2,1130,zillow_ph,http://www.zillow.com/homedetails/7777-E-Main-St-UNIT-144-Scottsdale-AZ-85251/7574275_zpid/,-111.913,33.4917,377.488,,,1,rental,1050,open,,,2015-09-28,South Scottsdale,148,PH
"6885 E Cochise Rd APT 132, Paradise Valley, AZ 85253",2,2,1049,zillow_ph,http://www.zillow.com/homedetails/6885-E-Cochise-Rd-APT-132-Paradise-Valley-AZ-85253/7866491_zpid/,-111.934,33.5792,410.603,,,1,rental,1400,open,,,2015-09-28,North Scottsdale,94,PH
"8832 N 13th St, Phoenix, AZ 85020",3,1,1382,zillow_ph,http://www.zillow.com/homedetails/8832-N-13th-St-Phoenix-AZ-85020/7795525_zpid/,-112.055,33.5654,391.479,,,1,rental,1350,closed,2,2015-09-30,2015-09-28,North Mountain,176,PH
"4110 E San Gabriel Ave, Phoenix, AZ 85044",4,2,1800,zillow_ph,http://www.zillow.com/homedetails/4110-E-San-Gabriel-Ave-Phoenix-AZ-85044/8259198_zpid/,-111.995,33.3508,408.867,,,1,rental,1495,open,,,2015-09-28,Ahwatukee Foothills 0,274,PH
"10554 W Toronto Way, Tolleson, AZ 85353",3,2,1310,zillow_ph,http://www.zillow.com/homedetails/10554-W-Toronto-Way-Tolleson-AZ-85353/60046270_zpid/,-112.288,33.4224,297.492,,,1,rental,1000,closed,2,2015-09-30,2015-09-28,Estrella,157,PH
"8122 W Lumbee St, Phoenix, AZ 85043",3,2,1545,zillow_ph,http://www.zillow.com/homedetails/8122-W-Lumbee-St-Phoenix-AZ-85043/60047327_zpid/,-112.235,33.4339,307.43,,,1,rental,950,closed,2,2015-09-30,2015-09-28,Estrella,157,PH
"1831 E Earll Dr, Phoenix, AZ 85016",3,1,1200,zillow_ph,http://www.zillow.com/homedetails/1831-E-Earll-Dr-Phoenix-AZ-85016/7540123_zpid/,-112.042,33.4838,343.842,,,1,rental,1200,open,,,2015-09-28,Encanto,314,PH
"8427 E Pueblo Ave, Mesa, AZ 85208",4,2,1598,zillow_ph,http://www.zillow.com/homedetails/8427-E-Pueblo-Ave-Mesa-AZ-85208/62731790_zpid/,-111.649,33.4003,444.571,,,1,rental,1200,closed,2,2015-09-30,2015-09-28,Southeast 0,119,PH
"7777 E Main St UNIT 304, Scottsdale, AZ 85251",2,2,1130,zillow_ph,http://www.zillow.com/homedetails/7777-E-Main-St-UNIT-304-Scottsdale-AZ-85251/7574370_zpid/,-111.913,33.4917,377.488,,,1,rental,2100,closed,2,2015-09-30,2015-09-28,South Scottsdale,148,PH
"5010 E Dartmouth St, Mesa, AZ 85205",4,2,1750,zillow_ph,http://www.zillow.com/homedetails/5010-E-Dartmouth-St-Mesa-AZ-85205/7638954_zpid/,-111.723,33.4288,413.906,,,1,rental,1250,open,,,2015-09-28,Northeast 0,293,PH
"3143 W Fremont Rd, Phoenix, AZ 85041",4,2,2040,zillow_ph,http://www.zillow.com/homedetails/3143-W-Fremont-Rd-Phoenix-AZ-85041/60977203_zpid/,-112.126,33.3814,324.558,,,1,rental,1145,open,,,2015-09-28,Laveen,158,PH
"6160 E Glencove St, Mesa, AZ 85205",3,2,1100,zillow_ph,http://www.zillow.com/homedetails/6160-E-Glencove-St-Mesa-AZ-85205/7676813_zpid/,-111.698,33.4391,439.769,,,1,rental,850,open,,,2015-09-28,Northeast 0,293,PH
"35007 N 30th Ave, Phoenix, AZ 85086",3,2,1615,zillow_ph,http://www.zillow.com/homedetails/35007-N-30th-Ave-Phoenix-AZ-85086/61628848_zpid/,-112.124,33.8014,516.752,,,1,rental,1200,closed,2,2015-09-30,2015-09-28,North Gateway,219,PH
"7777 E Main St UNIT 124, Scottsdale, AZ 85251",2,2,1130,zillow_ph,http://www.zillow.com/homedetails/7777-E-Main-St-UNIT-124-Scottsdale-AZ-85251/7574255_zpid/,-111.913,33.4917,377.488,,,1,rental,1400,closed,2,2015-09-30,2015-09-28,South Scottsdale,148,PH
"1033 E Hermosa Dr, Tempe, AZ 85282",4,2,1800,zillow_ph,http://www.zillow.com/homedetails/1033-E-Hermosa-Dr-Tempe-AZ-85282/7596353_zpid/,-111.923,33.387,360.569,,,1,rental,1550,open,,,2015-09-28,Cyprus Southwest,130,PH
"5648 W Pueblo Ave, Phoenix, AZ 85043",4,3,2502,zillow_ph,http://www.zillow.com/homedetails/5648-W-Pueblo-Ave-Phoenix-AZ-85043/71601642_zpid/,-112.182,33.4088,309.867,,,1,rental,1500,closed,2,2015-09-30,2015-09-28,Estrella,157,PH
"5624 W Pueblo Ave, Phoenix, AZ 85043",4,3,2502,zillow_ph,http://www.zillow.com/homedetails/5624-W-Pueblo-Ave-Phoenix-AZ-85043/71601648_zpid/,-112.181,33.409,309.461,,,1,rental,1350,closed,2,2015-09-30,2015-09-28,Estrella,157,PH
"9555 W Monte Vista Rd, Phoenix, AZ 85037",4,2,2461,zillow_ph,http://www.zillow.com/homedetails/9555-W-Monte-Vista-Rd-Phoenix-AZ-85037/60974995_zpid/,-112.267,33.47,312.226,,,1,rental,1400,closed,2,2015-09-30,2015-09-28,Maryvale,208,PH
"8813 W Hilton Ave, Tolleson, AZ 85353",3,2,1375,zillow_ph,http://www.zillow.com/homedetails/8813-W-Hilton-Ave-Tolleson-AZ-85353/62726835_zpid/,-112.25,33.4275,303.915,,,1,rental,1050,closed,2,2015-09-30,2015-09-28,Estrella,157,PH
"4833 E Hazel Dr UNIT 1, Phoenix, AZ 85044",2,2,1435,zillow_ph,http://www.zillow.com/homedetails/4833-E-Hazel-Dr-UNIT-1-Phoenix-AZ-85044/8139690_zpid/,-111.974,33.3646,399.97,,,1,rental,1300,open,,,2015-09-27,South Mountain,151,PH
"9990 N Scottsdale Rd APT 1005, Scottsdale, AZ 85253",2,2,973,zillow_ph,http://www.zillow.com/homedetails/9990-N-Scottsdale-Rd-APT-1005-Scottsdale-AZ-85253/65437590_zpid/,-111.928,33.576,409.509,,,10,rental,1195,closed,2,2015-09-30,2015-09-28,North Scottsdale,94,PH
"8609 N 33rd Ave, Phoenix, AZ 85051",3,1,1710,zillow_ph,http://www.zillow.com/homedetails/8609-N-33rd-Ave-Phoenix-AZ-85051/7753933_zpid/,-112.13,33.5629,370.333,,,1,rental,995,closed,2,2015-09-30,2015-09-28,North Mountain,176,PH
"8301 E Wilshire Dr, Scottsdale, AZ 85257",4,2,1983,zillow_ph,http://www.zillow.com/homedetails/8301-E-Wilshire-Dr-Scottsdale-AZ-85257/7580623_zpid/,-111.902,33.476,375.628,,,1,rental,2100,open,,,2015-09-28,South Scottsdale,148,PH
"1953 E Grandview Dr, Phoenix, AZ 85022",3,2,1056,zillow_ph,http://www.zillow.com/homedetails/1953-E-Grandview-Dr-Phoenix-AZ-85022/8004864_zpid/,-112.04,33.6345,431.07,,,1,rental,1025,open,,,2015-09-28,Paradise Valley,288,PH
"1122 W 2nd St, Tempe, AZ 85281",3,2,1400,zillow_ph,http://www.zillow.com/homedetails/1122-W-2nd-St-Tempe-AZ-85281/7555900_zpid/,-111.956,33.4281,351.948,,,1,rental,2595,open,,,2015-09-28,Sunset,242,PH
"4321 N 19th Dr, Phoenix, AZ 85015",2,2,1050,zillow_ph,http://www.zillow.com/homedetails/4321-N-19th-Dr-Phoenix-AZ-85015/7768886_zpid/,-112.101,33.4996,343.089,,,1,rental,850,open,,,2015-09-28,Alahambra,201,PH
"24593 N 117th St, Scottsdale, AZ 85255",4,3,3368,zillow_ph,http://www.zillow.com/homedetails/24593-N-117th-St-Scottsdale-AZ-85255/8062753_zpid/,-111.829,33.709,793.824,,,1,rental,3500,open,,,2015-09-28,North Scottsdale,94,PH
"1326 W Culver St, Phoenix, AZ 85007",3,2,1450,zillow_ph,http://www.zillow.com/homedetails/1326-W-Culver-St-Phoenix-AZ-85007/7521074_zpid/,-112.09,33.463,329.669,,,1,rental,1600,open,,,2015-09-28,Central City,285,PH
"3239 W Jessica Ln, Phoenix, AZ 85041",3,0,2165,zillow_ph,http://www.zillow.com/homedetails/3239-W-Jessica-Ln-Phoenix-AZ-85041/71601707_zpid/,-112.129,33.3933,316.826,,,1,rental,1100,closed,2,2015-09-30,2015-09-28,Laveen,158,PH
"1822 E Jones Ave, Phoenix, AZ 85040",3,2,1310,zillow_ph,http://www.zillow.com/homedetails/1822-E-Jones-Ave-Phoenix-AZ-85040/81983453_zpid/,-112.042,33.4107,333.985,,,1,rental,935,closed,2,2015-09-30,2015-09-28,South Mountain,151,PH
"8564 E Indian School Rd UNIT A, Scottsdale, AZ 85251",3,2,1408,zillow_ph,http://www.zillow.com/homedetails/8564-E-Indian-School-Rd-UNIT-A-Scottsdale-AZ-85251/7847745_zpid/,-111.898,33.4965,380.355,,,1,rental,1100,open,,,2015-09-27,South Scottsdale,148,PH
"8 Biltmore Est UNIT 213, Phoenix, AZ 85016",3,2,2329,zillow_ph,http://www.zillow.com/homedetails/8-Biltmore-Est-UNIT-213-Phoenix-AZ-85016/82821083_zpid/,-112.019,33.5213,378.92,,,1,rental,7250,closed,2,2015-09-30,2015-09-28,Camelback East,133,PH
"8249 E Bonnie Rose Ave, Scottsdale, AZ 85250",4,2,1773,zillow_ph,http://www.zillow.com/homedetails/8249-E-Bonnie-Rose-Ave-Scottsdale-AZ-85250/7850279_zpid/,-111.902,33.515,384.139,,,1,rental,2250,open,,,2015-09-28,South Scottsdale,148,PH
"29606 N Tatum Blvd APT 130, Cave Creek, AZ 85331",1,1,742,zillow_ph,http://www.zillow.com/homedetails/29606-N-Tatum-Blvd-APT-130-Cave-Creek-AZ-85331/68959351_zpid/,-111.988,33.7538,561.666,,,1,rental,1800,closed,2,2015-09-30,2015-09-28,Desert View,273,PH
"5412 W Chisum Trl, Phoenix, AZ 85083",3,2,1493,zillow_ph,http://www.zillow.com/homedetails/5412-W-Chisum-Trl-Phoenix-AZ-85083/79527751_zpid/,-112.177,33.7216,443.149,,,1,rental,1275,closed,2,2015-09-30,2015-09-28,Deer Valley,307,PH
"2114 N 70th St, Scottsdale, AZ 85257",3,2,1618,zillow_ph,http://www.zillow.com/homedetails/2114-N-70th-St-Scottsdale-AZ-85257/7569257_zpid/,-111.931,33.4718,380.102,,,1,rental,1400,open,,,2015-09-27,South Scottsdale,148,PH
"1101 E Bethany Home Rd UNIT 23, Phoenix, AZ 85014",2,2,1100,zillow_ph,http://www.zillow.com/homedetails/1101-E-Bethany-Home-Rd-UNIT-23-Phoenix-AZ-85014/7799906_zpid/,-112.058,33.523,358.012,,,1,rental,1175,open,,,2015-09-28,Camelback East,133,PH
"613 S Roosevelt St, Tempe, AZ 85281",2,2,1518,zillow_ph,http://www.zillow.com/homedetails/613-S-Roosevelt-St-Tempe-AZ-85281/88793709_zpid/,-111.947,33.4241,353.224,,,1,rental,1795,closed,2,2015-09-30,2015-09-28,Riverside,222,PH
"815 E Rose Ln UNIT 111, Phoenix, AZ 85014",2,2,1102,zillow_ph,http://www.zillow.com/homedetails/815-E-Rose-Ln-UNIT-111-Phoenix-AZ-85014/88795152_zpid/,-112.063,33.5267,357.108,,,1,rental,1395,closed,2,2015-09-30,2015-09-28,Camelback East,133,PH
"1506 E El Moro Ave, Mesa, AZ 85204",3,1,1399,zillow_ph,http://www.zillow.com/homedetails/1506-E-El-Moro-Ave-Mesa-AZ-85204/7627083_zpid/,-111.799,33.3988,374.898,,,1,rental,1100,open,,,2015-09-28,West Central,107,PH
"3534 E Mckinley St, Phoenix, AZ 85008",3,1,1570,zillow_ph,http://www.zillow.com/homedetails/3534-E-Mckinley-St-Phoenix-AZ-85008/7544297_zpid/,-112.005,33.457,346.948,,,1,rental,950,open,,,2015-09-27,Central City,285,PH
"4350 E Chuckwalla Cyn, Phoenix, AZ 85044",3,2,1114,zillow_ph,http://www.zillow.com/homedetails/4350-E-Chuckwalla-Cyn-Phoenix-AZ-85044/8164776_zpid/,-111.99,33.3135,377.236,,,1,rental,1350,open,,,2015-09-28,Ahwatukee Foothills 0,274,PH
"8100 E Camelback Rd # 145, Scottsdale, AZ 85251",2,2,1605,zillow_ph,http://www.zillow.com/homedetails/8100-E-Camelback-Rd-145-Scottsdale-AZ-85251/7843412_zpid/,-111.906,33.5026,380.52,,,1,rental,1895,open,,,2015-09-28,South Scottsdale,148,PH
"8027 E Del Timbre Dr, Scottsdale, AZ 85258",3,3,2778,zillow_ph,http://www.zillow.com/homedetails/8027-E-Del-Timbre-Dr-Scottsdale-AZ-85258/7867135_zpid/,-111.907,33.5726,409.598,,,1,rental,2675,closed,2,2015-09-30,2015-09-28,North Scottsdale,94,PH
"2213 W State Ave, Phoenix, AZ 85021",3,1,1654,zillow_ph,http://www.zillow.com/homedetails/2213-W-State-Ave-Phoenix-AZ-85021/7778874_zpid/,-112.107,33.5442,361.228,,,1,rental,1250,open,,,2015-09-28,Alahambra,201,PH
"2614 N 72nd Pl UNIT 3, Scottsdale, AZ 85257",2,1,775,zillow_ph,http://www.zillow.com/homedetails/2614-N-72nd-Pl-UNIT-3-Scottsdale-AZ-85257/2117123375_zpid/,-111.925,33.4772,375.523,,,1,rental,875,closed,2,2015-09-30,2015-09-28,South Scottsdale,148,PH
"6711 E Camelback Rd UNIT 36, Scottsdale, AZ 85251",3,2,2136,zillow_ph,http://www.zillow.com/homedetails/6711-E-Camelback-Rd-UNIT-36-Scottsdale-AZ-85251/7845754_zpid/,-111.938,33.5015,393.285,,,1,rental,2800,closed,2,2015-09-30,2015-09-28,South Scottsdale,148,PH
"4804 N 73rd St, Scottsdale, AZ 85251",2,2,1075,zillow_ph,http://www.zillow.com/homedetails/4804-N-73rd-St-Scottsdale-AZ-85251/7844263_zpid/,-111.923,33.5063,389.986,,,1,rental,1200,open,,,2015-09-28,South Scottsdale,148,PH
"7474 E Earll Dr UNIT 104, Scottsdale, AZ 85251",2,2,861,zillow_ph,http://www.zillow.com/homedetails/7474-E-Earll-Dr-UNIT-104-Scottsdale-AZ-85251/67082350_zpid/,-111.921,33.4846,377.28,,,1,rental,900,open,,,2015-09-28,South Scottsdale,148,PH
"2721 E Phelps Rd, Phoenix, AZ 85032",2,2,1060,zillow_ph,http://www.zillow.com/homedetails/2721-E-Phelps-Rd-Phoenix-AZ-85032/8005545_zpid/,-112.023,33.6382,438.999,,,1,rental,72000,closed,,2015-09-28,,Paradise Valley,288,PH
"7474 E Earll Dr, Scottsdale, AZ 85251",2,2,861,zillow_ph,http://www.zillow.com/homedetails/7474-E-Earll-Dr-Scottsdale-AZ-85251/2104074092_zpid/,-111.921,33.4846,377.28,,,1,rental,900,closed,2,2015-09-30,2015-09-28,South Scottsdale,148,PH
"4909 W Villa Rita Dr, Glendale, AZ 85308",3,2,1695,zillow_ph,http://www.zillow.com/homedetails/4909-W-Villa-Rita-Dr-Glendale-AZ-85308/7949339_zpid/,-112.165,33.6494,393.283,,,1,rental,1225,open,,,2015-09-27,Deer Valley,307,PH
"2457 W Lompoc Ave, Mesa, AZ 85202",3,2,2008,zillow_ph,http://www.zillow.com/homedetails/2457-W-Lompoc-Ave-Mesa-AZ-85202/8254125_zpid/,-111.888,33.3749,365.073,,,1,rental,1650,open,,,2015-09-28,Southwest,204,PH
"3257 N Boulder Cyn, Mesa, AZ 85207",5,4,3486,zillow_ph,http://www.zillow.com/homedetails/3257-N-Boulder-Cyn-Mesa-AZ-85207/8080648_zpid/,-111.676,33.4758,496.264,,,1,rental,2200,open,,,2015-09-27,Northeast 0,293,PH
"829 N 4th Ave APT 4, Phoenix, AZ 85003",1,1,300,zillow_ph,http://www.zillow.com/homedetails/829-N-4th-Ave-APT-4-Phoenix-AZ-85003/2111582732_zpid/,-112.079,33.4579,330.493,,,1,rental,625,closed,2,2015-09-30,2015-09-28,Central City,285,PH
"2221 E Union Hills Dr UNIT 147, Phoenix, AZ 85024",3,2,1444,zillow_ph,http://www.zillow.com/homedetails/2221-E-Union-Hills-Dr-UNIT-147-Phoenix-AZ-85024/2100996515_zpid/,-112.034,33.6547,446.553,,,1,rental,1495,closed,2,2015-09-30,2015-09-28,Paradise Valley,288,PH
"E Mariposa St Phoenix, AZ 85012",0,1,470,zillow_ph,http://www.zillow.com/homedetails/E-Mariposa-St-Phoenix-AZ-85012/2100996316_zpid/,-112.069,33.5081,344.358,,,1,rental,550,closed,2,2015-09-30,2015-09-28,Alahambra,201,PH
"1205 Southern Ave # C, Mesa, AZ 85282",2,1,696,zillow_ph,http://www.zillow.com/homedetails/1205-Southern-Ave-C-Mesa-AZ-85282/2100996056_zpid/,-111.921,33.393,359.98,,,1,rental,650,closed,2,2015-09-30,2015-09-28,Rural-Geneva,163,PH
"2705 E Wood St UNIT 2, Phoenix, AZ 85040",3,1,1232,zillow_ph,http://www.zillow.com/homedetails/2705-E-Wood-St-UNIT-2-Phoenix-AZ-85040/2127022508_zpid/,-112.024,33.4085,337.814,,,1,rental,695,closed,2,2015-09-30,2015-09-28,South Mountain,151,PH
"2102 E Solano Dr, Phoenix, AZ 85016",4,3,2212,zillow_ph,http://www.zillow.com/homedetails/2102-E-Solano-Dr-Phoenix-AZ-85016/7808676_zpid/,-112.036,33.5218,366.644,,,1,rental,2995,open,,,2015-09-28,Camelback East,133,PH
"320 W Medlock Dr, Phoenix, AZ 85013",2,2,1093,zillow_ph,http://www.zillow.com/homedetails/320-W-Medlock-Dr-Phoenix-AZ-85013/2105562359_zpid/,-112.079,33.5122,345.932,,,1,rental,950,closed,2,2015-09-30,2015-09-28,Alahambra,201,PH
"16809 N 47th Dr, Glendale, AZ 85306",3,2,1286,zillow_ph,http://www.zillow.com/homedetails/16809-N-47th-Dr-Glendale-AZ-85306/7951124_zpid/,-112.161,33.6381,390.369,,,1,rental,1200,open,,,2015-09-28,Deer Valley,307,PH
"845 N 2nd Ave APT 1B, Phoenix, AZ 85003",2,1,785,zillow_ph,http://www.zillow.com/homedetails/845-N-2nd-Ave-APT-1B-Phoenix-AZ-85003/2100997513_zpid/,-112.076,33.4585,330.457,,,1,rental,1000,closed,2,2015-09-30,2015-09-28,Central City,285,PH
"1341 W Laird St, Tempe, AZ 85281",4,2,2280,zillow_ph,http://www.zillow.com/homedetails/1341-W-Laird-St-Tempe-AZ-85281/7559119_zpid/,-111.96,33.4201,349.442,,,1,rental,1350,open,,,2015-09-28,Gililland,198,PH
"1717 E Union Hills Dr UNIT 1074, Phoenix, AZ 85024",3,2,1178,zillow_ph,http://www.zillow.com/homedetails/1717-E-Union-Hills-Dr-UNIT-1074-Phoenix-AZ-85024/8001539_zpid/,-112.044,33.6539,441.864,,,1,rental,950,open,,,2015-09-28,Paradise Valley,288,PH
"621 E Papago Dr, Tempe, AZ 85281",3,2,1427,zillow_ph,http://www.zillow.com/homedetails/621-E-Papago-Dr-Tempe-AZ-85281/7570001_zpid/,-111.93,33.453,371.768,,,1,rental,1200,closed,2,2015-09-30,2015-09-28,Ntna-College,141,PH
"N 32nd St Phoenix, AZ 85018",2,2,1400,zillow_ph,http://www.zillow.com/homedetails/N-32nd-St-Phoenix-AZ-85018/2100997626_zpid/,-112.013,33.5048,366.439,,,1,rental,1350,closed,2,2015-09-30,2015-09-28,Camelback East,133,PH
"10449 N 69th St # 127, Paradise Valley, AZ 85253",1,1,804,zillow_ph,http://www.zillow.com/homedetails/10449-N-69th-St-127-Paradise-Valley-AZ-85253/2100996026_zpid/,-111.933,33.5805,411.571,,,1,rental,1000,closed,2,2015-09-30,2015-09-28,North Scottsdale,94,PH
"8426 E Valley View Rd, Scottsdale, AZ 85250",4,2,1518,zillow_ph,http://www.zillow.com/homedetails/8426-E-Valley-View-Rd-Scottsdale-AZ-85250/7850153_zpid/,-111.899,33.519,386.345,,,1,rental,1400,open,,,2015-09-28,South Scottsdale,148,PH
"N 60th Ave Phoenix, AZ 85035",4,2,1444,zillow_ph,http://www.zillow.com/homedetails/N-60th-Ave-Phoenix-AZ-85035/2128929777_zpid/,-112.189,33.4757,327.448,,,1,rental,935,closed,2,2015-09-30,2015-09-28,Maryvale,208,PH
"1111 E Butler Dr APT D, Phoenix, AZ 85020",1,1,730,zillow_ph,http://www.zillow.com/homedetails/1111-E-Butler-Dr-APT-D-Phoenix-AZ-85020/2101011198_zpid/,-112.058,33.5602,386.788,,,1,rental,645,closed,2,2015-09-30,2015-09-28,North Mountain,176,PH
"S 31st Ave Phoenix, AZ 85009",2,1,621,zillow_ph,http://www.zillow.com/homedetails/S-31st-Ave-Phoenix-AZ-85009/2101011123_zpid/,-112.126,33.4387,322.263,,,1,rental,680,closed,2,2015-09-30,2015-09-28,Estrella,157,PH
"3737 E Eugie Ave, Phoenix, AZ 85032",3,2,1240,zillow_ph,http://www.zillow.com/homedetails/3737-E-Eugie-Ave-Phoenix-AZ-85032/7813762_zpid/,-112.001,33.6097,429.693,,,1,rental,1300,open,,,2015-09-29,Paradise Valley,288,PH
"8328 W Minnezona Ave, Phoenix, AZ 85037",3,2,1323,zillow_ph,http://www.zillow.com/homedetails/8328-W-Minnezona-Ave-Phoenix-AZ-85037/7480972_zpid/,-112.239,33.5042,326.253,,,1,rental,800,open,,,2015-09-29,Maryvale,208,PH
"611 E Gable Ave, Mesa, AZ 85204",3,1,1014,zillow_ph,http://www.zillow.com/homedetails/611-E-Gable-Ave-Mesa-AZ-85204/7629011_zpid/,-111.818,33.392,372.226,,,1,rental,1035,closed,2,2015-10-01,2015-09-29,West Central,107,PH
"2905 W Stella Ln, Phoenix, AZ 85017",3,2,1623,zillow_ph,http://www.zillow.com/homedetails/2905-W-Stella-Ln-Phoenix-AZ-85017/7761043_zpid/,-112.122,33.5303,355.291,,,1,rental,850,closed,2,2015-10-01,2015-09-29,Alahambra,201,PH
"3139 E Claremont Ave, Phoenix, AZ 85016",4,4,2644,zillow_ph,http://www.zillow.com/homedetails/3139-E-Claremont-Ave-Phoenix-AZ-85016/7810257_zpid/,-112.016,33.5259,395.302,,,1,rental,3200,open,,,2015-09-29,Camelback East,133,PH
"844 E Hope St, Mesa, AZ 85203",2,2,1000,zillow_ph,http://www.zillow.com/homedetails/844-E-Hope-St-Mesa-AZ-85203/7616692_zpid/,-111.812,33.4422,383.497,,,1,rental,1050,open,,,2015-09-28,Northwest,281,PH
"1630 W Bentley St, Mesa, AZ 85201",3,2,1466,zillow_ph,http://www.zillow.com/homedetails/1630-W-Bentley-St-Mesa-AZ-85201/7612463_zpid/,-111.866,33.4199,372.947,,,1,rental,1050,closed,2,2015-10-01,2015-09-29,Southwest,204,PH
"1242 E Joan D Arc Ave, Phoenix, AZ 85022",3,2,2115,zillow_ph,http://www.zillow.com/homedetails/1242-E-Joan-D-Arc-Ave-Phoenix-AZ-85022/7783320_zpid/,-112.055,33.6099,434.228,,,1,rental,1750,open,,,2015-09-29,North Mountain,176,PH
"5219 N 24th St APT 207, Phoenix, AZ 85016",1,1,856,zillow_ph,http://www.zillow.com/homedetails/5219-N-24th-St-APT-207-Phoenix-AZ-85016/7809815_zpid/,-112.027,33.5126,361.791,,,2,rental,900,open,,,2015-09-29,Camelback East,133,PH
"1046 W Natal Ave, Mesa, AZ 85210",4,2,2200,zillow_ph,http://www.zillow.com/homedetails/1046-W-Natal-Ave-Mesa-AZ-85210/8197978_zpid/,-111.856,33.3668,366.696,,,1,rental,1565,open,,,2015-09-29,Southwest,204,PH
"6720 E Encanto St UNIT 25, Mesa, AZ 85205",3,2,1456,zillow_ph,http://www.zillow.com/homedetails/6720-E-Encanto-St-UNIT-25-Mesa-AZ-85205/55198709_zpid/,-111.686,33.4361,447.94,,,1,rental,1250,closed,2,2015-10-01,2015-09-29,Northeast 0,293,PH
"4736 N 71st Ln, Phoenix, AZ 85033",2,1,868,zillow_ph,http://www.zillow.com/homedetails/4736-N-71st-Ln-Phoenix-AZ-85033/7710507_zpid/,-112.212,33.5075,335.569,,,1,rental,775,open,,,2015-09-29,Maryvale,208,PH
"3327 W Joan De Arc Ave, Phoenix, AZ 85029",3,1,1464,zillow_ph,http://www.zillow.com/homedetails/3327-W-Joan-De-Arc-Ave-Phoenix-AZ-85029/7741322_zpid/,-112.13,33.6066,388.811,,,1,rental,1150,open,,,2015-09-29,North Mountain,176,PH
"2624 E Dragoon Ave, Mesa, AZ 85204",5,3,2371,zillow_ph,http://www.zillow.com/homedetails/2624-E-Dragoon-Ave-Mesa-AZ-85204/7655573_zpid/,-111.774,33.4037,381.177,,,1,rental,1550,open,,,2015-09-29,Central,238,PH
"3929 W Saint John Rd, Glendale, AZ 85308",4,2,2069,zillow_ph,http://www.zillow.com/homedetails/3929-W-Saint-John-Rd-Glendale-AZ-85308/7946907_zpid/,-112.145,33.6463,399.077,,,1,rental,1325,closed,2,2015-10-01,2015-09-29,Deer Valley,307,PH
"4020 E Glenrosa Ave, Phoenix, AZ 85018",3,2,1646,zillow_ph,http://www.zillow.com/homedetails/4020-E-Glenrosa-Ave-Phoenix-AZ-85018/7836181_zpid/,-111.994,33.4989,373.202,,,1,rental,1750,open,,,2015-09-29,Camelback East,133,PH
"1801 N 66th Ave, Phoenix, AZ 85035",3,1,1064,zillow_ph,http://www.zillow.com/homedetails/1801-N-66th-Ave-Phoenix-AZ-85035/7490444_zpid/,-112.201,33.4678,323.709,,,1,rental,875,open,,,2015-09-29,Maryvale,208,PH
"3002 N 70th St UNIT 138, Scottsdale, AZ 85251",2,2,894,zillow_ph,http://www.zillow.com/homedetails/3002-N-70th-St-UNIT-138-Scottsdale-AZ-85251/7573506_zpid/,-111.931,33.4817,379.323,,,1,rental,875,open,,,2015-09-29,South Scottsdale,148,PH
"2020 S 86th Ln, Tolleson, AZ 85353",3,2,1258,zillow_ph,http://www.zillow.com/homedetails/2020-S-86th-Ln-Tolleson-AZ-85353/59271473_zpid/,-112.247,33.4283,304.827,,,1,rental,1025,closed,3,2015-10-01,2015-09-28,Estrella,157,PH
"10215 E Kiva Ave, Mesa, AZ 85209",4,2,1675,zillow_ph,http://www.zillow.com/homedetails/10215-E-Kiva-Ave-Mesa-AZ-85209/61908523_zpid/,-111.614,33.3774,455.77,,,1,rental,1150,closed,3,2015-10-01,2015-09-28,Southeast 0,119,PH
"857 E Coral Gables Dr, Phoenix, AZ 85022",3,2,1553,zillow_ph,http://www.zillow.com/homedetails/857-E-Coral-Gables-Dr-Phoenix-AZ-85022/8008397_zpid/,-112.061,33.6255,433.666,,,1,rental,1600,open,,,2015-09-29,North Mountain,176,PH
"6711 W Osborn Rd UNIT 1, Phoenix, AZ 85033",3,1,840,zillow_ph,http://www.zillow.com/homedetails/6711-W-Osborn-Rd-UNIT-1-Phoenix-AZ-85033/88792097_zpid/,-112.204,33.4864,329.828,,,1,rental,700,closed,3,2015-10-01,2015-09-28,Maryvale,208,PH
"1909 E Village Dr, Phoenix, AZ 85022",4,2,1861,zillow_ph,http://www.zillow.com/homedetails/1909-E-Village-Dr-Phoenix-AZ-85022/62731337_zpid/,-112.042,33.6446,436.06,,,1,rental,1550,closed,2,2015-10-01,2015-09-29,Paradise Valley,288,PH
"15834 N 58th Pl, Scottsdale, AZ 85254",3,2,2105,zillow_ph,http://www.zillow.com/homedetails/15834-N-58th-Pl-Scottsdale-AZ-85254/8022722_zpid/,-111.955,33.5977,421.604,,,1,rental,2300,open,,,2015-09-29,Paradise Valley,288,PH
"819 W Laguna Azul Ave, Mesa, AZ 85210",4,2,1896,zillow_ph,http://www.zillow.com/homedetails/819-W-Laguna-Azul-Ave-Mesa-AZ-85210/8170590_zpid/,-111.852,33.3733,367.544,,,1,rental,1450,closed,2,2015-10-01,2015-09-29,Southwest,204,PH
"5248 W Palm Ln, Phoenix, AZ 85035",3,2,1212,zillow_ph,http://www.zillow.com/homedetails/5248-W-Palm-Ln-Phoenix-AZ-85035/7493459_zpid/,-112.174,33.4699,328.625,,,1,rental,825,closed,2,2015-10-01,2015-09-29,Maryvale,208,PH
"3317 W Quail Ave, Phoenix, AZ 85027",3,2,1200,zillow_ph,http://www.zillow.com/homedetails/3317-W-Quail-Ave-Phoenix-AZ-85027/7933591_zpid/,-112.131,33.6796,418.718,,,1,rental,1150,open,,,2015-09-28,Deer Valley,307,PH
"16225 N 30th St UNIT 13, Phoenix, AZ 85032",2,1,968,zillow_ph,http://www.zillow.com/homedetails/16225-N-30th-St-UNIT-13-Phoenix-AZ-85032/8005929_zpid/,-112.017,33.6347,439.62,,,1,rental,850,open,,,2015-09-29,Paradise Valley,288,PH
"5610 S 32nd Dr, Phoenix, AZ 85041",3,2,2200,zillow_ph,http://www.zillow.com/homedetails/5610-S-32nd-Dr-Phoenix-AZ-85041/67781626_zpid/,-112.128,33.3953,317.355,,,1,rental,1125,closed,2,2015-10-01,2015-09-29,Laveen,158,PH
"4808 N 24th St UNIT 523, Phoenix, AZ 85016",2,2,1211,zillow_ph,http://www.zillow.com/homedetails/4808-N-24th-St-UNIT-523-Phoenix-AZ-85016/67790393_zpid/,-112.031,33.5079,356.805,,,1,rental,1995,closed,2,2015-10-01,2015-09-29,Camelback East,133,PH
"7223 W Park St, Laveen, AZ 85339",4,3,2383,zillow_ph,http://www.zillow.com/homedetails/7223-W-Park-St-Laveen-AZ-85339/67800188_zpid/,-112.214,33.3798,302.073,,,1,rental,1595,closed,2,2015-10-01,2015-09-29,Laveen,158,PH
"12592 E Doubletree Ranch Rd, Scottsdale, AZ 85259",4,2,3212,zillow_ph,http://www.zillow.com/homedetails/12592-E-Doubletree-Ranch-Rd-Scottsdale-AZ-85259/8053185_zpid/,-111.809,33.5688,456.421,,,1,rental,4000,open,,,2015-09-29,North Scottsdale,94,PH
"5727 N 40th Ln, Phoenix, AZ 85019",4,2,1929,zillow_ph,http://www.zillow.com/homedetails/5727-N-40th-Ln-Phoenix-AZ-85019/7718527_zpid/,-112.146,33.5215,352.899,,,1,rental,1100,open,,,2015-09-29,Alahambra,201,PH
"5421 W Grove St, Laveen, AZ 85339",4,2,1564,zillow_ph,http://www.zillow.com/homedetails/5421-W-Grove-St-Laveen-AZ-85339/71598448_zpid/,-112.176,33.3982,309.055,,,1,rental,1040,closed,2,2015-10-01,2015-09-29,Laveen,158,PH
"10438 W Pasadena Ave, Glendale, AZ 85307",3,2,1306,zillow_ph,http://www.zillow.com/homedetails/10438-W-Pasadena-Ave-Glendale-AZ-85307/7488247_zpid/,-112.284,33.509,316.168,,,1,rental,895,open,,,2015-09-29,Maryvale,208,PH
"8323 W Sheridan St, Phoenix, AZ 85037",3,2,1449,zillow_ph,http://www.zillow.com/homedetails/8323-W-Sheridan-St-Phoenix-AZ-85037/81974076_zpid/,-112.239,33.4746,318.077,,,1,rental,1050,closed,2,2015-10-01,2015-09-29,Maryvale,208,PH
"4127 W Vernon Ave, Phoenix, AZ 85009",3,2,1207,zillow_ph,http://www.zillow.com/homedetails/4127-W-Vernon-Ave-Phoenix-AZ-85009/7513048_zpid/,-112.149,33.4738,331.65,,,1,rental,900,closed,2,2015-10-01,2015-09-29,Maryvale,208,PH
"10421 N 77th Pl, Scottsdale, AZ 85258",4,3,2669,zillow_ph,http://www.zillow.com/homedetails/10421-N-77th-Pl-Scottsdale-AZ-85258/7865761_zpid/,-111.914,33.5808,412.096,,,1,rental,2700,open,,,2015-09-29,North Scottsdale,94,PH
"5101 N Casa Blanca Dr UNIT 3, Paradise Valley, AZ 85253",1,1,740,zillow_ph,http://www.zillow.com/homedetails/5101-N-Casa-Blanca-Dr-UNIT-3-Paradise-Valley-AZ-85253/7841449_zpid/,-111.937,33.5111,403.857,,,1,rental,1600,closed,2,2015-10-01,2015-09-29,South Scottsdale,148,PH
"3927 W Berridge Ln, Phoenix, AZ 85019",4,1,1501,zillow_ph,http://www.zillow.com/homedetails/3927-W-Berridge-Ln-Phoenix-AZ-85019/67083753_zpid/,-112.144,33.5253,355.065,,,1,rental,1000,closed,2,2015-10-01,2015-09-29,Alahambra,201,PH
"6747 E Arbor Ave, Mesa, AZ 85206",5,2,1800,zillow_ph,http://www.zillow.com/homedetails/6747-E-Arbor-Ave-Mesa-AZ-85206/7666467_zpid/,-111.686,33.4132,428.598,,,1,rental,1250,open,,,2015-09-29,Northeast 0,293,PH
"8707 E Arlington Rd, Scottsdale, AZ 85250",4,1,1560,zillow_ph,http://www.zillow.com/homedetails/8707-E-Arlington-Rd-Scottsdale-AZ-85250/7849969_zpid/,-111.893,33.5172,385.404,,,1,rental,1495,open,,,2015-09-29,South Scottsdale,148,PH
"1502 E Dunlap Ave UNIT 14, Phoenix, AZ 85020",3,2,2374,zillow_ph,http://www.zillow.com/homedetails/1502-E-Dunlap-Ave-UNIT-14-Phoenix-AZ-85020/82819481_zpid/,-112.051,33.5681,413.353,,,1,rental,1650,closed,2,2015-10-01,2015-09-29,North Mountain,176,PH
"4515 W Larkspur Dr, Glendale, AZ 85304",4,2,2076,zillow_ph,http://www.zillow.com/homedetails/4515-W-Larkspur-Dr-Glendale-AZ-85304/7955051_zpid/,-112.156,33.5994,376.825,,,1,rental,1499,open,,,2015-09-29,North Mountain,176,PH
"1108 W Monterosa St # 1108, Phoenix, AZ 85013",2,1,1100,zillow_ph,http://www.zillow.com/homedetails/1108-W-Monterosa-St-1108-Phoenix-AZ-85013/2106565785_zpid/,-112.087,33.4958,339.971,,,1,rental,950,closed,3,2015-10-01,2015-09-28,Encanto,314,PH
"5427 Winston Dr, Phoenix, AZ 85339",4,3,3736,zillow_ph,http://www.zillow.com/homedetails/5427-Winston-Dr-Phoenix-AZ-85339/2111850408_zpid/,-112.176,33.3685,314.565,,,1,rental,1695,closed,3,2015-10-01,2015-09-28,Laveen,158,PH
"2546 N 10th St, Phoenix, AZ 85006",4,2,1800,zillow_ph,http://www.zillow.com/homedetails/2546-N-10th-St-Phoenix-AZ-85006/2100995025_zpid/,-112.061,33.4765,335.559,,,1,rental,1300,closed,3,2015-10-01,2015-09-28,Encanto,314,PH
"8001 N Hubbell St, Scottsdale, AZ 85257",4,2,1475,zillow_ph,http://www.zillow.com/homedetails/8001-N-Hubbell-St-Scottsdale-AZ-85257/2100994190_zpid/,-111.909,33.4707,373.553,,,1,rental,1500,closed,2,2015-10-01,2015-09-29,South Scottsdale,148,PH
"2144 E Oxford Dr, Tempe, AZ 85283",4,2,1848,zillow_ph,http://www.zillow.com/homedetails/2144-E-Oxford-Dr-Tempe-AZ-85283/8250114_zpid/,-111.895,33.3734,364.233,,,1,rental,1550,open,,,2015-09-29,Optimist Park Ne,127,PH
"N Sericin Mesa, AZ 85205",4,4,1643,zillow_ph,http://www.zillow.com/homedetails/N-Sericin-Mesa-AZ-85205/2105469137_zpid/,-111.687,33.4352,444.92,,,1,rental,1450,closed,2,2015-10-01,2015-09-29,Northeast 0,293,PH
"820 E Maryland Ave APT 7, Phoenix, AZ 85014",2,2,1000,zillow_ph,http://www.zillow.com/homedetails/820-E-Maryland-Ave-APT-7-Phoenix-AZ-85014/2100985770_zpid/,-112.062,33.5314,360.87,,,1,rental,675,closed,2,2015-10-01,2015-09-29,Camelback East,133,PH
"W Hillside St Mesa, AZ 85201",3,2,1600,zillow_ph,http://www.zillow.com/homedetails/W-Hillside-St-Mesa-AZ-85201/2100988327_zpid/,-111.835,33.4428,371.72,,,1,rental,1090,closed,2,2015-10-01,2015-09-29,Northwest,281,PH
"1222 W Baseline Rd UNIT 151, Tempe, AZ 85283",2,2,1200,zillow_ph,http://www.zillow.com/homedetails/1222-W-Baseline-Rd-UNIT-151-Tempe-AZ-85283/7554727_zpid/,-111.957,33.38,365.366,,,1,rental,950,open,,,2015-09-29,Baseline-Hardy,136,PH
"1616 N 63rd Ave, Phoenix, AZ 85035",2,1,700,zillow_ph,http://www.zillow.com/homedetails/1616-N-63rd-Ave-Phoenix-AZ-85035/2100989558_zpid/,-112.196,33.4665,323.783,,,1,rental,650,open,,,2015-09-29,Maryvale,208,PH
"7175 E 1st Ave, Scottsdale, AZ 85251",2,2,1400,zillow_ph,http://www.zillow.com/homedetails/7175-E-1st-Ave-Scottsdale-AZ-85251/2100988216_zpid/,-111.927,33.494,383.617,,,1,rental,2400,closed,2,2015-10-01,2015-09-29,South Scottsdale,148,PH
"4427 N 53rd Ln APT 3, Phoenix, AZ 85031",2,2,1200,zillow_ph,http://www.zillow.com/homedetails/4427-N-53rd-Ln-APT-3-Phoenix-AZ-85031/2100987305_zpid/,-112.173,33.5015,342.023,,,1,rental,765,open,,,2015-09-29,Maryvale,208,PH
"E Redfield Rd Scottsdale, AZ 85260",2,2,1300,zillow_ph,http://www.zillow.com/homedetails/E-Redfield-Rd-Scottsdale-AZ-85260/2105452924_zpid/,-111.9,33.6136,440.124,,,1,rental,1500,closed,2,2015-10-01,2015-09-29,North Scottsdale,94,PH
"4336 N 24th St, Phoenix, AZ 85016",3,2,1627,zillow_ph,http://www.zillow.com/homedetails/4336-N-24th-St-Phoenix-AZ-85016/7804922_zpid/,-112.031,33.4998,355.183,,,1,rental,1350,open,,,2015-09-29,Camelback East,133,PH
"1203 W 11th St, Tempe, AZ 85281",3,2,1500,zillow_ph,http://www.zillow.com/homedetails/1203-W-11th-St-Tempe-AZ-85281/7559278_zpid/,-111.957,33.417,350.907,,,1,rental,1150,open,,,2015-09-29,Gililland,198,PH
"503 E Gemini Dr, Tempe, AZ 85283",3,2,1900,zillow_ph,http://www.zillow.com/homedetails/503-E-Gemini-Dr-Tempe-AZ-85283/8164191_zpid/,-111.932,33.3664,359.708,,,1,rental,1100,open,,,2015-09-29,Kiwanis Park,313,PH
"1641 E Palmcroft Dr, Tempe, AZ 85282",3,2,1300,zillow_ph,http://www.zillow.com/homedetails/1641-E-Palmcroft-Dr-Tempe-AZ-85282/7589286_zpid/,-111.912,33.404,361.374,,,1,rental,995,open,,,2015-09-29,Meyer Park,179,PH
"3949 E Earll Dr APT 8, Phoenix, AZ 85018",1,1,500,zillow_ph,http://www.zillow.com/homedetails/3949-E-Earll-Dr-APT-8-Phoenix-AZ-85018/2100989290_zpid/,-111.996,33.4839,361.819,,,1,rental,595,closed,2,2015-10-01,2015-09-29,Camelback East,133,PH
"9810 S 14th Ave, Phoenix, AZ 85041",2,2,840,zillow_ph,http://www.zillow.com/homedetails/9810-S-14th-Ave-Phoenix-AZ-85041/2100987454_zpid/,-112.091,33.3579,366.735,,,1,rental,700,open,,,2015-09-29,South Mountain,151,PH
"N 43rd Ave Glendale, AZ 85301",3,2,1344,zillow_ph,http://www.zillow.com/homedetails/N-43rd-Ave-Glendale-AZ-85301/2100990322_zpid/,-112.151,33.5322,355.401,,,1,rental,875,closed,2,2015-10-01,2015-09-29,Alahambra,201,PH
"127 W Balboa Dr, Tempe, AZ 85282",3,2,1266,zillow_ph,http://www.zillow.com/homedetails/127-W-Balboa-Dr-Tempe-AZ-85282/7595621_zpid/,-111.942,33.3991,355.991,,,1,rental,1195,closed,2,2015-10-01,2015-09-29,Mach 8,223,PH
"30 E Brown Rd UNIT 1028, Mesa, AZ 85201",2,1,917,zillow_ph,http://www.zillow.com/homedetails/30-E-Brown-Rd-UNIT-1028-Mesa-AZ-85201/7620977_zpid/,-111.83,33.4359,381.445,,,1,rental,925,open,,,2015-09-29,Northwest,281,PH
