address,bedrooms,bathrooms,sqft,source,origin_url,longitude,latitude,elevation,year_built,garage,transaction_type,price,transaction_status,days_on_market,date_closed,date_listed,neighborhood,nid,shapefile_source
814 Hayes Street #2,3,2,1200,climbsf_rented,http://www.climbsf.com/for-rent/814-hayes-st-2/,-122.43,37.7762,42.1639,,,rental,5000,closed,,2014-04-09,,Alamo Square,1,SF
"Mcallister St San Francisco, CA 94115",4,2,1700,zillow_sf,http://www.zillow.com/homedetails/Mcallister-St-San-Francisco-CA-94115/2103514323_zpid/,-122.436,37.7781,60.9689,,,rental,8900,open,,,2015-02-08,Alamo Square,1,SF
"Mcallister St San Francisco, CA 94115",2,1,1150,zillow_sf,http://www.zillow.com/homedetails/Mcallister-St-San-Francisco-CA-94115/2103241785_zpid/,-122.436,37.7781,60.9689,,,rental,5900,open,,,2015-02-23,Alamo Square,1,SF
"1301 Fulton St APT 207, San Francisco, CA 94117",2,1,925,zillow_sf,http://www.zillow.com/homedetails/1301-Fulton-St-APT-207-San-Francisco-CA-94117/15085639_zpid/,-122.439,37.7767,63.588,,,rental,3800,open,,,2015-09-01,Alamo Square,1,SF
"Anzavista Ave San Francisco, CA 94115",0,1,750,zillow_sf,http://www.zillow.com/homedetails/Anzavista-Ave-San-Francisco-CA-94115/2101488152_zpid/,-122.444,37.7796,106.346,,,rental,2295,open,,,2015-08-05,Anza Vista,2,SF
"1040 Broderick St, San Francisco, CA 94115",2,2,1218,zillow_sf,http://www.zillow.com/homedetails/1040-Broderick-St-San-Francisco-CA-94115/15084398_zpid/,-122.44,37.7801,77.4644,,,rental,9500,open,,,2015-08-26,Anza Vista,2,SF
"2103 Ellis St, San Francisco, CA 94115",2,1,0,zillow_sf,http://www.zillow.com/homedetails/2103-Ellis-St-San-Francisco-CA-94115/2118311375_zpid/,-122.441,37.7813,67.5664,1924,0,rental,4999,closed,17,2015-10-04,2015-09-17,Anza Vista,2,SF
"1180 Broderick St APT 304, San Francisco, CA 94115",2,2,1500,zillow_sf,http://www.zillow.com/homedetails/1180-Broderick-St-APT-304-San-Francisco-CA-94115/2101163514_zpid/,-122.441,37.7809,72.9697,1986,0,rental,5200,open,,,2015-10-07,Anza Vista,2,SF
5800 Third Street #1109,3,3,1500,climbsf_rented,http://www.climbsf.com/for-rent/5800-3rd-st-1109/,-122.395,37.7253,7.88801,,,rental,4500,closed,,2014-09-30,,Bayview,4,SF
5800 Third Street #1204,3,2,1309,climbsf_rented,http://www.climbsf.com/for-rent/5800-3rd-st-1204/,-122.395,37.7253,7.88801,,,rental,3900,closed,,2014-12-31,,Bayview,4,SF
1766 Oakdale Avenue,2,2,1286,climbsf_rented,http://www.climbsf.com/for-rent/1766-oakdale-ave/,-122.393,37.7366,16.1859,,,rental,0,closed,,2015-10-04,,Bayview,4,SF
5800 Third Street #1411,1,1,817,climbsf_renting,http://www.climbsf.com/for-rent/5800-3rd-st-1411/,-122.395,37.7253,7.88801,,,rental,2900,closed,3,2015-08-26,2015-08-23,Bayview,4,SF
"981 Ingerson Ave, San Francisco, CA 94124",4,3,1550,zillow_sf,http://www.zillow.com/homedetails/981-Ingerson-Ave-San-Francisco-CA-94124/15154852_zpid/,-122.393,37.7188,27.5464,,,rental,5300,closed,23,2015-10-01,2015-09-08,Bayview,4,SF
"1371 Palou Ave, San Francisco, CA 94124",2,1,1000,zillow_sf,http://www.zillow.com/homedetails/1371-Palou-Ave-San-Francisco-CA-94124/15153741_zpid/,-122.387,37.7313,31.8867,1900,0,rental,3750,closed,9,2015-10-07,2015-09-28,Bayview,4,SF
"27 Latona St, San Francisco, CA 94124",2,1,970,zillow_sf,http://www.zillow.com/homedetails/27-Latona-St-San-Francisco-CA-94124/15157659_zpid/,-122.392,37.732,32.4873,1960,0,rental,3250,open,,,2015-10-07,Bayview,4,SF
1688 Wallace Avenue #201,2,2,843,climbsf_renting,http://www.climbsf.com/for-rent/1688-wallace-ave-201/,-122.393,37.7285,11.1084,,,rental,2950,closed,,2015-10-03,,Bayview,4,SF
"55 Lucy St, San Francisco, CA 94124",2,1,1000,zillow_sf,http://www.zillow.com/homedetails/55-Lucy-St-San-Francisco-CA-94124/15158913_zpid/,-122.393,37.73,24.4766,1930,0,rental,3100,open,,,2015-09-29,Bayview,4,SF
"Jerrold Ave San Francisco, CA 94124",3,2,0,zillow_sf,http://www.zillow.com/homedetails/Jerrold-Ave-San-Francisco-CA-94124/2100979623_zpid/,-122.388,37.7377,23.9183,,0,rental,3475,closed,4,2015-10-04,2015-09-30,Bayview,4,SF
"2924 Griffith St, San Francisco, CA 94124",3,1,966,zillow_sf,http://www.zillow.com/homedetails/2924-Griffith-St-San-Francisco-CA-94124/15154893_zpid/,-122.39,37.7167,33.4399,1914,0,rental,5025,open,,,2015-10-07,Bayview,4,SF
"160 Orsi Cir, San Francisco, CA 94124",3,2,1620,zillow_sf,http://www.zillow.com/homedetails/160-Orsi-Cir-San-Francisco-CA-94124/15159149_zpid/,-122.398,37.7275,11.8514,1998,0,rental,4000,open,,,2015-10-10,Bayview,4,SF
723 Ellsworth Street,3,2,1750,climbsf_rented,http://www.climbsf.com/for-rent/723-ellsworth-st/,-122.415,37.7343,37.6665,,,rental,3450,closed,,2013-10-22,,Bernal Heights,5,SF
501 Crescent Way #5107,2,2,1057,climbsf_rented,http://www.climbsf.com/for-rent/501-crescent-way-5107/,-122.416,37.735,48.1922,,,rental,2800,closed,,2014-06-02,,Bernal Heights,5,SF
1 College Avenue,3,2,1600,climbsf_rented,http://www.climbsf.com/for-rent/1-college-ave/,-122.428,37.7347,60.2336,,,rental,5300,closed,,2015-07-08,,Bernal Heights,5,SF
301 Crescent Court #3107,2,2,892,climbsf_renting,http://www.climbsf.com/for-rent/301-crescent-ct-3107/,-122.419,37.7352,63.9895,,,rental,3150,closed,4,2015-08-27,2015-08-23,Bernal Heights,5,SF
"212 Cortland Ave, San Francisco, CA 94110",3,2,1200,zillow_sf,http://www.zillow.com/homedetails/212-Cortland-Ave-San-Francisco-CA-94110/15162751_zpid/,-122.419,37.7394,79.8597,,,rental,6500,open,,,2015-08-04,Bernal Heights,5,SF
"339 Elsie St, San Francisco, CA 94110",4,3,1850,zillow_sf,http://www.zillow.com/homedetails/339-Elsie-St-San-Francisco-CA-94110/15162738_zpid/,-122.42,37.7387,86.9865,,,rental,7500,open,,,2015-01-14,Bernal Heights,5,SF
"165 Crescent Ave, San Francisco, CA 94110",1,1,560,zillow_sf,http://www.zillow.com/homedetails/165-Crescent-Ave-San-Francisco-CA-94110/15164323_zpid/,-122.421,37.7353,75.2007,,,rental,4000,open,,,2015-07-28,Bernal Heights,5,SF
"112 Ripley St, San Francisco, CA 94110",1,1,574,zillow_sf,http://www.zillow.com/homedetails/112-Ripley-St-San-Francisco-CA-94110/2101198723_zpid/,-122.413,37.744,71.7004,,,rental,3100,open,,,2015-09-05,Bernal Heights,5,SF
"3179 Cesar Chavez, San Francisco, CA 94110",3,2,1625,zillow_sf,http://www.zillow.com/homedetails/3179-Cesar-Chavez-San-Francisco-CA-94110/15159678_zpid/,-122.413,37.7479,20.2428,1900,0,rental,4650,open,,,2015-10-12,Bernal Heights,5,SF
"Cortland Ave San Francisco, CA 94110",4,2,0,zillow_sf,http://www.zillow.com/homedetails/Cortland-Ave-San-Francisco-CA-94110/2104086314_zpid/,-122.415,37.7389,69.0465,,0,rental,7500,closed,6,2015-10-04,2015-09-28,Bernal Heights,5,SF
"342 Moultrie St, San Francisco, CA 94110",3,1,1200,zillow_sf,http://www.zillow.com/homedetails/342-Moultrie-St-San-Francisco-CA-94110/15162407_zpid/,-122.416,37.7398,80.0792,1849,0,rental,5000,open,,,2015-10-03,Bernal Heights,5,SF
"289 Crescent Ave, San Francisco, CA 94110",2,2,912,zillow_sf,http://www.zillow.com/homedetails/289-Crescent-Ave-San-Francisco-CA-94110/15164262_zpid/,-122.419,37.7352,64.8636,1952,0,rental,4995,open,,,2015-10-08,Bernal Heights,5,SF
355 Buena Vista Avenue East #305W,1,1,730,climbsf_rented,http://www.climbsf.com/for-rent/355-buena-vista-avenue-east-305w/,-122.44,37.7673,130.553,,,rental,2700,closed,,2013-05-21,,Buena Vista Park/Ashbury Heights,6,SF
"342 Upper Ter, San Francisco, CA 94117",2,1,1200,zillow_sf,http://www.zillow.com/homedetails/342-Upper-Ter-San-Francisco-CA-94117/89238855_zpid/,-122.446,37.7625,157.982,,,rental,4600,closed,68,2015-10-03,2015-07-27,Buena Vista Park/Ashbury Heights,6,SF
"355 Buena Vista Ave E UNIT 207, San Francisco, CA 94117",1,1,781,zillow_sf,http://www.zillow.com/homedetails/355-Buena-Vista-Ave-E-UNIT-207-San-Francisco-CA-94117/15126722_zpid/,-122.44,37.7673,130.553,1986,0,rental,3800,open,,,2015-10-01,Buena Vista Park/Ashbury Heights,6,SF
"109 Alpine Ter, San Francisco, CA 94117",4,5,2182,zillow_sf,http://www.zillow.com/homedetails/109-Alpine-Ter-San-Francisco-CA-94117/15126971_zpid/,-122.437,37.7688,101.11,2011,1,rental,22950,open,,,2015-10-09,Buena Vista Park/Ashbury Heights,6,SF
"1126 Ashbury St, San Francisco, CA 94117",2,1,1095,zillow_sf,http://www.zillow.com/homedetails/1126-Ashbury-St-San-Francisco-CA-94117/54854576_zpid/,-122.447,37.7627,134.112,,,rental,4795,closed,,2015-10-11,,Buena Vista Park/Ashbury Heights,6,SF
"956 Ashbury St, San Francisco, CA 94117",5,2,1842,zillow_sf,http://www.zillow.com/homedetails/956-Ashbury-St-San-Francisco-CA-94117/15127213_zpid/,-122.446,37.7649,131.221,1910,1,rental,10800,open,,,2015-10-08,Buena Vista Park/Ashbury Heights,6,SF
657 26th Avenue,2,1,1300,climbsf_rented,http://www.climbsf.com/for-rent/657-26th-ave/,-122.486,37.7771,58.5165,,,rental,3700,closed,,2013-12-26,,Central Richmond,7,SF
374 27th Avenue,2,1,1350,climbsf_rented,http://www.climbsf.com/for-rent/374-27th-ave/,-122.487,37.7824,49.1082,,,rental,3900,closed,,2014-01-29,,Central Richmond,7,SF
655 26th Avenue,2,1,1750,climbsf_rented,http://www.climbsf.com/for-rent/655-26th-ave/,-122.486,37.7771,59.403,,,rental,4600,closed,,2015-08-18,,Central Richmond,7,SF
"2443 Clement St # 7, San Francisco, CA 94121",2,2,0,zillow_sf,http://www.zillow.com/homedetails/2443-Clement-St-7-San-Francisco-CA-94121/2140944175_zpid/,-122.486,37.7818,44.4868,,,rental,3600,closed,10,2015-10-03,2015-09-23,Central Richmond,7,SF
"846 30th Ave, San Francisco, CA 94121",3,2,1562,zillow_sf,http://www.zillow.com/homedetails/846-30th-Ave-San-Francisco-CA-94121/15099721_zpid/,-122.489,37.7733,46.7235,1931,0,rental,6300,open,,,2015-09-18,Central Richmond,7,SF
"570 20th Ave, San Francisco, CA 94121",2,1,1350,zillow_sf,http://www.zillow.com/homedetails/570-20th-Ave-San-Francisco-CA-94121/15095303_zpid/,-122.479,37.7771,48.1917,1922,0,rental,3995,open,,,2015-10-09,Central Richmond,7,SF
"2036 Balboa St, San Francisco, CA 94121",0,1,0,zillow_sf,http://www.zillow.com/homedetails/2036-Balboa-St-San-Francisco-CA-94121/2122239207_zpid/,-122.481,37.7765,53.3808,,0,rental,1850,closed,2,2015-10-04,2015-10-02,Central Richmond,7,SF
"533 23rd Ave, San Francisco, CA 94121",2,2,1200,zillow_sf,http://www.zillow.com/homedetails/533-23rd-Ave-San-Francisco-CA-94121/2100955884_zpid/,-122.482,37.7776,45.4973,,0,rental,4500,open,,,2015-10-02,Central Richmond,7,SF
"442 20th Ave APT 2, San Francisco, CA 94121",3,2,1468,zillow_sf,http://www.zillow.com/homedetails/442-20th-Ave-APT-2-San-Francisco-CA-94121/69819033_zpid/,-122.479,37.7795,47.0067,2005,0,rental,5150,open,,,2015-10-06,Central Richmond,7,SF
1384 29th Avenue,2,1,0,climbsf_renting,http://www.climbsf.com/for-rent/1384-29th-ave/,-122.488,37.7615,65.9977,,,rental,3400,closed,7,2015-10-04,2015-09-27,Central Sunset,8,SF
"1822 20th Ave, San Francisco, CA 94122",3,1,1930,zillow_sf,http://www.zillow.com/homedetails/1822-20th-Ave-San-Francisco-CA-94122/15112285_zpid/,-122.477,37.7537,110.095,1923,0,rental,4500,open,,,2015-10-08,Central Sunset,8,SF
"1630 25th Ave, San Francisco, CA 94122",3,3,1320,zillow_sf,http://www.zillow.com/homedetails/1630-25th-Ave-San-Francisco-CA-94122/15109211_zpid/,-122.483,37.7571,81.9743,,,rental,5950,open,,,2015-07-18,Central Sunset,8,SF
"23rd Ave San Francisco, CA 94122",4,2,2263,zillow_sf,http://www.zillow.com/homedetails/23rd-Ave-San-Francisco-CA-94122/2101340677_zpid/,-122.481,37.7587,78.9973,,,rental,5500,open,,,2015-08-21,Central Sunset,8,SF
"1411 29th Ave, San Francisco, CA 94122",2,1,1200,zillow_sf,http://www.zillow.com/homedetails/1411-29th-Ave-San-Francisco-CA-94122/2101424874_zpid/,-122.488,37.7609,67.8427,,,rental,3350,closed,5,2015-10-05,2015-09-30,Central Sunset,8,SF
"1284 28th Ave, San Francisco, CA 94122",3,1,1750,zillow_sf,http://www.zillow.com/homedetails/1284-28th-Ave-San-Francisco-CA-94122/15101700_zpid/,-122.487,37.7635,61.9136,,,rental,4975,closed,23,2015-10-07,2015-09-14,Central Sunset,8,SF
"1234 26th Ave, San Francisco, CA 94122",4,3,2250,zillow_sf,http://www.zillow.com/homedetails/1234-26th-Ave-San-Francisco-CA-94122/15101784_zpid/,-122.484,37.7644,62.1603,1926,0,rental,5800,closed,28,2015-10-07,2015-09-09,Central Sunset,8,SF
"1290 23rd Ave, San Francisco, CA 94122",3,2,1300,zillow_sf,http://www.zillow.com/homedetails/1290-23rd-Ave-San-Francisco-CA-94122/64971491_zpid/,-122.481,37.7636,66.028,2004,0,rental,4600,open,,,2015-09-25,Central Sunset,8,SF
"1347 23rd Ave, San Francisco, CA 94122",4,1,2100,zillow_sf,http://www.zillow.com/homedetails/1347-23rd-Ave-San-Francisco-CA-94122/15103114_zpid/,-122.482,37.7625,67.6632,1915,1,rental,5195,open,,,2015-10-03,Central Sunset,8,SF
"1539 27th Ave, San Francisco, CA 94122",3,2,2208,zillow_sf,http://www.zillow.com/homedetails/1539-27th-Ave-San-Francisco-CA-94122/15107079_zpid/,-122.486,37.7587,83.5604,1938,0,rental,4900,open,,,2015-09-22,Central Sunset,8,SF
"1887 33rd Ave, San Francisco, CA 94122",2,1,1200,zillow_sf,http://www.zillow.com/homedetails/1887-33rd-Ave-San-Francisco-CA-94122/15112944_zpid/,-122.492,37.752,70.4884,,,rental,4000,open,,,2015-09-24,Central Sunset,8,SF
"1207 32nd Ave, San Francisco, CA 94122",3,1,1310,zillow_sf,http://www.zillow.com/homedetails/1207-32nd-Ave-San-Francisco-CA-94122/15101464_zpid/,-122.491,37.7646,52.5556,1923,1,rental,4000,open,,,2015-10-02,Central Sunset,8,SF
"3301 Irving St, San Francisco, CA 94122",1,1,450,zillow_sf,http://www.zillow.com/homedetails/3301-Irving-St-San-Francisco-CA-94122/15103576_zpid/,-122.493,37.7626,51.5319,1944,0,rental,1600,open,,,2015-10-12,Central Sunset,8,SF
100 Palo Alto Avenue,4,3,4800,climbsf_rented,http://www.climbsf.com/for-rent/100-palo-alto-ave/,-122.449,37.757,239.364,,,rental,11000,closed,,2015-06-24,,Clarendon Heights,9,SF
"193 Saint Germain Ave, San Francisco, CA 94114",4,2,2810,zillow_sf,http://www.zillow.com/homedetails/193-Saint-Germain-Ave-San-Francisco-CA-94114/15130090_zpid/,-122.452,37.7572,233.296,1962,1,rental,9950,closed,76,2015-10-07,2015-07-23,Clarendon Heights,9,SF
"States St San Francisco, CA 94114",4,3,2800,zillow_sf,http://www.zillow.com/homedetails/States-St-San-Francisco-CA-94114/2102801110_zpid/,-122.439,37.7635,80.5353,,,rental,12995,closed,32,2015-10-04,2015-09-02,Corona Heights,10,SF
"42 States St, San Francisco, CA 94114",4,3,2879,zillow_sf,http://www.zillow.com/homedetails/42-States-St-San-Francisco-CA-94114/59700322_zpid/,-122.436,37.7636,67.4907,2001,1,rental,9995,open,,,2015-10-10,Corona Heights,10,SF
"235 Roosevelt Way, San Francisco, CA 94114",2,1,785,zillow_sf,http://www.zillow.com/homedetails/235-Roosevelt-Way-San-Francisco-CA-94114/69819062_zpid/,-122.44,37.7659,113.74,,,rental,4150,open,,,2015-09-07,Corona Heights,10,SF
"37 Diamond St, San Francisco, CA 94114",3,3,1900,zillow_sf,http://www.zillow.com/homedetails/37-Diamond-St-San-Francisco-CA-94114/2101210809_zpid/,-122.437,37.7619,42.9231,,,rental,6995,closed,16,2015-10-07,2015-09-21,Corona Heights,10,SF
"4390 17th St, San Francisco, CA 94114",2,1,1200,zillow_sf,http://www.zillow.com/homedetails/4390-17th-St-San-Francisco-CA-94114/15128148_zpid/,-122.443,37.7622,96.5048,1900,0,rental,4800,open,,,2015-10-02,Corona Heights,10,SF
"16 Flint St, San Francisco, CA 94114",3,2,1401,zillow_sf,http://www.zillow.com/homedetails/16-Flint-St-San-Francisco-CA-94114/15127139_zpid/,-122.437,37.7643,79.0216,,,rental,7500,open,,,2015-09-15,Corona Heights,10,SF
"2750 Market St, San Francisco, CA 94114",2,2,1200,zillow_sf,http://www.zillow.com/homedetails/2750-Market-St-San-Francisco-CA-94114/2132904225_zpid/,-122.439,37.7617,50.8858,,,rental,4795,closed,13,2015-10-09,2015-09-26,Corona Heights,10,SF
"64-66 Deming Street 64 Deming St, San Francisco, CA 94114",2,2,900,zillow_sf,http://www.zillow.com/homedetails/64-66-Deming-Street-64-Deming-St-San-Francisco-CA-94114/2100954236_zpid/,-122.446,37.7607,132.986,1927,0,rental,5500,open,,,2015-10-02,Corona Heights,10,SF
"Greenwich St San Francisco, CA 94123",3,2,1500,zillow_sf,http://www.zillow.com/homedetails/Greenwich-St-San-Francisco-CA-94123/2103871868_zpid/,-122.436,37.799,18.5231,,,rental,10000,open,,,2015-01-04,Cow Hollow,11,SF
"1541 Filbert St APT 5, San Francisco, CA 94123",3,2,1600,zillow_sf,http://www.zillow.com/homedetails/1541-Filbert-St-APT-5-San-Francisco-CA-94123/2107285609_zpid/,-122.425,37.7991,26.6807,1962,0,rental,9000,closed,32,2015-10-14,2015-09-12,Cow Hollow,11,SF
"2078 Green St, San Francisco, CA 94123",2,2,1976,zillow_sf,http://www.zillow.com/homedetails/2078-Green-St-San-Francisco-CA-94123/15071955_zpid/,-122.433,37.7966,44.2592,1909,1,rental,9000,open,,,2015-10-08,Cow Hollow,11,SF
"2260 Greenwich St, San Francisco, CA 94123",3,3,2000,zillow_sf,http://www.zillow.com/homedetails/2260-Greenwich-St-San-Francisco-CA-94123/2101095858_zpid/,-122.437,37.799,19.5425,,,rental,7000,open,,,2015-09-19,Cow Hollow,11,SF
"Greenwich St San Francisco, CA 94123",3,3,2000,zillow_sf,http://www.zillow.com/homedetails/Greenwich-St-San-Francisco-CA-94123/2101049445_zpid/,-122.436,37.799,18.5231,1920,0,rental,6500,closed,11,2015-10-04,2015-09-23,Cow Hollow,11,SF
"2378 Union St # A, San Francisco, CA 94123",1,1,436,zillow_sf,http://www.zillow.com/homedetails/2378-Union-St-A-San-Francisco-CA-94123/15071817_zpid/,-122.438,37.797,32.0092,1906,0,rental,4000,open,,,2015-10-06,Cow Hollow,11,SF
"2839 Pierce Street # Top Floor, San Francisco, CA 94123",2,2,1450,zillow_sf,http://www.zillow.com/homedetails/2839-Pierce-Street-Top-Floor-San-Francisco-CA-94123/2100891977_zpid/,-122.44,37.798,29.203,1947,0,rental,5950,open,,,2015-10-09,Cow Hollow,11,SF
"2885 Union St, San Francisco, CA 94123",3,3,2334,zillow_sf,http://www.zillow.com/homedetails/2885-Union-St-San-Francisco-CA-94123/15080567_zpid/,-122.447,37.7955,46.1909,1913,0,rental,16000,open,,,2015-10-10,Cow Hollow,11,SF
"Brunswick St San Francisco, CA 94112",1,1,0,zillow_sf,http://www.zillow.com/homedetails/Brunswick-St-San-Francisco-CA-94112/2101386811_zpid/,-122.446,37.7098,98.7771,,,rental,950,open,,,2015-08-16,Crocker Amazon,12,SF
"86 Chicago Way, San Francisco, CA 94112",4,2,1527,zillow_sf,http://www.zillow.com/homedetails/86-Chicago-Way-San-Francisco-CA-94112/15177518_zpid/,-122.43,37.711,97.6927,,,rental,4500,closed,11,2015-10-09,2015-09-28,Crocker Amazon,12,SF
970 Duncan Street #304F,2,2,1175,climbsf_rented,http://www.climbsf.com/for-rent/970-duncan-st-304f/,-122.442,37.7454,187.545,,,rental,3300,closed,,2014-01-13,,Diamond Heights,13,SF
"20 Quartz Way, San Francisco, CA 94131",6,3,2900,zillow_sf,http://www.zillow.com/homedetails/20-Quartz-Way-San-Francisco-CA-94131/15198789_zpid/,-122.446,37.7457,159.367,,,rental,8500,open,,,2015-08-06,Diamond Heights,13,SF
"Crags Ct San Francisco, CA 94131",4,2,0,zillow_sf,http://www.zillow.com/homedetails/Crags-Ct-San-Francisco-CA-94131/2101943191_zpid/,-122.44,37.7411,150.685,,0,rental,6800,closed,37,2015-10-04,2015-08-28,Diamond Heights,13,SF
"38 Cameo Way, San Francisco, CA 94131",2,1,1700,zillow_sf,http://www.zillow.com/homedetails/38-Cameo-Way-San-Francisco-CA-94131/15198816_zpid/,-122.445,37.745,173.94,,,rental,5000,open,,,2015-08-22,Diamond Heights,13,SF
"175 Red Rock Way APT 206K, San Francisco, CA 94131",0,1,474,zillow_sf,http://www.zillow.com/homedetails/175-Red-Rock-Way-APT-206K-San-Francisco-CA-94131/2101014304_zpid/,-122.442,37.7457,196.384,1972,0,rental,2650,open,,,2015-10-03,Diamond Heights,13,SF
"5106 Diamond Heights Blvd # B, San Francisco, CA 94131",3,2,1410,zillow_sf,http://www.zillow.com/homedetails/5106-Diamond-Heights-Blvd-B-San-Francisco-CA-94131/2131678729_zpid/,-122.442,37.7468,192.98,1965,0,rental,5940,open,,,2015-10-07,Diamond Heights,13,SF
"117 Topaz Way, San Francisco, CA 94131",3,2,2050,zillow_sf,http://www.zillow.com/homedetails/117-Topaz-Way-San-Francisco-CA-94131/15199979_zpid/,-122.436,37.7411,176.492,1978,0,rental,5990,open,,,2015-10-07,Diamond Heights,13,SF
900 Bush Street #410,0,1,0,climbsf_rented,http://www.climbsf.com/for-rent/900-bush-st-410/,-122.413,37.79,62.3965,,,rental,2100,closed,,2015-10-04,,Downtown,14,SF
181 O'Farrell Street #502,1,1,1499,climbsf_rented,http://www.climbsf.com/for-rent/181-ofarrell-st-502/,-122.408,37.7863,15.3914,,,rental,4000,closed,,2014-06-24,,Downtown,14,SF
1001 Pine Street #1204,1,1,616,climbsf_rented,http://www.climbsf.com/for-rent/1001-pine-st-1204/,-122.413,37.7903,67.5895,,,rental,0,closed,,2015-10-04,,Downtown,14,SF
1299 Bush Street #303,2,2,978,climbsf_rented,http://www.climbsf.com/for-rent/1299-bush-st-303/,-122.419,37.7889,49.8548,,,rental,4300,closed,,2014-11-04,,Downtown,14,SF
637 Powell Street #202,2,1,1590,climbsf_rented,http://www.climbsf.com/for-rent/637-powell-st-202/,-122.409,37.7906,50.9419,,,rental,4500,closed,,2014-12-12,,Downtown,14,SF
735 Geary Street #303,1,1,820,climbsf_rented,http://www.climbsf.com/for-rent/735-geary-st-303/,-122.415,37.7862,36.3448,,,rental,3000,closed,,2015-01-08,,Downtown,14,SF
"1177 California St, San Francisco, CA 94108",2,2,1640,zillow_sf,http://www.zillow.com/homedetails/1177-California-St-San-Francisco-CA-94108/2105667673_zpid/,-122.414,37.791,87.0144,,,rental,2400,open,,,2015-03-19,Downtown,14,SF
"725 Pine St APT 301, San Francisco, CA 94108",1,1,550,zillow_sf,http://www.zillow.com/homedetails/725-Pine-St-APT-301-San-Francisco-CA-94108/82785250_zpid/,-122.408,37.791,52.1983,,,rental,3090,closed,33,2015-10-06,2015-09-03,Downtown,14,SF
"Ofarrell St San Francisco, CA 94109",0,1,400,zillow_sf,http://www.zillow.com/homedetails/Ofarrell-St-San-Francisco-CA-94109/2106160953_zpid/,-122.419,37.7851,34.5974,,,rental,2375,open,,,2015-09-17,Downtown,14,SF
"1264 Pine St, San Francisco, CA 94109",3,1,2100,zillow_sf,http://www.zillow.com/homedetails/1264-Pine-St-San-Francisco-CA-94109/2104136187_zpid/,-122.417,37.7901,68.4919,,0,rental,6500,open,,,2015-09-14,Downtown,14,SF
"Cyril Magnin St San Francisco, CA 94102",2,2,0,zillow_sf,http://www.zillow.com/homedetails/Cyril-Magnin-St-San-Francisco-CA-94102/2101089190_zpid/,-122.409,37.7852,14.1129,,,rental,4300,closed,14,2015-10-04,2015-09-20,Downtown,14,SF
"900 Bush St APT 318, San Francisco, CA 94109",1,1,600,zillow_sf,http://www.zillow.com/homedetails/900-Bush-St-APT-318-San-Francisco-CA-94109/15069016_zpid/,-122.413,37.7899,62.2987,1982,0,rental,4200,open,,,2015-08-27,Downtown,14,SF
997 14th Street,1,1,600,climbsf_rented,http://www.climbsf.com/for-rent/997-14th-st/,-122.435,37.7672,72.7381,,,rental,2700,closed,,2013-09-16,,Duboce Triangle,15,SF
8 Buchanan Street #600,2,1,881,climbsf_rented,http://www.climbsf.com/for-rent/8-buchanan-st-600/,-122.427,37.7697,35.6563,,,rental,4000,closed,,2014-05-13,,Duboce Triangle,15,SF
8 Buchanan Street #214,0,1,453,climbsf_rented,http://www.climbsf.com/for-rent/1960-market-st-214/,-122.427,37.7697,35.6563,,,rental,2975,closed,,2015-06-15,,Duboce Triangle,15,SF
"923 14th St, San Francisco, CA 94114",3,1,1700,zillow_sf,http://www.zillow.com/homedetails/923-14th-St-San-Francisco-CA-94114/15142913_zpid/,-122.434,37.7672,55.4926,1900,1,rental,6000,closed,23,2015-10-07,2015-09-14,Duboce Triangle,15,SF
"8 Buchanan St UNIT 507, San Francisco, CA 94102",1,1,640,zillow_sf,http://www.zillow.com/homedetails/8-Buchanan-St-UNIT-507-San-Francisco-CA-94102/2101409840_zpid/,-122.427,37.7697,35.6563,,,rental,3895,open,,,2015-08-25,Duboce Triangle,15,SF
"2154 Market St APT C, San Francisco, CA 94114",1,1,455,zillow_sf,http://www.zillow.com/homedetails/2154-Market-St-APT-C-San-Francisco-CA-94114/2101338545_zpid/,-122.43,37.7669,33.3263,,,rental,2750,open,,,2015-09-04,Duboce Triangle,15,SF
"Market St San Francisco, CA 94114",2,2,1200,zillow_sf,http://www.zillow.com/homedetails/Market-St-San-Francisco-CA-94114/2101096892_zpid/,-122.426,37.7696,35.2097,,,rental,4995,open,,,2015-09-18,Duboce Triangle,15,SF
"8 Buchanan St UNIT 310, San Francisco, CA 94102",1,1,721,zillow_sf,http://www.zillow.com/homedetails/8-Buchanan-St-UNIT-310-San-Francisco-CA-94102/2100924623_zpid/,-122.427,37.7697,35.6563,2014,0,rental,3695,open,,,2015-10-09,Duboce Triangle,15,SF
4517 18th Street,3,3,1400,climbsf_rented,http://www.climbsf.com/for-rent/4517-18th-st/,-122.44,37.7604,45.9379,,,rental,5800,closed,,2013-06-04,,Eureka Valley / Dolores Heights,16,SF
225 Grandview Avenue,3,2,0,climbsf_rented,http://www.climbsf.com/for-rent/225-grand-view-ave/,-122.441,37.7547,119.374,,,rental,9500,closed,,2015-10-04,,Eureka Valley / Dolores Heights,16,SF
306 Eureka Street,1,1,756,climbsf_rented,http://www.climbsf.com/for-rent/306-eureka-st/,-122.438,37.7572,83.7298,,,rental,3250,closed,,2014-05-20,,Eureka Valley / Dolores Heights,16,SF
163 Liberty Street,3,2,2060,climbsf_rented,http://www.climbsf.com/for-rent/163-liberty-st/,-122.425,37.7571,41.2734,,,rental,7500,closed,,2014-08-12,,Eureka Valley / Dolores Heights,16,SF
234 Grand View Avenue,3,2,1682,climbsf_rented,http://www.climbsf.com/for-rent/234-grand-view-ave/,-122.441,37.7545,131.494,,,rental,7300,closed,,2014-09-26,,Eureka Valley / Dolores Heights,16,SF
55 Hancock Street,2,1,1040,climbsf_rented,http://www.climbsf.com/for-rent/55-hancock-st-1/,-122.429,37.7602,30.889,,,rental,4400,closed,,2014-11-25,,Eureka Valley / Dolores Heights,16,SF
3065 Market Street,2,1,0,climbsf_rented,http://www.climbsf.com/for-rent/3065-market-st/,-122.442,37.7609,67.1337,,,rental,3900,closed,,2015-10-04,,Eureka Valley / Dolores Heights,16,SF
"(Undisclosed Address) San Francisco, CA 94114",1,1,800,zillow_sf,http://www.zillow.com/homedetails/(Undisclosed-Address)-San-Francisco-CA-94114/2111980598_zpid/,-122.433,37.7561,99.598,,0,rental,4250,closed,478,2015-10-04,2014-06-13,Eureka Valley / Dolores Heights,16,SF
"20th St San Francisco, CA 94114",2,1,850,zillow_sf,http://www.zillow.com/homedetails/20th-St-San-Francisco-CA-94114/2104055540_zpid/,-122.432,37.7578,70.3663,,,rental,5700,open,,,2015-05-14,Eureka Valley / Dolores Heights,16,SF
"149 Hartford St, San Francisco, CA 94114",3,2,2100,zillow_sf,http://www.zillow.com/homedetails/149-Hartford-St-San-Francisco-CA-94114/15144408_zpid/,-122.434,37.7602,30.035,1900,0,rental,7600,closed,111,2015-10-07,2015-06-18,Eureka Valley / Dolores Heights,16,SF
"Cumberland St San Francisco, CA 94114",5,4,0,zillow_sf,http://www.zillow.com/homedetails/Cumberland-St-San-Francisco-CA-94114/2101963834_zpid/,-122.43,37.7588,69.1504,,,rental,22500,closed,89,2015-10-04,2015-07-07,Eureka Valley / Dolores Heights,16,SF
"18th St San Francisco, CA 94114",2,1,940,zillow_sf,http://www.zillow.com/homedetails/18th-St-San-Francisco-CA-94114/2101740991_zpid/,-122.435,37.7609,25.2467,,0,rental,4990,closed,90,2015-10-07,2015-07-09,Eureka Valley / Dolores Heights,16,SF
"3745 21st St, San Francisco, CA 94114",4,3,3300,zillow_sf,http://www.zillow.com/homedetails/3745-21st-St-San-Francisco-CA-94114/53153469_zpid/,-122.431,37.7562,111.071,,,rental,15000,open,,,2015-07-13,Eureka Valley / Dolores Heights,16,SF
"3822 19th St APT 7, San Francisco, CA 94114",2,2,0,zillow_sf,http://www.zillow.com/homedetails/3822-19th-St-APT-7-San-Francisco-CA-94114/2105976729_zpid/,-122.429,37.7597,34.0805,,,rental,4350,open,,,2015-08-28,Eureka Valley / Dolores Heights,16,SF
"169 Hancock St, San Francisco, CA 94114",2,1,1270,zillow_sf,http://www.zillow.com/homedetails/169-Hancock-St-San-Francisco-CA-94114/15144485_zpid/,-122.432,37.76,36.3564,,,rental,5000,closed,3,2015-10-07,2015-10-04,Eureka Valley / Dolores Heights,16,SF
"4658 18th St, San Francisco, CA 94114",3,3,1806,zillow_sf,http://www.zillow.com/homedetails/4658-18th-St-San-Francisco-CA-94114/15128528_zpid/,-122.442,37.7606,65.1047,1900,0,rental,7500,closed,22,2015-10-07,2015-09-15,Eureka Valley / Dolores Heights,16,SF
"857 Church St APT 3, San Francisco, CA 94114",1,1,830,zillow_sf,http://www.zillow.com/homedetails/857-Church-St-APT-3-San-Francisco-CA-94114/2113996511_zpid/,-122.428,37.7571,56.3013,,,rental,4000,open,,,2015-09-10,Eureka Valley / Dolores Heights,16,SF
"326 Eureka St, San Francisco, CA 94114",1,1,836,zillow_sf,http://www.zillow.com/homedetails/326-Eureka-St-San-Francisco-CA-94114/123596753_zpid/,-122.438,37.7569,82.4832,,,rental,3995,closed,3,2015-10-01,2015-09-28,Eureka Valley / Dolores Heights,16,SF
"530 Noe St, San Francisco, CA 94114",2,2,1000,zillow_sf,http://www.zillow.com/homedetails/530-Noe-St-San-Francisco-CA-94114/2101885247_zpid/,-122.433,37.7604,25.2879,,,rental,5900,closed,19,2015-10-07,2015-09-18,Eureka Valley / Dolores Heights,16,SF
"366 Eureka St, San Francisco, CA 94114",2,1,1200,zillow_sf,http://www.zillow.com/homedetails/366-Eureka-St-San-Francisco-CA-94114/2101107502_zpid/,-122.438,37.7561,91.195,,,rental,3950,open,,,2015-09-18,Eureka Valley / Dolores Heights,16,SF
"37 Diamond St, San Francisco, CA 94114",3,3,1900,zillow_sf,http://www.zillow.com/homedetails/37-Diamond-St-San-Francisco-CA-94114/2101210809_zpid/,-122.437,37.7619,42.9231,,,rental,6995,closed,16,2015-10-07,2015-09-21,Eureka Valley / Dolores Heights,16,SF
"4308 21st St, San Francisco, CA 94114",2,1,1150,zillow_sf,http://www.zillow.com/homedetails/4308-21st-St-San-Francisco-CA-94114/15130487_zpid/,-122.439,37.7555,103.109,1893,0,rental,6995,open,,,2015-10-11,Eureka Valley / Dolores Heights,16,SF
"3928 20th St, San Francisco, CA 94114",4,3,1416,zillow_sf,http://www.zillow.com/homedetails/3928-20th-St-San-Francisco-CA-94114/15145020_zpid/,-122.429,37.7583,48.2604,,,rental,17500,closed,15,2015-10-09,2015-09-24,Eureka Valley / Dolores Heights,16,SF
"(Undisclosed Address) San Francisco, CA 94114",2,1,1000,zillow_sf,http://www.zillow.com/homedetails/(Undisclosed-Address)-San-Francisco-CA-94114/2114015500_zpid/,-122.433,37.7561,99.598,,0,rental,5250,closed,13,2015-10-04,2015-09-21,Eureka Valley / Dolores Heights,16,SF
"252 Hartford St, San Francisco, CA 94114",2,1,0,zillow_sf,http://www.zillow.com/homedetails/252-Hartford-St-San-Francisco-CA-94114/2101079103_zpid/,-122.434,37.7585,46.4513,1923,0,rental,4800,closed,12,2015-10-04,2015-09-22,Eureka Valley / Dolores Heights,16,SF
"18th St San Francisco, CA 94114",1,1,600,zillow_sf,http://www.zillow.com/homedetails/18th-St-San-Francisco-CA-94114/2100964457_zpid/,-122.435,37.7609,25.2467,,0,rental,3500,open,,,2015-10-01,Eureka Valley / Dolores Heights,16,SF
271 Paris Street,1,1,900,climbsf_rented,http://www.climbsf.com/for-rent/271-paris-st/,-122.433,37.7243,70.2703,,,rental,2900,closed,,2014-12-01,,Excelsior,17,SF
"242 Moscow St, San Francisco, CA 94112",3,2,1025,zillow_sf,http://www.zillow.com/homedetails/242-Moscow-St-San-Francisco-CA-94112/15169105_zpid/,-122.426,37.7238,138.19,1949,0,rental,4450,open,,,2015-09-04,Excelsior,17,SF
"587 London St, San Francisco, CA 94112",4,2,1530,zillow_sf,http://www.zillow.com/homedetails/587-London-St-San-Francisco-CA-94112/15174550_zpid/,-122.437,37.7197,73.1027,1900,1,rental,3800,closed,8,2015-10-07,2015-09-29,Excelsior,17,SF
"Athens St San Francisco, CA 94112",4,3,0,zillow_sf,http://www.zillow.com/homedetails/Athens-St-San-Francisco-CA-94112/2101524650_zpid/,-122.43,37.7201,89.7167,,,rental,6200,open,,,2015-08-01,Excelsior,17,SF
"Vienna St San Francisco, CA 94112",3,2,1700,zillow_sf,http://www.zillow.com/homedetails/Vienna-St-San-Francisco-CA-94112/2101340414_zpid/,-122.429,37.722,91.5284,,,rental,4650,open,,,2015-08-21,Excelsior,17,SF
"89 Vienna St, San Francisco, CA 94112",2,1,900,zillow_sf,http://www.zillow.com/homedetails/89-Vienna-St-San-Francisco-CA-94112/15167681_zpid/,-122.425,37.7268,110.641,1900,0,rental,3900,open,,,2015-10-08,Excelsior,17,SF
"263 Vienna St, San Francisco, CA 94112",2,1,875,zillow_sf,http://www.zillow.com/homedetails/263-Vienna-St-San-Francisco-CA-94112/15169173_zpid/,-122.427,37.724,111.37,,,rental,2900,closed,6,2015-10-08,2015-10-02,Excelsior,17,SF
"400 France Ave, San Francisco, CA 94112",3,2,1143,zillow_sf,http://www.zillow.com/homedetails/400-France-Ave-San-Francisco-CA-94112/15176281_zpid/,-122.435,37.7183,98.2757,1954,0,rental,3950,open,,,2015-10-07,Excelsior,17,SF
"119 Madrid St, San Francisco, CA 94112",3,3,1275,zillow_sf,http://www.zillow.com/homedetails/119-Madrid-St-San-Francisco-CA-94112/15167942_zpid/,-122.428,37.7274,79.8967,,,rental,4600,closed,5,2015-10-09,2015-10-04,Excelsior,17,SF
"809 Athens St, San Francisco, CA 94112",1,1,450,zillow_sf,http://www.zillow.com/homedetails/809-Athens-St-San-Francisco-CA-94112/15176648_zpid/,-122.433,37.715,77.5531,1931,0,rental,1600,open,,,2015-10-08,Excelsior,17,SF
"201 Sansome St UNIT 1001, San Francisco, CA 94104",2,2,1000,zillow_sf,http://www.zillow.com/homedetails/201-Sansome-St-UNIT-1001-San-Francisco-CA-94104/79841905_zpid/,-122.401,37.7922,4.57521,,,rental,5750,closed,25,2015-10-07,2015-09-12,Financial District/Barbary Coast,18,SF
"Davis Ct San Francisco, CA 94111",0,1,830,zillow_sf,http://www.zillow.com/homedetails/Davis-Ct-San-Francisco-CA-94111/2103579860_zpid/,-122.398,37.7963,2.76782,,,rental,3800,open,,,2015-01-28,Financial District/Barbary Coast,18,SF
"Stockton St San Francisco, CA 94108",0,1,450,zillow_sf,http://www.zillow.com/homedetails/Stockton-St-San-Francisco-CA-94108/2103580243_zpid/,-122.407,37.7906,38.0679,,,rental,3750,open,,,2015-07-22,Financial District/Barbary Coast,18,SF
"725 Pine St APT 301, San Francisco, CA 94108",1,1,550,zillow_sf,http://www.zillow.com/homedetails/725-Pine-St-APT-301-San-Francisco-CA-94108/82785250_zpid/,-122.408,37.791,52.1983,,,rental,3090,closed,33,2015-10-06,2015-09-03,Financial District/Barbary Coast,18,SF
"333 Bush St, San Francisco, CA 94104",2,2,1250,zillow_sf,http://www.zillow.com/homedetails/333-Bush-St-San-Francisco-CA-94104/15069263_zpid/,-122.403,37.7906,11.6944,1987,0,rental,5200,open,,,2015-10-07,Financial District/Barbary Coast,18,SF
"25 Hotaling Pl UNIT F, San Francisco, CA 94111",1,1,684,zillow_sf,http://www.zillow.com/homedetails/25-Hotaling-Pl-UNIT-F-San-Francisco-CA-94111/96011775_zpid/,-122.403,37.796,4.2964,1900,0,rental,3900,open,,,2015-10-05,Financial District/Barbary Coast,18,SF
74 New Montgomery #412,1,1,870,climbsf_rented,http://www.climbsf.com/for-rent/74-new-montgomery-412/,-122.401,37.7875,7.64144,,,rental,3800,closed,,2011-11-20,,Yerba Buena,19,SF
16 Jessie St #407,1,1,450,climbsf_rented,http://www.climbsf.com/for-rent/16-jessie-st-407/,-122.399,37.7899,5.27414,,,rental,2000,closed,,2011-12-20,,Yerba Buena,19,SF
16 Jessie Street #311,1,1,620,climbsf_rented,http://www.climbsf.com/for-rent/16-jessie-st-311/,-122.399,37.7899,5.27414,,,rental,3100,closed,,2013-03-26,,Yerba Buena,19,SF
300 Third Street #1114,2,2,1161,climbsf_rented,http://www.climbsf.com/for-rent/300-3rd-st-1114/,-122.399,37.7835,7.1333,,,rental,4100,closed,,2013-06-05,,Yerba Buena,19,SF
199 New Montgomery Street #208,1,1,834,climbsf_rented,http://www.climbsf.com/for-rent/199-new-montgomery-st-208/,-122.399,37.7866,7.5217,,,rental,3300,closed,,2013-07-05,,Yerba Buena,19,SF
One Hawthorne Street #2J,1,1,794,climbsf_rented,http://www.climbsf.com/for-rent/1-hawthorne-st-2j/,-122.399,37.7857,8.63035,,,rental,3300,closed,,2015-10-04,,Yerba Buena,19,SF
301 Mission Street #701,2,2,1955,climbsf_rented,http://www.climbsf.com/for-rent/301-mission-st-701/,-122.396,37.7905,0.0,,,rental,7400,closed,,2013-12-11,,Yerba Buena,19,SF
74 New Montgomery Street #515,1,1,824,climbsf_rented,http://www.climbsf.com/for-rent/74-new-montgomery-st-515/,-122.401,37.7875,7.64144,,,rental,3700,closed,,2013-12-26,,Yerba Buena,19,SF
74 New Montgomery Street #416,2,2,1123,climbsf_rented,http://www.climbsf.com/for-rent/74-new-montgomery-st-416/,-122.401,37.7875,7.64144,,,rental,4500,closed,,2014-04-22,,Yerba Buena,19,SF
301 Mission Street #14D,1,1,789,climbsf_rented,http://www.climbsf.com/for-rent/301-mission-st-14d/,-122.396,37.7905,0.0,,,rental,2950,closed,,2014-06-20,,Yerba Buena,19,SF
301 Mission Street #29F,2,2,1601,climbsf_rented,http://www.climbsf.com/for-rent/301-mission-st-29f/,-122.396,37.7905,0.0,,,rental,7975,closed,,2014-12-08,,Yerba Buena,19,SF
870 Harrison Street #603,1,1,0,climbsf_rented,http://www.climbsf.com/for-rent/870-harrison-st-603/,-122.401,37.7797,2.91992,,,rental,3500,closed,,2015-10-04,,Yerba Buena,19,SF
One Hawthorne Street #11F,2,2,1395,climbsf_rented,http://www.climbsf.com/for-rent/1-hawthorne-st-11f/,-122.399,37.7857,8.63035,,,rental,6000,closed,,2015-10-04,,Yerba Buena,19,SF
One Hawthorne Street #16B,1,1,558,climbsf_rented,http://www.climbsf.com/for-rent/1-hawthorne-st-16b/,-122.399,37.7857,8.63035,,,rental,3200,closed,,2015-10-04,,Yerba Buena,19,SF
74 New Montgomery Street #309,0,1,484,climbsf_rented,http://www.climbsf.com/for-rent/74-new-montgomery-st-309/,-122.401,37.7875,7.64144,,,rental,2850,closed,,2015-05-27,,Yerba Buena,19,SF
74 New Montgomery Street #709,1,1,489,climbsf_rented,http://www.climbsf.com/for-rent/74-new-montgomery-st-709/,-122.401,37.7875,7.64144,,,rental,3150,closed,,2015-06-09,,Yerba Buena,19,SF
77 Dow Place #707,1,1,1075,climbsf_rented,http://www.climbsf.com/for-rent/77-dow-pl-707/,-122.397,37.7841,17.9581,,,rental,3950,closed,,2015-07-08,,Yerba Buena,19,SF
301 Mission St. #53D,2,3,0,climbsf_rented,http://www.climbsf.com/for-rent/301-mission-st-53d/,-122.396,37.7905,0.0,,,rental,16000,closed,,2015-10-04,,Yerba Buena,19,SF
199 New Montgomery Street #402,2,2,0,climbsf_rented,http://www.climbsf.com/for-rent/199-new-montgomery-st-402/,-122.399,37.7866,7.5217,,,rental,4500,closed,,2015-10-04,,Yerba Buena,19,SF
821 Folsom Street #310,1,1,717,climbsf_rented,http://www.climbsf.com/for-rent/821-folsom-st-310/,-122.402,37.7815,4.54098,,,rental,3475,closed,,2015-08-06,,Yerba Buena,19,SF
16 Jessie Street #209,1,1,896,climbsf_renting,http://www.climbsf.com/for-rent/16-jessie-st-209/,-122.399,37.7899,5.27414,,,rental,4700,open,,,2015-09-27,Yerba Buena,19,SF
301 Mission Street #22H,1,1,0,climbsf_renting,http://www.climbsf.com/for-rent/301-mission-st-22h/,-122.396,37.7905,0.0,,,rental,6500,closed,7,2015-10-04,2015-09-27,Yerba Buena,19,SF
301 Mission Street #35A,2,2,0,climbsf_renting,http://www.climbsf.com/for-rent/301-mission-st-35a/,-122.396,37.7905,0.0,,,rental,8800,open,,,2015-08-23,Yerba Buena,19,SF
301 Mission St. #5A,2,2,1517,climbsf_renting,http://www.climbsf.com/for-rent/301-mission-st-5a/,-122.396,37.7905,0.0,,,rental,9000,open,,,2015-09-27,Yerba Buena,19,SF
246 Second Street #1301,1,1,0,climbsf_renting,http://www.climbsf.com/for-rent/246-2nd-st-1301/,-122.397,37.7858,12.231,,,rental,3499,closed,7,2015-10-04,2015-09-27,Yerba Buena,19,SF
"77 Dow Pl APT 901, San Francisco, CA 94107",1,1,1060,zillow_sf,http://www.zillow.com/homedetails/77-Dow-Pl-APT-901-San-Francisco-CA-94107/61325302_zpid/,-122.397,37.7841,17.9581,,,rental,4288,closed,39,2015-10-06,2015-08-28,Yerba Buena,19,SF
"74 New Montgomery St UNIT 702, San Francisco, CA 94105",2,2,1069,zillow_sf,http://www.zillow.com/homedetails/74-New-Montgomery-St-UNIT-702-San-Francisco-CA-94105/83154141_zpid/,-122.401,37.7875,7.64144,,,rental,5000,open,,,2011-05-18,Yerba Buena,19,SF
"829 Folsom St UNIT 304, San Francisco, CA 94107",1,1,700,zillow_sf,http://www.zillow.com/homedetails/829-Folsom-St-UNIT-304-San-Francisco-CA-94107/2102215787_zpid/,-122.402,37.7812,2.43132,,,rental,3850,closed,30,2015-10-11,2015-09-11,Yerba Buena,19,SF
"Hawthorne St San Francisco, CA 94105",1,1,498,zillow_sf,http://www.zillow.com/homedetails/Hawthorne-St-San-Francisco-CA-94105/2105385450_zpid/,-122.399,37.7853,10.0659,2010,0,rental,3750,closed,37,2015-10-04,2015-08-28,Yerba Buena,19,SF
"301 Mission St # 39, San Francisco, CA 94105",2,2,1601,zillow_sf,http://www.zillow.com/homedetails/301-Mission-St-39-San-Francisco-CA-94105/2102013561_zpid/,-122.396,37.7905,0.0,,,rental,11000,open,,,2015-08-08,Yerba Buena,19,SF
"Mission St San Francisco, CA 94105",2,2,1601,zillow_sf,http://www.zillow.com/homedetails/Mission-St-San-Francisco-CA-94105/2101703301_zpid/,-122.402,37.7859,8.12495,,,rental,8400,open,,,2015-08-12,Yerba Buena,19,SF
"1st St San Francisco, CA 94105",1,1,819,zillow_sf,http://www.zillow.com/homedetails/1st-St-San-Francisco-CA-94105/2101399621_zpid/,-122.395,37.7881,7.57282,2008,0,rental,5100,closed,54,2015-10-07,2015-08-14,Yerba Buena,19,SF
"Mission St San Francisco, CA 94105",2,2,1479,zillow_sf,http://www.zillow.com/homedetails/Mission-St-San-Francisco-CA-94105/2102526150_zpid/,-122.402,37.7859,8.12495,,,rental,8500,open,,,2015-08-15,Yerba Buena,19,SF
"821 Folsom St, San Francisco, CA 94107",2,2,1101,zillow_sf,http://www.zillow.com/homedetails/821-Folsom-St-San-Francisco-CA-94107/2107285769_zpid/,-122.402,37.7815,4.54098,2004,0,rental,5000,closed,43,2015-10-07,2015-08-25,Yerba Buena,19,SF
"300 3rd St, San Francisco, CA 94107",1,1,950,zillow_sf,http://www.zillow.com/homedetails/300-3rd-St-San-Francisco-CA-94107/2124263019_zpid/,-122.399,37.7835,7.1333,1990,0,rental,3900,closed,39,2015-10-07,2015-08-29,Yerba Buena,19,SF
"870 Harrison St, San Francisco, CA 94107",2,1,883,zillow_sf,http://www.zillow.com/homedetails/870-Harrison-St-San-Francisco-CA-94107/2104582649_zpid/,-122.401,37.7797,2.91992,,,rental,4650,closed,15,2015-10-03,2015-09-18,Yerba Buena,19,SF
"821 Folsom St APT 201, San Francisco, CA 94107",1,1,685,zillow_sf,http://www.zillow.com/homedetails/821-Folsom-St-APT-201-San-Francisco-CA-94107/80736506_zpid/,-122.402,37.7815,4.54098,2004,1,rental,3949,closed,15,2015-10-07,2015-09-22,Yerba Buena,19,SF
"855 Folsom St, San Francisco, CA 94107",1,1,800,zillow_sf,http://www.zillow.com/homedetails/855-Folsom-St-San-Francisco-CA-94107/96013734_zpid/,-122.402,37.781,4.13087,,,rental,3900,closed,33,2015-10-05,2015-09-02,Yerba Buena,19,SF
"199 New Montgomery St UNIT 1006, San Francisco, CA 94105",1,1,787,zillow_sf,http://www.zillow.com/homedetails/199-New-Montgomery-St-UNIT-1006-San-Francisco-CA-94105/80738327_zpid/,-122.399,37.7866,7.5217,,,rental,3850,closed,27,2015-10-01,2015-09-04,Yerba Buena,19,SF
"300 3rd St # 600, San Francisco, CA 94107",1,1,0,zillow_sf,http://www.zillow.com/homedetails/300-3rd-St-600-San-Francisco-CA-94107/2121435772_zpid/,-122.399,37.7835,7.1333,,,rental,3000,open,,,2012-02-15,Yerba Buena,19,SF
"855 Folsom St # LOFT, San Francisco, CA 94107",1,1,787,zillow_sf,http://www.zillow.com/homedetails/855-Folsom-St-LOFT-San-Francisco-CA-94107/2105478794_zpid/,-122.402,37.7808,4.14183,2001,0,rental,3995,closed,2,2015-10-12,2015-10-10,Yerba Buena,19,SF
"Folsom St San Francisco, CA 94107",1,1,812,zillow_sf,http://www.zillow.com/homedetails/Folsom-St-San-Francisco-CA-94107/2101112430_zpid/,-122.401,37.7822,4.65819,,0,rental,4200,closed,17,2015-10-04,2015-09-17,Yerba Buena,19,SF
One Hawthorne Street #2H,2,2,1377,climbsf_rented,http://www.climbsf.com/for-rent/1-hawthorne-st-2h/,-122.399,37.7857,8.63035,,,rental,5900,closed,,2015-10-04,,Yerba Buena,19,SF
"1st St San Francisco, CA 94105",2,2,995,zillow_sf,http://www.zillow.com/homedetails/1st-St-San-Francisco-CA-94105/2101098920_zpid/,-122.395,37.7881,7.57282,2004,0,rental,4750,open,,,2015-09-26,Yerba Buena,19,SF
301 Mission Street #8E,2,2,0,climbsf_renting,http://www.climbsf.com/for-rent/301-mission-st-8e/,-122.396,37.7905,0.0,,,rental,6000,closed,,2015-10-04,,Yerba Buena,19,SF
"855 Folsom St APT 318, San Francisco, CA 94107",1,1,838,zillow_sf,http://www.zillow.com/homedetails/855-Folsom-St-APT-318-San-Francisco-CA-94107/58222920_zpid/,-122.402,37.781,4.13087,2001,0,rental,3995,open,,,2015-09-24,Yerba Buena,19,SF
"631 Folsom St, San Francisco, CA 94107",2,2,1190,zillow_sf,http://www.zillow.com/homedetails/631-Folsom-St-San-Francisco-CA-94107/89237179_zpid/,-122.397,37.7848,13.4476,2009,1,rental,6250,closed,12,2015-10-07,2015-09-25,Yerba Buena,19,SF
"300 3rd Street # FL 8TH, San Francisco, CA 94107",1,1,0,zillow_sf,http://www.zillow.com/homedetails/300-3rd-Street-FL-8TH-San-Francisco-CA-94107/2101016667_zpid/,-122.399,37.7835,7.1333,1990,0,rental,3500,closed,8,2015-10-04,2015-09-26,Yerba Buena,19,SF
"188 Minna St APT 32B, San Francisco, CA 94105",2,2,1719,zillow_sf,http://www.zillow.com/homedetails/188-Minna-St-APT-32B-San-Francisco-CA-94105/69819186_zpid/,-122.401,37.7863,7.77742,2005,0,rental,12500,open,,,2015-09-29,Yerba Buena,19,SF
301 Mission Street #51D,2,3,2230,climbsf_renting,http://www.climbsf.com/for-rent/301-mission-st-51d/,-122.396,37.7905,0.0,,,rental,16500,open,,,2015-10-03,Yerba Buena,19,SF
"77 Dow Pl, San Francisco, CA 94107",1,1,1185,zillow_sf,http://www.zillow.com/homedetails/77-Dow-Pl-San-Francisco-CA-94107/2137718938_zpid/,-122.397,37.7841,17.9581,2004,0,rental,3950,open,,,2015-10-06,Yerba Buena,19,SF
"301 Mission St # 9, San Francisco, CA 94105",3,3,1900,zillow_sf,http://www.zillow.com/homedetails/301-Mission-St-9-San-Francisco-CA-94105/2100915606_zpid/,-122.396,37.7905,0.0,2009,0,rental,11500,open,,,2015-10-07,Yerba Buena,19,SF
"77 Dow Pl APT 701, San Francisco, CA 94107",1,1,1022,zillow_sf,http://www.zillow.com/homedetails/77-Dow-Pl-APT-701-San-Francisco-CA-94107/61242854_zpid/,-122.397,37.7841,17.9581,2002,1,rental,4995,open,,,2015-09-09,Yerba Buena,19,SF
"199 New Montgomery St UNIT 1103, San Francisco, CA 94105",0,1,409,zillow_sf,http://www.zillow.com/homedetails/199-New-Montgomery-St-UNIT-1103-San-Francisco-CA-94105/80739317_zpid/,-122.399,37.7866,7.5217,2004,0,rental,2490,open,,,2015-10-10,Yerba Buena,19,SF
"1st St San Francisco, CA 94105",1,1,618,zillow_sf,http://www.zillow.com/homedetails/1st-St-San-Francisco-CA-94105/2100883112_zpid/,-122.395,37.7881,7.57282,,0,rental,4500,open,,,2015-10-11,Yerba Buena,19,SF
"158 Taraval St, San Francisco, CA 94116",2,2,1345,zillow_sf,http://www.zillow.com/homedetails/158-Taraval-St-San-Francisco-CA-94116/15134082_zpid/,-122.467,37.7437,140.234,,,rental,3950,closed,17,2015-10-09,2015-09-22,Forest Hill,20,SF
"2020 9th Ave, San Francisco, CA 94116",3,2,1650,zillow_sf,http://www.zillow.com/homedetails/2020-9th-Ave-San-Francisco-CA-94116/15115298_zpid/,-122.465,37.7505,185.936,1952,1,rental,7500,open,,,2015-10-02,Forest Hill,20,SF
"75 Magellan Ave, San Francisco, CA 94116",4,3,3000,zillow_sf,http://www.zillow.com/homedetails/75-Magellan-Ave-San-Francisco-CA-94116/15132595_zpid/,-122.46,37.7492,134.315,1924,0,rental,9500,open,,,2015-09-30,Forest Hill,20,SF
"107 Ulloa St, San Francisco, CA 94127",3,1,1500,zillow_sf,http://www.zillow.com/homedetails/107-Ulloa-St-San-Francisco-CA-94127/15133630_zpid/,-122.455,37.7442,181.345,,,rental,5500,open,,,2015-09-03,Forest Hills Extension,21,SF
"364 Ulloa St, San Francisco, CA 94127",3,2,1381,zillow_sf,http://www.zillow.com/homedetails/364-Ulloa-St-San-Francisco-CA-94127/15133079_zpid/,-122.458,37.7418,163.98,1956,0,rental,4400,open,,,2015-09-18,Forest Hills Extension,21,SF
205 Beacon Street,4,3,2200,climbsf_rented,http://www.climbsf.com/for-rent/205-beacon-st/,-122.432,37.7397,137.914,,,rental,6000,closed,,2014-09-17,,Glen Park,23,SF
115 Farnum Street,3,1,0,climbsf_rented,http://www.climbsf.com/for-rent/115-farnum-st/,-122.434,37.7392,135.034,,,rental,3800,closed,,2015-10-04,,Glen Park,23,SF
149 Chenery Street,2,1,0,climbsf_rented,http://www.climbsf.com/for-rent/149-chenery-st/,-122.425,37.7393,70.6908,,,rental,3400,closed,,2015-10-04,,Glen Park,23,SF
101 Mateo Street,3,1,0,climbsf_rented,http://www.climbsf.com/for-rent/101-mateo-st/,-122.429,37.737,98.1206,,,rental,5100,closed,,2015-10-04,,Glen Park,23,SF
"1 Wilder St, San Francisco, CA 94131",3,2,1365,zillow_sf,http://www.zillow.com/homedetails/1-Wilder-St-San-Francisco-CA-94131/15185423_zpid/,-122.432,37.7338,60.1155,1938,0,rental,5500,closed,50,2015-10-07,2015-08-18,Glen Park,23,SF
"Laidley St San Francisco, CA 94131",4,4,3304,zillow_sf,http://www.zillow.com/homedetails/Laidley-St-San-Francisco-CA-94131/2102097727_zpid/,-122.429,37.7373,99.2117,,,rental,12995,closed,73,2015-10-03,2015-07-22,Glen Park,23,SF
"31 Elk St, San Francisco, CA 94131",3,2,1320,zillow_sf,http://www.zillow.com/homedetails/31-Elk-St-San-Francisco-CA-94131/15184539_zpid/,-122.439,37.7368,88.6342,1938,0,rental,5600,closed,42,2015-10-07,2015-08-26,Glen Park,23,SF
"2590 Diamond St, San Francisco, CA 94131",3,2,1300,zillow_sf,http://www.zillow.com/homedetails/2590-Diamond-St-San-Francisco-CA-94131/15184578_zpid/,-122.435,37.7374,95.7136,,,rental,5200,open,,,2015-08-31,Glen Park,23,SF
"135 Whitney St, San Francisco, CA 94131",4,3,2900,zillow_sf,http://www.zillow.com/homedetails/135-Whitney-St-San-Francisco-CA-94131/15183977_zpid/,-122.427,37.7392,83.2013,2010,0,rental,10000,closed,22,2015-10-07,2015-09-15,Glen Park,23,SF
"2812 Diamond St, San Francisco, CA 94131",1,1,0,zillow_sf,http://www.zillow.com/homedetails/2812-Diamond-St-San-Francisco-CA-94131/2101095556_zpid/,-122.434,37.7343,58.8953,,0,rental,3000,closed,3,2015-10-04,2015-10-01,Glen Park,23,SF
"Hiliritas Ave San Francisco, CA 94131",3,2,0,zillow_sf,http://www.zillow.com/homedetails/Hiliritas-Ave-San-Francisco-CA-94131/2101192164_zpid/,-122.438,37.7378,128.486,,0,rental,5200,closed,11,2015-10-04,2015-09-23,Glen Park,23,SF
"117 Topaz Way, San Francisco, CA 94131",3,2,2050,zillow_sf,http://www.zillow.com/homedetails/117-Topaz-Way-San-Francisco-CA-94131/15199979_zpid/,-122.436,37.7411,176.492,1978,0,rental,5990,open,,,2015-10-07,Glen Park,23,SF
2035 9th Avenue,2,1,1200,climbsf_rented,http://www.climbsf.com/for-rent/2035-9th-ave/,-122.466,37.7503,193.474,,,rental,4600,closed,,2015-01-26,,Golden Gate Heights,24,SF
"1922 Funston Ave, San Francisco, CA 94116",5,4,2432,zillow_sf,http://www.zillow.com/homedetails/1922-Funston-Ave-San-Francisco-CA-94116/15115085_zpid/,-122.469,37.7522,223.557,1955,0,rental,6995,closed,13,2015-10-07,2015-09-24,Golden Gate Heights,24,SF
"15th Ave San Francisco, CA 94116",4,3,0,zillow_sf,http://www.zillow.com/homedetails/15th-Ave-San-Francisco-CA-94116/2101270883_zpid/,-122.472,37.7526,157.779,,,rental,5500,open,,,2015-08-29,Golden Gate Heights,24,SF
"62 Cragmont Ave, San Francisco, CA 94116",3,2,1800,zillow_sf,http://www.zillow.com/homedetails/62-Cragmont-Ave-San-Francisco-CA-94116/15115392_zpid/,-122.467,37.7501,216.689,1954,0,rental,6495,open,,,2015-10-10,Golden Gate Heights,24,SF
"60 Cragmont Ave, San Francisco, CA 94116",3,3,2300,zillow_sf,http://www.zillow.com/homedetails/60-Cragmont-Ave-San-Francisco-CA-94116/15115394_zpid/,-122.467,37.7502,216.359,1967,0,rental,7400,closed,23,2015-10-07,2015-09-14,Golden Gate Heights,24,SF
"1639 15th Ave, San Francisco, CA 94122",4,2,2281,zillow_sf,http://www.zillow.com/homedetails/1639-15th-Ave-San-Francisco-CA-94122/15109577_zpid/,-122.473,37.7569,152.94,1977,1,rental,5680,open,,,2015-09-22,Golden Gate Heights,24,SF
"2020 9th Ave, San Francisco, CA 94116",3,2,1650,zillow_sf,http://www.zillow.com/homedetails/2020-9th-Ave-San-Francisco-CA-94116/15115298_zpid/,-122.465,37.7505,185.936,1952,1,rental,7500,open,,,2015-10-02,Golden Gate Heights,24,SF
"11th Ave San Francisco, CA 94122",3,2,2105,zillow_sf,http://www.zillow.com/homedetails/11th-Ave-San-Francisco-CA-94122/2101246371_zpid/,-122.469,37.7659,72.8103,,,rental,7000,open,,,2015-09-01,Golden Gate Park,25,SF
"1110 Page St, San Francisco, CA 94117",4,2,2888,zillow_sf,http://www.zillow.com/homedetails/1110-Page-St-San-Francisco-CA-94117/69819012_zpid/,-122.439,37.7722,77.8671,,,rental,9900,open,,,2015-08-11,Haight Ashbury,26,SF
"1134 Masonic Ave, San Francisco, CA 94117",2,1,1650,zillow_sf,http://www.zillow.com/homedetails/1134-Masonic-Ave-San-Francisco-CA-94117/89240074_zpid/,-122.445,37.7707,85.5742,,,rental,6000,open,,,2015-08-14,Haight Ashbury,26,SF
"443 Cole St, San Francisco, CA 94117",3,2,2200,zillow_sf,http://www.zillow.com/homedetails/443-Cole-St-San-Francisco-CA-94117/59700229_zpid/,-122.451,37.771,83.3993,1900,1,rental,6400,closed,106,2015-10-07,2015-06-23,Haight Ashbury,26,SF
"136A Belvedere St, San Francisco, CA 94117",4,2,1600,zillow_sf,http://www.zillow.com/homedetails/136A-Belvedere-St-San-Francisco-CA-94117/15087102_zpid/,-122.449,37.768,97.3549,,,rental,9000,open,,,2015-08-30,Haight Ashbury,26,SF
55 Page Street #814,1,1,865,climbsf_rented,http://www.climbsf.com/for-rent/55-page-street-814/,-122.422,37.774,13.962,,,rental,3200,closed,,2011-12-20,,Hayes Valley,27,SF
300 Ivy Street #403,1,1,0,climbsf_rented,http://www.climbsf.com/for-rent/300-ivy-st-403/,-122.423,37.7774,20.4928,,,rental,3500,closed,,2015-10-04,,Hayes Valley,27,SF
539 Octavia Street #17,0,1,322,climbsf_rented,http://www.climbsf.com/for-rent/539-octavia-st-17/,-122.425,37.7773,21.7199,,,rental,2375,closed,,2015-01-27,,Hayes Valley,27,SF
539 Octavia Street #13,0,1,280,climbsf_rented,http://www.climbsf.com/for-rent/539-octavia-st-13/,-122.425,37.7773,21.7199,,,rental,1995,closed,,2015-02-01,,Hayes Valley,27,SF
539 Octavia Street #4,0,1,300,climbsf_rented,http://www.climbsf.com/for-rent/539-octavia-st-4/,-122.425,37.7773,21.7199,,,rental,1950,closed,,2015-02-16,,Hayes Valley,27,SF
539 Octavia Street #9,0,1,180,climbsf_rented,http://www.climbsf.com/for-rent/539-octavia-st-9/,-122.425,37.7773,21.7199,,,rental,1500,closed,,2015-03-18,,Hayes Valley,27,SF
539 Octavia Street #11,0,1,200,climbsf_rented,http://www.climbsf.com/for-rent/539-octavia-st-11/,-122.425,37.7773,21.7199,,,rental,1600,closed,,2015-03-30,,Hayes Valley,27,SF
539 Octavia Street #12,0,1,240,climbsf_rented,http://www.climbsf.com/for-rent/539-octavia-st-12/,-122.425,37.7773,21.7199,,,rental,1800,closed,,2015-04-16,,Hayes Valley,27,SF
300 Ivy Street #500,2,2,1075,climbsf_rented,http://www.climbsf.com/for-rent/300-ivy-st-500/,-122.423,37.7774,20.4928,,,rental,4900,closed,,2015-04-21,,Hayes Valley,27,SF
539 Octavia Street #14,0,1,221,climbsf_rented,http://www.climbsf.com/for-rent/539-octavia-st-14/,-122.425,37.7773,21.7199,,,rental,1850,closed,,2015-05-14,,Hayes Valley,27,SF
539 Octavia Street #8,0,1,180,climbsf_renting,http://www.climbsf.com/for-rent/539-octavia-st-8/,-122.425,37.7773,21.7199,,,rental,1650,closed,8,2015-08-31,2015-08-23,Hayes Valley,27,SF
539 Octavia Street #3,0,1,240,climbsf_renting,http://www.climbsf.com/for-rent/539-octavia-st-3/,-122.425,37.7773,21.7199,,,rental,1950,closed,8,2015-08-31,2015-08-23,Hayes Valley,27,SF
55 Page Street #518,0,1,401,climbsf_renting,http://www.climbsf.com/for-rent/55-page-st-518/,-122.422,37.774,13.962,,,rental,3000,closed,23,2015-09-15,2015-08-23,Hayes Valley,27,SF
300 Ivy Street #503,1,1,0,climbsf_renting,http://www.climbsf.com/for-rent/300-ivy-st-503/,-122.423,37.7774,20.4928,,,rental,3825,closed,,2015-10-04,,Hayes Valley,27,SF
"635 Waller St, San Francisco, CA 94117",2,1,1357,zillow_sf,http://www.zillow.com/homedetails/635-Waller-St-San-Francisco-CA-94117/82785584_zpid/,-122.434,37.7705,54.3218,1895,0,rental,5200,closed,9,2015-10-07,2015-09-28,Hayes Valley,27,SF
"Buchanan St San Francisco, CA 94102",1,1,0,zillow_sf,http://www.zillow.com/homedetails/Buchanan-St-San-Francisco-CA-94102/2104312804_zpid/,-122.427,37.7739,46.1944,2014,0,rental,5000,closed,37,2015-10-04,2015-08-28,Hayes Valley,27,SF
"Webster St San Francisco, CA 94117",4,2,2000,zillow_sf,http://www.zillow.com/homedetails/Webster-St-San-Francisco-CA-94117/2103580027_zpid/,-122.43,37.7775,31.6568,,,rental,10499,open,,,2015-01-28,Hayes Valley,27,SF
"616 Page St, San Francisco, CA 94117",3,1,1645,zillow_sf,http://www.zillow.com/homedetails/616-Page-St-San-Francisco-CA-94117/2101343859_zpid/,-122.431,37.7731,61.8035,,0,rental,7000,closed,47,2015-10-07,2015-08-21,Hayes Valley,27,SF
"Scott St San Francisco, CA 94117",2,1,1400,zillow_sf,http://www.zillow.com/homedetails/Scott-St-San-Francisco-CA-94117/2106094861_zpid/,-122.436,37.7736,57.8517,,0,rental,5900,closed,447,2015-10-04,2014-07-14,Hayes Valley,27,SF
"46 Potomac St, San Francisco, CA 94117",2,1,1350,zillow_sf,http://www.zillow.com/homedetails/46-Potomac-St-San-Francisco-CA-94117/2101230147_zpid/,-122.433,37.77,49.688,,,rental,5000,open,,,2015-09-02,Hayes Valley,27,SF
"610 Waller St, San Francisco, CA 94117",2,1,0,zillow_sf,http://www.zillow.com/homedetails/610-Waller-St-San-Francisco-CA-94117/2101207449_zpid/,-122.434,37.7707,50.5041,,,rental,4300,closed,29,2015-10-03,2015-09-04,Hayes Valley,27,SF
"185 Franklin St, San Francisco, CA 94102",2,1,900,zillow_sf,http://www.zillow.com/homedetails/185-Franklin-St-San-Francisco-CA-94102/2101118127_zpid/,-122.421,37.7758,17.7048,,,rental,3200,closed,5,2015-10-03,2015-09-28,Hayes Valley,27,SF
539 Octavia Street #19,0,1,190,climbsf_rented,http://www.climbsf.com/for-rent/539-octavia-st-19/,-122.425,37.7773,21.7199,,,rental,1700,closed,,2015-09-09,,Hayes Valley,27,SF
55 Page Street #614,1,1,865,climbsf_renting,http://www.climbsf.com/for-rent/55-page-st-614/,-122.422,37.774,13.962,,,rental,4475,closed,13,2015-10-10,2015-09-27,Hayes Valley,27,SF
121 Steiner Street,3,1,1600,climbsf_renting,http://www.climbsf.com/for-rent/121-steiner-st/,-122.432,37.7703,48.3507,,,rental,6500,closed,11,2015-10-10,2015-09-29,Hayes Valley,27,SF
"139 Steiner St # A, San Francisco, CA 94117",3,2,1000,zillow_sf,http://www.zillow.com/homedetails/139-Steiner-St-A-San-Francisco-CA-94117/2108568579_zpid/,-122.432,37.7704,48.0621,2008,0,rental,6200,open,,,2015-09-22,Hayes Valley,27,SF
"1415 Hudson Ave, San Francisco, CA 94124",3,2,0,zillow_sf,http://www.zillow.com/homedetails/1415-Hudson-Ave-San-Francisco-CA-94124/2101576020_zpid/,-122.385,37.7381,28.9279,,,rental,6500,open,,,2015-08-11,Hunters Point 0,28,SF
"Friedell St San Francisco, CA 94124",3,3,0,zillow_sf,http://www.zillow.com/homedetails/Friedell-St-San-Francisco-CA-94124/2101015294_zpid/,-122.37,37.7281,27.1471,,,rental,4375,closed,6,2015-10-03,2015-09-27,Hunters Point 0,28,SF
252 Granada Avenue,2,2,1600,climbsf_rented,http://www.climbsf.com/for-rent/252-granada-ave/,-122.457,37.723,93.974,,,rental,3950,closed,,2015-07-21,,Ingleside,30,SF
"44 Ashton Ave, San Francisco, CA 94112",3,1,1250,zillow_sf,http://www.zillow.com/homedetails/44-Ashton-Ave-San-Francisco-CA-94112/15190491_zpid/,-122.462,37.719,143.477,1948,0,rental,4750,open,,,2015-09-29,Ingleside,30,SF
"374 Victoria St, San Francisco, CA 94132",3,1,1350,zillow_sf,http://www.zillow.com/homedetails/374-Victoria-St-San-Francisco-CA-94132/15193169_zpid/,-122.465,37.7175,141.75,,,rental,2850,open,,,2012-09-24,Ingleside Heights,31,SF
"3981 Alemany Blvd, San Francisco, CA 94132",2,2,1014,zillow_sf,http://www.zillow.com/homedetails/3981-Alemany-Blvd-San-Francisco-CA-94132/2121453845_zpid/,-122.469,37.7104,72.0073,,,rental,3500,open,,,2015-08-27,Ingleside Heights,31,SF
"8400 Oceanview Ter APT 216, San Francisco, CA 94132",1,1,514,zillow_sf,http://www.zillow.com/homedetails/8400-Oceanview-Ter-APT-216-San-Francisco-CA-94132/67394905_zpid/,-122.468,37.7098,78.519,,,rental,2400,open,,,2015-09-21,Ingleside Heights,31,SF
"8400 Oceanview Ter APT 112, San Francisco, CA 94132",1,1,669,zillow_sf,http://www.zillow.com/homedetails/8400-Oceanview-Ter-APT-112-San-Francisco-CA-94132/67394982_zpid/,-122.468,37.7098,78.519,2002,0,rental,2500,open,,,2015-09-28,Ingleside Heights,31,SF
"El Plazuela St San Francisco Ca San Francisco, CA 94127",1,1,500,zillow_sf,http://www.zillow.com/homedetails/El-Plazuela-St-San-Francisco-Ca-San-Francisco-CA-94127/2101448349_zpid/,-122.471,37.7276,69.9077,,,rental,2995,open,,,2015-08-10,Ingleside Terrace,32,SF
"Junipero Serra Blvd San Francisco, CA 94127",3,4,1888,zillow_sf,http://www.zillow.com/homedetails/Junipero-Serra-Blvd-San-Francisco-CA-94127/2101439889_zpid/,-122.472,37.7283,68.5882,,,rental,5495,closed,33,2015-10-04,2015-09-01,Ingleside Terrace,32,SF
555 Bartlett Street #413,2,2,1135,climbsf_rented,http://www.climbsf.com/for-rent/555-bartlett-st-413/,-122.419,37.7484,29.7804,,,rental,4050,closed,,2013-09-10,,Inner Mission,33,SF
2125 Bryant Street #102,2,2,1311,climbsf_rented,http://www.climbsf.com/for-rent/2125-bryant-st-102/,-122.41,37.7593,6.89281,,,rental,5300,closed,,2013-12-17,,Inner Mission,33,SF
1515 15th Street,0,1,0,climbsf_rented,http://www.climbsf.com/for-rent/1515-15th-st/,-122.418,37.7666,6.28037,,,rental,3000,closed,,2015-10-04,,Inner Mission,33,SF
2125 Bryant Street #303,1,1,730,climbsf_rented,http://www.climbsf.com/for-rent/2125-bryant-st-303/,-122.41,37.7593,6.89281,,,rental,3450,closed,,2014-10-08,,Inner Mission,33,SF
2633 Harrison St.,2,1,1300,climbsf_rented,http://www.climbsf.com/for-rent/2633-harrison-st/,-122.412,37.7552,14.5822,,,rental,4600,closed,,2014-10-14,,Inner Mission,33,SF
720 York Street #214,1,1,700,climbsf_rented,http://www.climbsf.com/for-rent/720-york-st-214/,-122.409,37.7596,8.59589,,,rental,3500,closed,,2014-12-02,,Inner Mission,33,SF
45 Bartlett Street #315,1,1,500,climbsf_rented,http://www.climbsf.com/for-rent/45-bartlett-st-315/,-122.42,37.7558,20.5014,,,rental,3000,closed,,2015-04-09,,Inner Mission,33,SF
45 Bartlett Street #706,2,2,905,climbsf_rented,http://www.climbsf.com/for-rent/45-bartlett-st-706/,-122.42,37.7558,20.5014,,,rental,4500,closed,,2015-04-09,,Inner Mission,33,SF
1875 Mission Street #407,1,1,645,climbsf_rented,http://www.climbsf.com/for-rent/1875-mission-st-407/,-122.419,37.7671,8.75175,,,rental,3200,closed,,2015-04-16,,Inner Mission,33,SF
45 Bartlett Street #705,2,2,905,climbsf_rented,http://www.climbsf.com/for-rent/45-bartlett-st-705/,-122.42,37.7558,20.5014,,,rental,4500,closed,,2015-05-07,,Inner Mission,33,SF
45 Bartlett Street #302,1,1,905,climbsf_rented,http://www.climbsf.com/for-rent/45-bartlett-st-302/,-122.42,37.7558,20.5014,,,rental,4100,closed,,2015-05-18,,Inner Mission,33,SF
891 York Street,2,1,900,climbsf_rented,http://www.climbsf.com/for-rent/891-york-st/,-122.409,37.7579,11.6432,,,rental,3400,closed,,2015-06-16,,Inner Mission,33,SF
2101 Bryant Street #205,1,1,900,climbsf_rented,http://www.climbsf.com/for-rent/2101-bryant-st-205/,-122.41,37.7605,8.10185,,,rental,3900,closed,,2015-06-24,,Inner Mission,33,SF
2735 Folsom Street,4,3,1800,climbsf_rented,http://www.climbsf.com/for-rent/2735-folsom-st/,-122.414,37.7535,19.7453,,,rental,11000,closed,,2015-07-21,,Inner Mission,33,SF
163 Capp Street,2,1,720,climbsf_rented,http://www.climbsf.com/for-rent/163-capp-st/,-122.418,37.7641,5.98293,,,rental,3900,closed,,2015-07-27,,Inner Mission,33,SF
555 Bartlett Street #409,2,2,0,climbsf_rented,http://www.climbsf.com/for-rent/555-bartlett-st-409/,-122.419,37.7484,29.7804,,,rental,0,closed,,2015-10-04,,Inner Mission,33,SF
345 Bartlett Street,1,1,500,climbsf_renting,http://www.climbsf.com/for-rent/345-bartlett-st/,-122.419,37.7515,28.5096,,,rental,3300,closed,23,2015-09-15,2015-08-23,Inner Mission,33,SF
2130 Harrison Street #20,2,1,0,climbsf_renting,http://www.climbsf.com/for-rent/2130-harrison-st-20/,-122.413,37.7629,1.35629,,,rental,5000,closed,7,2015-10-04,2015-09-27,Inner Mission,33,SF
"20th St San Francisco, CA 94110",3,2,1900,zillow_sf,http://www.zillow.com/homedetails/20th-St-San-Francisco-CA-94110/2104136356_zpid/,-122.416,37.7588,10.3318,,,rental,10000,open,,,2014-12-09,Inner Mission,33,SF
"20th St San Francisco, CA 94110",0,1,0,zillow_sf,http://www.zillow.com/homedetails/20th-St-San-Francisco-CA-94110/2104086315_zpid/,-122.416,37.7588,10.3318,,,rental,3750,open,,,2014-12-12,Inner Mission,33,SF
"2600 18th St, San Francisco, CA 94110",2,2,1636,zillow_sf,http://www.zillow.com/homedetails/2600-18th-St-San-Francisco-CA-94110/2102295925_zpid/,-122.408,37.7621,13.2362,1999,0,rental,6000,closed,9,2015-10-07,2015-09-28,Inner Mission,33,SF
"Capp St San Francisco, CA 94110",5,6,0,zillow_sf,http://www.zillow.com/homedetails/Capp-St-San-Francisco-CA-94110/2101943192_zpid/,-122.418,37.7563,17.7511,,,rental,15000,closed,108,2015-10-04,2015-06-18,Inner Mission,33,SF
"Folsom St San Francisco, CA 94110",4,3,1800,zillow_sf,http://www.zillow.com/homedetails/Folsom-St-San-Francisco-CA-94110/2103430042_zpid/,-122.414,37.7493,22.8167,,,rental,10500,open,,,2015-06-24,Inner Mission,33,SF
"Hoff St San Francisco, CA 94110",3,1,0,zillow_sf,http://www.zillow.com/homedetails/Hoff-St-San-Francisco-CA-94110/2101528217_zpid/,-122.421,37.7642,6.03033,,,rental,6495,open,,,2015-07-31,Inner Mission,33,SF
"Bartlett St San Francisco, CA 94110",3,2,1560,zillow_sf,http://www.zillow.com/homedetails/Bartlett-St-San-Francisco-CA-94110/2101519779_zpid/,-122.42,37.7525,28.4123,,,rental,6500,open,,,2015-08-04,Inner Mission,33,SF
"20th St San Francisco, CA 94110",1,1,900,zillow_sf,http://www.zillow.com/homedetails/20th-St-San-Francisco-CA-94110/2104705655_zpid/,-122.416,37.7588,10.3318,,0,rental,6200,closed,63,2015-10-07,2015-08-05,Inner Mission,33,SF
"2637 Folsom St, San Francisco, CA 94110",0,1,0,zillow_sf,http://www.zillow.com/homedetails/2637-Folsom-St-San-Francisco-CA-94110/2101397488_zpid/,-122.414,37.7551,16.5922,,,rental,2500,open,,,2015-08-14,Inner Mission,33,SF
"730 Florida St, San Francisco, CA 94110",2,3,1590,zillow_sf,http://www.zillow.com/homedetails/730-Florida-St-San-Francisco-CA-94110/2101707211_zpid/,-122.411,37.7599,6.0987,,,rental,5000,open,,,2015-08-14,Inner Mission,33,SF
"1043 Valencia St APT 1, San Francisco, CA 94110",3,2,2300,zillow_sf,http://www.zillow.com/homedetails/1043-Valencia-St-APT-1-San-Francisco-CA-94110/2121384753_zpid/,-122.421,37.7561,25.5778,,,rental,6995,open,,,2015-08-16,Inner Mission,33,SF
"3189 21st St, San Francisco, CA 94110",3,2,0,zillow_sf,http://www.zillow.com/homedetails/3189-21st-St-San-Francisco-CA-94110/2101835054_zpid/,-122.418,37.7569,18.1325,,0,rental,5785,open,,,2015-09-04,Inner Mission,33,SF
2125 Bryant Street #202,1,1,728,climbsf_renting,http://www.climbsf.com/for-rent/2125-bryant-st-202/,-122.41,37.7593,6.89281,,,rental,3700,closed,4,2015-10-01,2015-09-27,Inner Mission,33,SF
"413 Valencia St UNIT 403, San Francisco, CA 94103",2,2,783,zillow_sf,http://www.zillow.com/homedetails/413-Valencia-St-UNIT-403-San-Francisco-CA-94103/123597078_zpid/,-122.422,37.7663,12.0961,,,rental,4950,closed,8,2015-10-12,2015-10-04,Inner Mission,33,SF
"720 York St, San Francisco, CA 94110",1,1,555,zillow_sf,http://www.zillow.com/homedetails/720-York-St-San-Francisco-CA-94110/2101876885_zpid/,-122.409,37.7596,8.59589,1999,0,rental,3995,open,,,2015-10-03,Inner Mission,33,SF
2923 23rd Street #2,5,4,2200,climbsf_renting,http://www.climbsf.com/for-rent/23rd-st-at-alabama-st/,-122.411,37.7541,16.5889,,,rental,11000,open,,,2015-10-09,Inner Mission,33,SF
"625 Quintara St, San Francisco, CA 94116",2,1,1400,zillow_sf,http://www.zillow.com/homedetails/625-Quintara-St-San-Francisco-CA-94116/15118173_zpid/,-122.472,37.7486,162.838,,,rental,4550,open,,,2015-08-21,Inner Parkside,34,SF
"2570 16th Ave, San Francisco, CA 94116",3,2,2000,zillow_sf,http://www.zillow.com/homedetails/2570-16th-Ave-San-Francisco-CA-94116/15123074_zpid/,-122.472,37.74,112.268,1928,0,rental,4700,open,,,2015-09-30,Inner Parkside,34,SF
"1421 Ulloa St, San Francisco, CA 94116",2,1,1375,zillow_sf,http://www.zillow.com/homedetails/1421-Ulloa-St-San-Francisco-CA-94116/15123092_zpid/,-122.472,37.7411,125.218,,,rental,4000,open,,,2015-08-24,Inner Parkside,34,SF
"2202 17th Ave, San Francisco, CA 94116",3,3,1852,zillow_sf,http://www.zillow.com/homedetails/2202-17th-Ave-San-Francisco-CA-94116/15119883_zpid/,-122.474,37.7467,142.124,,,rental,7000,open,,,2015-08-28,Inner Parkside,34,SF
"16th Ave San Francisco, CA 94116",3,2,0,zillow_sf,http://www.zillow.com/homedetails/16th-Ave-San-Francisco-CA-94116/2101154625_zpid/,-122.473,37.745,133.216,,0,rental,9500,closed,23,2015-10-04,2015-09-11,Inner Parkside,34,SF
"2023 17th Ave, San Francisco, CA 94116",2,1,1203,zillow_sf,http://www.zillow.com/homedetails/2023-17th-Ave-San-Francisco-CA-94116/15115600_zpid/,-122.474,37.7501,146.064,1928,0,rental,4550,open,,,2015-09-20,Inner Parkside,34,SF
"11th Ave San Francisco, CA 94118",2,2,1100,zillow_sf,http://www.zillow.com/homedetails/11th-Ave-San-Francisco-CA-94118/2103990577_zpid/,-122.469,37.7805,55.245,,,rental,5200,open,,,2014-12-20,Inner Richmond,35,SF
"(Undisclosed Address) San Francisco, CA 94118",3,3,2200,zillow_sf,http://www.zillow.com/homedetails/(Undisclosed-Address)-San-Francisco-CA-94118/2113290978_zpid/,-122.464,37.7823,57.6666,,0,rental,8900,closed,237,2015-10-04,2015-02-09,Inner Richmond,35,SF
"10th Ave San Francisco, CA 94118",3,2,1400,zillow_sf,http://www.zillow.com/homedetails/10th-Ave-San-Francisco-CA-94118/2104136173_zpid/,-122.469,37.7798,57.2283,,,rental,8300,open,,,2015-04-23,Inner Richmond,35,SF
"7th Ave San Francisco, CA 94118",4,2,2000,zillow_sf,http://www.zillow.com/homedetails/7th-Ave-San-Francisco-CA-94118/2108584490_zpid/,-122.465,37.7809,54.7552,,,rental,10500,open,,,2015-07-27,Inner Richmond,35,SF
"735 Market St # 1, San Francisco, CA 94103",2,2,1700,zillow_sf,http://www.zillow.com/homedetails/735-Market-St-1-San-Francisco-CA-94103/2101952159_zpid/,-122.472,37.7743,68.8378,,1,rental,15000,closed,113,2015-10-07,2015-06-16,Inner Richmond,35,SF
"266 5th Ave # 3, San Francisco, CA 94118",3,2,2200,zillow_sf,http://www.zillow.com/homedetails/266-5th-Ave-3-San-Francisco-CA-94118/2132318123_zpid/,-122.463,37.7836,57.8585,2009,1,rental,5000,closed,19,2015-10-07,2015-09-18,Inner Richmond,35,SF
"620 11th Ave, San Francisco, CA 94118",3,1,2340,zillow_sf,http://www.zillow.com/homedetails/620-11th-Ave-San-Francisco-CA-94118/15098209_zpid/,-122.469,37.7766,69.107,,,rental,4950,closed,30,2015-10-03,2015-09-03,Inner Richmond,35,SF
"421 Arguello Blvd APT 202, San Francisco, CA 94118",3,2,1700,zillow_sf,http://www.zillow.com/homedetails/421-Arguello-Blvd-APT-202-San-Francisco-CA-94118/2101118473_zpid/,-122.459,37.7827,63.6203,2012,0,rental,6000,closed,21,2015-10-07,2015-09-16,Inner Richmond,35,SF
"10th Ave San Francisco, CA 94118",2,1,1294,zillow_sf,http://www.zillow.com/homedetails/10th-Ave-San-Francisco-CA-94118/2101097608_zpid/,-122.469,37.7798,57.2283,,,rental,3495,open,,,2015-09-18,Inner Richmond,35,SF
"317 2nd Ave, San Francisco, CA 94118",3,1,1400,zillow_sf,http://www.zillow.com/homedetails/317-2nd-Ave-San-Francisco-CA-94118/15091588_zpid/,-122.46,37.7825,61.8661,1890,0,rental,6000,open,,,2015-10-10,Inner Richmond,35,SF
"3rd Ave San Francisco, CA 94118",4,3,3400,zillow_sf,http://www.zillow.com/homedetails/3rd-Ave-San-Francisco-CA-94118/2100870535_zpid/,-122.461,37.7802,58.6156,,0,rental,13000,open,,,2015-10-12,Inner Richmond,35,SF
"42 Hugo St, San Francisco, CA 94122",1,1,957,zillow_sf,http://www.zillow.com/homedetails/42-Hugo-St-San-Francisco-CA-94122/15102390_zpid/,-122.459,37.7654,89.0639,,,rental,4200,open,,,2015-07-28,Inner Sunset,36,SF
"1544 8th Ave, San Francisco, CA 94122",3,2,1752,zillow_sf,http://www.zillow.com/homedetails/1544-8th-Ave-San-Francisco-CA-94122/15106179_zpid/,-122.465,37.7595,105.23,,,rental,6500,open,,,2015-08-19,Inner Sunset,36,SF
"9th Ave San Francisco, CA 94122",0,1,450,zillow_sf,http://www.zillow.com/homedetails/9th-Ave-San-Francisco-CA-94122/2103580102_zpid/,-122.466,37.7626,82.5523,,,rental,2500,open,,,2015-01-28,Inner Sunset,36,SF
"168 18th Ave, San Francisco, CA 94121",5,4,4500,zillow_sf,http://www.zillow.com/homedetails/168-18th-Ave-San-Francisco-CA-94121/2101426700_zpid/,-122.476,37.7616,76.2994,,,rental,8900,open,,,2015-08-22,Inner Sunset,36,SF
"11th Ave San Francisco, CA 94122",3,2,2105,zillow_sf,http://www.zillow.com/homedetails/11th-Ave-San-Francisco-CA-94122/2101246371_zpid/,-122.469,37.7659,72.8103,,,rental,7000,open,,,2015-09-01,Inner Sunset,36,SF
855 Lincoln Way #3,3,2,1360,climbsf_renting,http://www.climbsf.com/for-rent/855-lincoln-way-3/,-122.467,37.7657,76.874,,,rental,4975,open,,,2015-10-03,Inner Sunset,36,SF
"21 Mayfair Dr, San Francisco, CA 94118",2,1,0,zillow_sf,http://www.zillow.com/homedetails/21-Mayfair-Dr-San-Francisco-CA-94118/2103995739_zpid/,-122.45,37.786,87.2128,,,rental,5300,open,,,2015-09-12,Jordan Park / Laurel Heights,37,SF
"30 Blake St, San Francisco, CA 94118",2,1,1010,zillow_sf,http://www.zillow.com/homedetails/30-Blake-St-San-Francisco-CA-94118/15083575_zpid/,-122.451,37.7832,79.671,1900,0,rental,4500,open,,,2015-09-15,Jordan Park / Laurel Heights,37,SF
"Arguello Blvd San Francisco, CA 94118",3,1,1040,zillow_sf,http://www.zillow.com/homedetails/Arguello-Blvd-San-Francisco-CA-94118/2101126760_zpid/,-122.459,37.7816,64.3418,,,rental,5490,open,,,2015-09-16,Jordan Park / Laurel Heights,37,SF
"421 Arguello Blvd APT 202, San Francisco, CA 94118",3,2,1700,zillow_sf,http://www.zillow.com/homedetails/421-Arguello-Blvd-APT-202-San-Francisco-CA-94118/2101118473_zpid/,-122.459,37.7827,63.6203,2012,0,rental,6000,closed,21,2015-10-07,2015-09-16,Jordan Park / Laurel Heights,37,SF
"145 Collins St, San Francisco, CA 94118",4,1,2400,zillow_sf,http://www.zillow.com/homedetails/145-Collins-St-San-Francisco-CA-94118/15083559_zpid/,-122.451,37.7833,85.0893,1914,0,rental,8500,open,,,2015-09-27,Jordan Park / Laurel Heights,37,SF
"153 Parker Ave, San Francisco, CA 94118",3,1,1258,zillow_sf,http://www.zillow.com/homedetails/153-Parker-Ave-San-Francisco-CA-94118/122245423_zpid/,-122.455,37.7827,69.046,1904,0,rental,5450,open,,,2015-09-27,Jordan Park / Laurel Heights,37,SF
"Lake St San Francisco, CA 94121",2,1,900,zillow_sf,http://www.zillow.com/homedetails/Lake-St-San-Francisco-CA-94121/2101099264_zpid/,-122.485,37.7858,43.4589,,0,rental,3580,closed,3,2015-10-04,2015-10-01,Lake Street,38,SF
"143 Riverton Dr, San Francisco, CA 94132",2,1,1208,zillow_sf,http://www.zillow.com/homedetails/143-Riverton-Dr-San-Francisco-CA-94132/15197901_zpid/,-122.487,37.7316,38.0306,,,rental,5250,open,,,2015-08-04,Lake Shore,39,SF
"136 Meadowbrook Dr, San Francisco, CA 94132",3,1,1500,zillow_sf,http://www.zillow.com/homedetails/136-Meadowbrook-Dr-San-Francisco-CA-94132/15197425_zpid/,-122.484,37.7318,43.1875,1941,1,rental,4000,closed,17,2015-10-07,2015-09-20,Lake Shore,39,SF
"136 Meadowbrook Dr, San Francisco, CA 94132",3,1,1500,zillow_sf,http://www.zillow.com/homedetails/136-Meadowbrook-Dr-San-Francisco-CA-94132/2101421708_zpid/,-122.484,37.7318,43.1875,,,rental,4300,open,,,2015-08-12,Lake Shore,39,SF
"166 Middlefield Dr, San Francisco, CA 94132",4,3,1747,zillow_sf,http://www.zillow.com/homedetails/166-Middlefield-Dr-San-Francisco-CA-94132/15197962_zpid/,-122.486,37.7313,38.5509,,,rental,6250,closed,12,2015-10-01,2015-09-19,Lake Shore,39,SF
"230 N Lake Merced Hills # Top Floor, San Francisco, CA 94132",2,2,1474,zillow_sf,http://www.zillow.com/homedetails/230-N-Lake-Merced-Hills-Top-Floor-San-Francisco-CA-94132/2100990893_zpid/,-122.489,37.7233,29.8797,1975,0,rental,3950,open,,,2015-09-29,Lake Shore,39,SF
"4001 Ocean Ave, San Francisco, CA 94132",3,2,1660,zillow_sf,http://www.zillow.com/homedetails/4001-Ocean-Ave-San-Francisco-CA-94132/15197896_zpid/,-122.487,37.732,38.8411,1950,0,rental,4995,open,,,2015-10-06,Lake Shore,39,SF
3156 Turk Street #A,4,2,2100,climbsf_rented,http://www.climbsf.com/for-rent/3156-turk-st-a/,-122.458,37.7776,69.3169,,,rental,5000,closed,,2013-08-09,,Lone Mountain,41,SF
155 Wood Street #155,3,2,0,climbsf_rented,http://www.climbsf.com/for-rent/155-wood-st-155/,-122.449,37.7815,83.0102,,,rental,4200,closed,,2015-10-04,,Lone Mountain,41,SF
184 Cook Street,1,1,625,climbsf_rented,http://www.climbsf.com/for-rent/184-cook-st/,-122.452,37.7808,77.5204,,,rental,2800,closed,,2014-11-05,,Lone Mountain,41,SF
"343 Parker Ave, San Francisco, CA 94118",1,1,650,zillow_sf,http://www.zillow.com/homedetails/343-Parker-Ave-San-Francisco-CA-94118/15084614_zpid/,-122.454,37.7793,97.9339,1958,1,rental,4000,closed,15,2015-10-07,2015-09-22,Lone Mountain,41,SF
"355 Parker Ave, San Francisco, CA 94118",2,1,950,zillow_sf,http://www.zillow.com/homedetails/355-Parker-Ave-San-Francisco-CA-94118/15084590_zpid/,-122.454,37.7792,97.5095,,,rental,4150,open,,,2015-08-09,Lone Mountain,41,SF
"677 Arguello Boulevard # FL 3RD, San Francisco, CA 94118",1,1,0,zillow_sf,http://www.zillow.com/homedetails/677-Arguello-Boulevard-FL-3RD-San-Francisco-CA-94118/2101336590_zpid/,-122.459,37.778,64.6781,,,rental,3500,open,,,2015-08-22,Lone Mountain,41,SF
"310 Stanyan St APT 101, San Francisco, CA 94118",1,1,754,zillow_sf,http://www.zillow.com/homedetails/310-Stanyan-St-APT-101-San-Francisco-CA-94118/15085405_zpid/,-122.454,37.7754,96.146,1964,0,rental,3200,closed,31,2015-10-13,2015-09-12,Lone Mountain,41,SF
"662 Arguello Blvd, San Francisco, CA 94118",3,1,1039,zillow_sf,http://www.zillow.com/homedetails/662-Arguello-Blvd-San-Francisco-CA-94118/89239251_zpid/,-122.458,37.7778,66.7123,,,rental,4950,closed,14,2015-10-08,2015-09-24,Lone Mountain,41,SF
"122 Stanyan St, San Francisco, CA 94118",4,3,1492,zillow_sf,http://www.zillow.com/homedetails/122-Stanyan-St-San-Francisco-CA-94118/15084579_zpid/,-122.455,37.7794,83.4486,1936,0,rental,6995,open,,,2015-09-24,Lone Mountain,41,SF
2712A Pine Street,2,1,0,climbsf_rented,http://www.climbsf.com/for-rent/2712a-pine-st/,-122.441,37.7873,55.6704,,,rental,3700,closed,,2015-10-04,,Lower Pacific Heights,42,SF
2075 Sutter Street #521,2,2,1068,climbsf_rented,http://www.climbsf.com/for-rent/2075-sutter-st-521/,-122.435,37.7857,46.3843,,,rental,4100,closed,,2013-07-16,,Lower Pacific Heights,42,SF
1600 Webster Street #308,1,1,0,climbsf_rented,http://www.climbsf.com/for-rent/1600-webster-st-308/,-122.431,37.7854,42.4765,,,rental,3200,closed,,2015-10-04,,Lower Pacific Heights,42,SF
1521 Sutter Street #206,2,2,952,climbsf_rented,http://www.climbsf.com/for-rent/1521-sutter-st-206/,-122.426,37.7867,71.2571,,,rental,4650,closed,,2015-02-03,,Lower Pacific Heights,42,SF
"(Undisclosed Address) San Francisco, CA 94115",2,1,900,zillow_sf,http://www.zillow.com/homedetails/(Undisclosed-Address)-San-Francisco-CA-94115/2115405120_zpid/,-122.438,37.7878,54.0165,,0,rental,4250,open,,,2014-06-13,Lower Pacific Heights,42,SF
"Post St San Francisco, CA 94115",3,3,2600,zillow_sf,http://www.zillow.com/homedetails/Post-St-San-Francisco-CA-94115/2107187031_zpid/,-122.437,37.7846,44.8212,,0,rental,24000,closed,42,2015-10-04,2015-08-23,Lower Pacific Heights,42,SF
"(Undisclosed Address) San Francisco, CA 94115",1,1,1250,zillow_sf,http://www.zillow.com/homedetails/(Undisclosed-Address)-San-Francisco-CA-94115/2115405233_zpid/,-122.438,37.7878,54.0165,,,rental,3875,closed,17,2015-10-03,2015-09-16,Lower Pacific Heights,42,SF
"2434 Pine St, San Francisco, CA 94115",3,2,1300,zillow_sf,http://www.zillow.com/homedetails/2434-Pine-St-San-Francisco-CA-94115/15075220_zpid/,-122.437,37.7878,48.2978,,,rental,8000,open,,,2015-07-08,Lower Pacific Heights,42,SF
"2207 Pine St, San Francisco, CA 94115",3,1,1516,zillow_sf,http://www.zillow.com/homedetails/2207-Pine-St-San-Francisco-CA-94115/53734144_zpid/,-122.432,37.788,62.79,1900,0,rental,5995,closed,32,2015-10-07,2015-09-05,Lower Pacific Heights,42,SF
"2309A California St, San Francisco, CA 94115",2,1,1530,zillow_sf,http://www.zillow.com/homedetails/2309A-California-St-San-Francisco-CA-94115/2101199127_zpid/,-122.433,37.7888,66.5177,1900,0,rental,6500,closed,32,2015-10-07,2015-09-05,Lower Pacific Heights,42,SF
"2550-A Sutter St, San Francisco, CA 94115",3,1,1500,zillow_sf,http://www.zillow.com/homedetails/2550-A-Sutter-St-San-Francisco-CA-94115/2109513440_zpid/,-122.442,37.7849,52.6082,,0,rental,5995,closed,37,2015-10-07,2015-08-31,Lower Pacific Heights,42,SF
"1742 Broderick St, San Francisco, CA 94115",4,2,2049,zillow_sf,http://www.zillow.com/homedetails/1742-Broderick-St-San-Francisco-CA-94115/2101104881_zpid/,-122.442,37.7866,55.237,,0,rental,8500,open,,,2015-10-05,Lower Pacific Heights,42,SF
"2428 Bush St, San Francisco, CA 94115",2,1,0,zillow_sf,http://www.zillow.com/homedetails/2428-Bush-St-San-Francisco-CA-94115/2101027553_zpid/,-122.437,37.7868,51.1282,,,rental,3800,closed,6,2015-10-01,2015-09-25,Lower Pacific Heights,42,SF
"538 Presidio Ave, San Francisco, CA 94115",3,3,1690,zillow_sf,http://www.zillow.com/homedetails/538-Presidio-Ave-San-Francisco-CA-94115/63165637_zpid/,-122.446,37.7867,79.2923,2004,0,rental,8000,closed,13,2015-10-13,2015-09-30,Lower Pacific Heights,42,SF
"2887 Bush St APT 1, San Francisco, CA 94115",1,1,700,zillow_sf,http://www.zillow.com/homedetails/2887-Bush-St-APT-1-San-Francisco-CA-94115/2120540825_zpid/,-122.445,37.7854,69.2633,1910,0,rental,3800,open,,,2015-09-30,Lower Pacific Heights,42,SF
"2162 Pine St APT 202, San Francisco, CA 94115",0,1,0,zillow_sf,http://www.zillow.com/homedetails/2162-Pine-St-APT-202-San-Francisco-CA-94115/2117704792_zpid/,-122.431,37.7885,72.2236,,,rental,2795,closed,2,2015-10-04,2015-10-02,Lower Pacific Heights,42,SF
"2548 Pine St, San Francisco, CA 94115",1,1,1000,zillow_sf,http://www.zillow.com/homedetails/2548-Pine-St-San-Francisco-CA-94115/15075257_zpid/,-122.438,37.7877,50.8546,1885,0,rental,4750,open,,,2015-10-07,Lower Pacific Heights,42,SF
1921 Jefferson Street #302,1,1,550,climbsf_rented,http://www.climbsf.com/for-rent/1921-jefferson-st-302/,-122.444,37.8044,6.60398,,,rental,2600,closed,,2013-10-29,,Marina,43,SF
1837 Jefferson Street,2,2,1345,climbsf_rented,http://www.climbsf.com/for-rent/1837-jefferson-st/,-122.443,37.8045,6.83862,,,rental,6200,closed,,2014-03-04,,Marina,43,SF
101 Marina Boulevard,3,3,3000,climbsf_rented,http://www.climbsf.com/for-rent/101-marina-blvd/,-122.434,37.805,6.16826,,,rental,9800,closed,,2014-06-11,,Marina,43,SF
1839 Jefferson Street,2,2,1460,climbsf_rented,http://www.climbsf.com/for-rent/1839-jefferson-st/,-122.443,37.8048,5.30748,,,rental,6400,closed,,2014-07-14,,Marina,43,SF
1735 Beach Street,2,2,2200,climbsf_rented,http://www.climbsf.com/for-rent/1735-beach-st/,-122.438,37.804,7.70247,,,rental,7400,closed,,2014-08-11,,Marina,43,SF
1737 Beach Street,3,3,0,climbsf_rented,http://www.climbsf.com/for-rent/1737-beach-st/,-122.438,37.8042,6.6914,,,rental,8500,closed,,2015-10-04,,Marina,43,SF
"400 Avila St APT 306, San Francisco, CA 94123",2,1,758,zillow_sf,http://www.zillow.com/homedetails/400-Avila-St-APT-306-San-Francisco-CA-94123/15069915_zpid/,-122.441,37.805,6.82622,1991,1,rental,4699,open,,,2015-09-17,Marina,43,SF
"Greenwich Street # Top Floor San Francisco, CA 94123",3,2,1500,zillow_sf,http://www.zillow.com/homedetails/Greenwich-Street-Top-Floor-San-Francisco-CA-94123/2102303309_zpid/,-122.438,37.802,11.0714,,,rental,10000,open,,,2015-05-14,Marina,43,SF
"Francisco St San Francisco, CA 94123",3,1,2150,zillow_sf,http://www.zillow.com/homedetails/Francisco-St-San-Francisco-CA-94123/2101885768_zpid/,-122.431,37.8024,18.0267,,0,rental,7250,closed,103,2015-10-04,2015-06-23,Marina,43,SF
"9 Fort Mason, San Francisco, CA 94123",2,1,0,zillow_sf,http://www.zillow.com/homedetails/9-Fort-Mason-San-Francisco-CA-94123/2101383752_zpid/,-122.426,37.8055,28.4117,,,rental,5665,open,,,2015-08-17,Marina,43,SF
"121 Avila St, San Francisco, CA 94123",3,2,2200,zillow_sf,http://www.zillow.com/homedetails/121-Avila-St-San-Francisco-CA-94123/15070275_zpid/,-122.441,37.8016,10.5275,,,rental,10995,open,,,2015-07-24,Marina,43,SF
"Jefferson St San Francisco, CA 94123",2,2,2193,zillow_sf,http://www.zillow.com/homedetails/Jefferson-St-San-Francisco-CA-94123/2101205609_zpid/,-122.442,37.8049,5.20921,1935,0,rental,8000,closed,4,2015-10-04,2015-09-30,Marina,43,SF
"1921 Jefferson St APT 305, San Francisco, CA 94123",2,2,934,zillow_sf,http://www.zillow.com/homedetails/1921-Jefferson-St-APT-305-San-Francisco-CA-94123/15079692_zpid/,-122.444,37.8044,6.60398,,,rental,5200,open,,,2015-09-06,Marina,43,SF
"3701 Divisadero Street # FL 1ST, San Francisco, CA 94123",2,2,0,zillow_sf,http://www.zillow.com/homedetails/3701-Divisadero-Street-FL-1ST-San-Francisco-CA-94123/2101155236_zpid/,-122.444,37.8038,7.16316,,,rental,5500,closed,20,2015-10-01,2015-09-11,Marina,43,SF
"2375 Francisco St, San Francisco, CA 94123",2,2,1750,zillow_sf,http://www.zillow.com/homedetails/2375-Francisco-St-San-Francisco-CA-94123/2101093902_zpid/,-122.444,37.8005,11.8821,,,rental,6000,closed,9,2015-10-03,2015-09-24,Marina,43,SF
"2222 Francisco St, San Francisco, CA 94123",2,1,1450,zillow_sf,http://www.zillow.com/homedetails/2222-Francisco-St-San-Francisco-CA-94123/2100908260_zpid/,-122.442,37.8013,10.0806,,,rental,4650,closed,4,2015-10-12,2015-10-08,Marina,43,SF
"3700 Divisadero St APT 302, San Francisco, CA 94123",2,2,1249,zillow_sf,http://www.zillow.com/homedetails/3700-Divisadero-St-APT-302-San-Francisco-CA-94123/15079635_zpid/,-122.443,37.8039,6.80693,1993,0,rental,1250000,closed,,2015-10-10,,Marina,43,SF
"740 Head St, San Francisco, CA 94132",3,2,1450,zillow_sf,http://www.zillow.com/homedetails/740-Head-St-San-Francisco-CA-94132/15189538_zpid/,-122.464,37.7204,104.647,1964,0,rental,4200,open,,,2015-09-29,Merced Heights,44,SF
"3040 25th Ave, San Francisco, CA 94132",3,2,1407,zillow_sf,http://www.zillow.com/homedetails/3040-25th-Ave-San-Francisco-CA-94132/15196600_zpid/,-122.481,37.7319,52.5078,1937,0,rental,5195,closed,8,2015-10-07,2015-09-29,Merced Manor,45,SF
"1 Greenview Ct, San Francisco, CA 94131",4,2,1436,zillow_sf,http://www.zillow.com/homedetails/1-Greenview-Ct-San-Francisco-CA-94131/15131290_zpid/,-122.452,37.7532,189.881,1957,0,rental,4580,open,,,2015-09-04,Midtown Terrace,46,SF
"Portola Dr San Francisco, CA 94131",2,2,1200,zillow_sf,http://www.zillow.com/homedetails/Portola-Dr-San-Francisco-CA-94131/2101081898_zpid/,-122.448,37.7469,171.448,1996,0,rental,4000,closed,13,2015-10-04,2015-09-21,Midtown Terrace,46,SF
"47 Knollview Way, San Francisco, CA 94131",2,1,1000,zillow_sf,http://www.zillow.com/homedetails/47-Knollview-Way-San-Francisco-CA-94131/15132051_zpid/,-122.451,37.75,210.782,1958,0,rental,3995,open,,,2015-10-09,Midtown Terrace,46,SF
"506 Rockdale Dr, San Francisco, CA 94127",3,2,2400,zillow_sf,http://www.zillow.com/homedetails/506-Rockdale-Dr-San-Francisco-CA-94127/15134620_zpid/,-122.449,37.7395,208.368,,,rental,6250,open,,,2015-08-21,Miraloma Park,47,SF
"Los Palmos Dr San Francisco, CA 94127",4,3,0,zillow_sf,http://www.zillow.com/homedetails/Los-Palmos-Dr-San-Francisco-CA-94127/2102157502_zpid/,-122.452,37.7345,172.734,,0,rental,7995,closed,23,2015-10-04,2015-09-11,Miraloma Park,47,SF
"435 Marietta Dr, San Francisco, CA 94127",5,3,1897,zillow_sf,http://www.zillow.com/homedetails/435-Marietta-Dr-San-Francisco-CA-94127/15136109_zpid/,-122.445,37.7379,173.342,,,rental,10000,open,,,2015-07-16,Miraloma Park,47,SF
"Foerster St San Francisco, CA 94127",3,2,0,zillow_sf,http://www.zillow.com/homedetails/Foerster-St-San-Francisco-CA-94127/2102314158_zpid/,-122.449,37.7344,137.681,,0,rental,4500,closed,3,2015-10-04,2015-10-01,Miraloma Park,47,SF
"269 Molimo Dr, San Francisco, CA 94127",3,2,1456,zillow_sf,http://www.zillow.com/homedetails/269-Molimo-Dr-San-Francisco-CA-94127/15135994_zpid/,-122.451,37.7365,190.489,,,rental,4250,open,,,2015-09-05,Miraloma Park,47,SF
"53 Stanford Heights Ave, San Francisco, CA 94127",2,1,963,zillow_sf,http://www.zillow.com/homedetails/53-Stanford-Heights-Ave-San-Francisco-CA-94127/15136290_zpid/,-122.45,37.7348,159.803,1960,0,rental,3800,closed,5,2015-10-07,2015-10-02,Miraloma Park,47,SF
480 Mission Bay Blvd. North #1007,2,2,1576,climbsf_rented,http://www.climbsf.com/for-rent/480-mission-bay-blvd-north-1007/,-122.389,37.7711,2.48954,,,rental,4500,closed,,1969-12-31,,Mission Bay,48,SF
480 Mission Bay Boulevard North #1608,2,2,1344,climbsf_rented,http://www.climbsf.com/for-rent/480-mission-bay-blvd-n-1608/,-122.389,37.7711,2.48954,,,rental,5475,closed,,2013-07-15,,Mission Bay,48,SF
435 China Basin Street #634,2,2,0,climbsf_rented,http://www.climbsf.com/for-rent/435-china-basin-st-634/,-122.389,37.7716,1.8728,,,rental,5475,closed,,2015-10-04,,Mission Bay,48,SF
435 China Basin Street #441,2,2,0,climbsf_rented,http://www.climbsf.com/for-rent/435-china-basin-st-441/,-122.389,37.7716,1.8728,,,rental,4900,closed,,2015-10-04,,Mission Bay,48,SF
420 Mission Bay Boulevard North #308,2,2,0,climbsf_rented,http://www.climbsf.com/for-rent/420-mission-bay-blvd-n-308/,-122.388,37.7712,2.25164,,,rental,4975,closed,,2015-10-04,,Mission Bay,48,SF
325 China Basin Street #607,2,2,1777,climbsf_rented,http://www.climbsf.com/for-rent/325-china-basin-st-607/,-122.387,37.7716,1.65683,,,rental,5950,closed,,2014-10-08,,Mission Bay,48,SF
435 China Basin Street #118,1,1,900,climbsf_rented,http://www.climbsf.com/for-rent/435-china-basin-st-118/,-122.389,37.7716,1.8728,,,rental,3625,closed,,2014-11-24,,Mission Bay,48,SF
435 China Basin Street #639,2,2,1590,climbsf_rented,http://www.climbsf.com/for-rent/435-china-basin-st-639/,-122.389,37.7716,1.8728,,,rental,6100,closed,,2014-12-18,,Mission Bay,48,SF
420 Mission Bay Boulevard North #121,1,1,980,climbsf_rented,http://www.climbsf.com/for-rent/420-mission-bay-blvd-n-121/,-122.388,37.7712,2.25164,,,rental,3975,closed,,2015-07-21,,Mission Bay,48,SF
480 Mission Bay Boulevard North #PH1606,2,2,1576,climbsf_renting,http://www.climbsf.com/for-rent/480-mission-bay-blvd-n-ph1606/,-122.393,37.7731,2.3413,,,rental,7500,closed,10,2015-09-02,2015-08-23,Mission Bay,48,SF
435 China Basin Street #630,2,2,0,climbsf_renting,http://www.climbsf.com/for-rent/435-china-basin-st-630/,-122.389,37.7716,1.8728,,,rental,5600,closed,,2015-10-04,,Mission Bay,48,SF
"435 China Basin St, San Francisco, CA 94158",2,2,1593,zillow_sf,http://www.zillow.com/homedetails/435-China-Basin-St-San-Francisco-CA-94158/2115710005_zpid/,-122.389,37.7716,1.8728,2012,1,rental,9000,open,,,2015-08-13,Mission Bay,48,SF
"480 Mission Bay Blvd N, San Francisco, CA 94158",2,2,1350,zillow_sf,http://www.zillow.com/homedetails/480-Mission-Bay-Blvd-N-San-Francisco-CA-94158/2115695534_zpid/,-122.389,37.7707,2.09847,,,rental,6500,closed,16,2015-10-01,2015-09-15,Mission Bay,48,SF
"3rd St San Francisco, CA 94107",0,1,581,zillow_sf,http://www.zillow.com/homedetails/3rd-St-San-Francisco-CA-94107/2100924836_zpid/,-122.389,37.7656,4.44317,1990,0,rental,3100,open,,,2015-10-08,Mission Bay,48,SF
"421 16th St # 401, San Francisco, CA 94158",2,2,1021,zillow_sf,http://www.zillow.com/homedetails/421-16th-St-401-San-Francisco-CA-94158/2100906695_zpid/,-122.388,37.7669,2.98241,2014,0,rental,5000,open,,,2015-10-08,Mission Bay,48,SF
"3rd St San Francisco, CA 94107",1,1,940,zillow_sf,http://www.zillow.com/homedetails/3rd-St-San-Francisco-CA-94107/2100883334_zpid/,-122.389,37.7656,4.44317,1990,0,rental,3499,open,,,2015-10-11,Mission Bay,48,SF
3664 19th Street,2,1,0,climbsf_rented,http://www.climbsf.com/for-rent/3664-19th-st/,-122.425,37.7601,12.8498,,,rental,4800,closed,,2015-10-04,,Mission Dolores,49,SF
198 Dolores Street #6,1,1,750,climbsf_rented,http://www.climbsf.com/for-rent/198-dolores-st-6/,-122.427,37.7665,21.8358,,,rental,3400,closed,,2014-11-24,,Mission Dolores,49,SF
35 Dolores Street #410,2,2,1000,climbsf_rented,http://www.climbsf.com/for-rent/35-dolores-st-410/,-122.427,37.7686,33.7334,,,rental,6050,closed,,2015-02-25,,Mission Dolores,49,SF
49A Elgin Park,0,1,385,climbsf_rented,http://www.climbsf.com/for-rent/49a-elgin-park/,-122.423,37.7707,16.7287,,,rental,2200,closed,,2015-08-03,,Mission Dolores,49,SF
"188 Albion St, San Francisco, CA 94110",1,1,837,zillow_sf,http://www.zillow.com/homedetails/188-Albion-St-San-Francisco-CA-94110/2101508260_zpid/,-122.423,37.7635,9.50619,,,rental,4575,open,,,2015-08-21,Mission Dolores,49,SF
"Market St San Francisco, CA 94114",1,1,455,zillow_sf,http://www.zillow.com/homedetails/Market-St-San-Francisco-CA-94114/2101338542_zpid/,-122.426,37.7696,35.2097,,,rental,3000,open,,,2015-08-21,Mission Dolores,49,SF
"25 Dolores Ter, San Francisco, CA 94110",2,2,1300,zillow_sf,http://www.zillow.com/homedetails/25-Dolores-Ter-San-Francisco-CA-94110/2101203877_zpid/,-122.425,37.7627,12.908,2015,0,rental,8500,open,,,2015-10-12,Mission Dolores,49,SF
"168 Clinton Park, San Francisco, CA 94103",1,1,0,zillow_sf,http://www.zillow.com/homedetails/168-Clinton-Park-San-Francisco-CA-94103/2101198541_zpid/,-122.424,37.7693,21.4311,,,rental,3300,closed,11,2015-10-04,2015-09-23,Mission Dolores,49,SF
"700 Valencia St APT 8, San Francisco, CA 94110",3,3,1068,zillow_sf,http://www.zillow.com/homedetails/700-Valencia-St-APT-8-San-Francisco-CA-94110/119685865_zpid/,-122.422,37.7616,6.56237,2011,1,rental,8200,closed,31,2015-10-07,2015-09-06,Mission Dolores,49,SF
"38 Camp St # 38, San Francisco, CA 94110",3,2,1650,zillow_sf,http://www.zillow.com/homedetails/38-Camp-St-38-San-Francisco-CA-94110/2101138613_zpid/,-122.423,37.764,10.4919,2013,0,rental,9000,open,,,2015-09-14,Mission Dolores,49,SF
"1950A 15th St, San Francisco, CA 94114",3,1,1750,zillow_sf,http://www.zillow.com/homedetails/1950A-15th-St-San-Francisco-CA-94114/2101088852_zpid/,-122.428,37.7664,25.0842,1909,0,rental,6000,open,,,2015-09-21,Mission Dolores,49,SF
"728 Guerrero St, San Francisco, CA 94110",0,1,400,zillow_sf,http://www.zillow.com/homedetails/728-Guerrero-St-San-Francisco-CA-94110/15145008_zpid/,-122.424,37.7595,13.4299,1914,0,rental,2650,open,,,2015-10-08,Mission Dolores,49,SF
"Market St San Francisco, CA 94114",2,2,1200,zillow_sf,http://www.zillow.com/homedetails/Market-St-San-Francisco-CA-94114/2101096892_zpid/,-122.426,37.7696,35.2097,,,rental,4995,open,,,2015-09-18,Mission Dolores,49,SF
217 Theresa Street,2,1,0,climbsf_rented,http://www.climbsf.com/for-rent/217-theresa-st/,-122.436,37.7296,40.1391,,,rental,0,closed,,2015-10-04,,Mission Terrace,50,SF
55 Junior Terrace,3,1,0,climbsf_rented,http://www.climbsf.com/for-rent/55-junior-terrace/,-122.441,37.7198,57.3815,,,rental,3800,closed,,2015-10-04,,Mission Terrace,50,SF
"(Undisclosed Address) San Francisco, CA 94112",2,3,1500,zillow_sf,http://www.zillow.com/homedetails/(Undisclosed-Address)-San-Francisco-CA-94112/2115533261_zpid/,-122.441,37.7225,51.9032,,0,rental,3500,closed,319,2015-10-04,2014-11-19,Mission Terrace,50,SF
"Mission St San Francisco, CA 94112",2,2,844,zillow_sf,http://www.zillow.com/homedetails/Mission-St-San-Francisco-CA-94112/2101706096_zpid/,-122.438,37.7206,57.4539,,,rental,2950,open,,,2015-08-21,Mission Terrace,50,SF
"156 Onondaga Ave, San Francisco, CA 94112",3,2,1600,zillow_sf,http://www.zillow.com/homedetails/156-Onondaga-Ave-San-Francisco-CA-94112/15188201_zpid/,-122.441,37.7226,52.5529,,,rental,4600,closed,29,2015-10-06,2015-09-07,Mission Terrace,50,SF
"242 Cayuga Ave, San Francisco, CA 94112",2,1,1474,zillow_sf,http://www.zillow.com/homedetails/242-Cayuga-Ave-San-Francisco-CA-94112/15186431_zpid/,-122.434,37.7306,38.3822,1931,1,rental,3950,open,,,2015-09-24,Mission Terrace,50,SF
"430 Capistrano Ave, San Francisco, CA 94112",2,1,1200,zillow_sf,http://www.zillow.com/homedetails/430-Capistrano-Ave-San-Francisco-CA-94112/15141129_zpid/,-122.439,37.7252,44.4608,1924,0,rental,4200,closed,1,2015-10-03,2015-10-02,Mission Terrace,50,SF
"31 Navajo Ave, San Francisco, CA 94112",4,2,1800,zillow_sf,http://www.zillow.com/homedetails/31-Navajo-Ave-San-Francisco-CA-94112/15188527_zpid/,-122.444,37.7197,53.857,1929,0,rental,4690,closed,9,2015-10-07,2015-09-28,Mission Terrace,50,SF
"68 Lyell St, San Francisco, CA 94112",2,1,1012,zillow_sf,http://www.zillow.com/homedetails/68-Lyell-St-San-Francisco-CA-94112/15185585_zpid/,-122.432,37.7316,38.8773,1930,0,rental,4400,open,,,2015-10-09,Mission Terrace,50,SF
682 28th Street,2,2,2300,climbsf_rented,http://www.climbsf.com/for-rent/682-28th-st/,-122.437,37.7449,164.08,,,rental,4500,closed,,2013-03-19,,Noe Valley,53,SF
1414 Douglass Street,4,2,1697,climbsf_rented,http://www.climbsf.com/for-rent/1414-douglass-st/,-122.438,37.7452,167.066,,,rental,7400,closed,,2015-06-15,,Noe Valley,53,SF
460 Valley Street,2,2,1446,climbsf_rented,http://www.climbsf.com/for-rent/460-valley-st/,-122.433,37.7444,99.0145,,,rental,5400,closed,,2015-07-21,,Noe Valley,53,SF
"3879 23rd St, San Francisco, CA 94114",5,4,2600,zillow_sf,http://www.zillow.com/homedetails/3879-23rd-St-San-Francisco-CA-94114/15147154_zpid/,-122.429,37.753,65.3769,,,rental,11000,open,,,2015-07-26,Noe Valley,53,SF
"208 28th St APT 302, San Francisco, CA 94131",3,3,1655,zillow_sf,http://www.zillow.com/homedetails/208-28th-St-APT-302-San-Francisco-CA-94131/116156967_zpid/,-122.427,37.7453,46.6234,,,rental,9000,open,,,2015-08-13,Noe Valley,53,SF
"Jersey St San Francisco, CA 94114",2,1,920,zillow_sf,http://www.zillow.com/homedetails/Jersey-St-San-Francisco-CA-94114/2103262096_zpid/,-122.432,37.7506,54.0433,,0,rental,4700,closed,226,2015-10-04,2015-02-20,Noe Valley,53,SF
"Dolores St San Francisco, CA 94110",1,1,800,zillow_sf,http://www.zillow.com/homedetails/Dolores-St-San-Francisco-CA-94110/2102215886_zpid/,-122.425,37.7534,36.1778,,0,rental,4000,closed,135,2015-10-04,2015-05-22,Noe Valley,53,SF
"23rd St San Francisco, CA 94114",0,1,500,zillow_sf,http://www.zillow.com/homedetails/23rd-St-San-Francisco-CA-94114/2102187752_zpid/,-122.434,37.7529,86.3255,,,rental,3350,open,,,2015-05-26,Noe Valley,53,SF
"25th St San Francisco, CA 94114",2,1,750,zillow_sf,http://www.zillow.com/homedetails/25th-St-San-Francisco-CA-94114/2103580042_zpid/,-122.434,37.7497,69.0145,,0,rental,4900,closed,105,2015-10-07,2015-06-24,Noe Valley,53,SF
"Fair Oaks St San Francisco, CA 94110",3,1,1500,zillow_sf,http://www.zillow.com/homedetails/Fair-Oaks-St-San-Francisco-CA-94110/2103579775_zpid/,-122.424,37.7519,47.2938,,0,rental,5995,closed,100,2015-10-04,2015-06-26,Noe Valley,53,SF
"99 High St, San Francisco, CA 94114",3,2,0,zillow_sf,http://www.zillow.com/homedetails/99-High-St-San-Francisco-CA-94114/2101574676_zpid/,-122.443,37.7482,168.302,,,rental,6895,open,,,2015-07-28,Noe Valley,53,SF
"Homestead St San Francisco, CA 94114",2,1,0,zillow_sf,http://www.zillow.com/homedetails/Homestead-St-San-Francisco-CA-94114/2104705026_zpid/,-122.439,37.7494,111.096,,,rental,2500,open,,,2015-08-03,Noe Valley,53,SF
"29th St San Francisco, CA 94131",2,2,0,zillow_sf,http://www.zillow.com/homedetails/29th-St-San-Francisco-CA-94131/2101453679_zpid/,-122.43,37.7435,56.5286,,,rental,4995,open,,,2015-09-19,Noe Valley,53,SF
"959 Corbett Ave APT 14, San Francisco, CA 94131",2,1,1002,zillow_sf,http://www.zillow.com/homedetails/959-Corbett-Ave-APT-14-San-Francisco-CA-94131/15131822_zpid/,-122.443,37.7516,169.471,,,rental,4300,open,,,2015-08-12,Noe Valley,53,SF
"1151 Church St, San Francisco, CA 94114",2,1,940,zillow_sf,http://www.zillow.com/homedetails/1151-Church-St-San-Francisco-CA-94114/79843714_zpid/,-122.427,37.7525,56.8306,,,rental,5475,open,,,2015-08-21,Noe Valley,53,SF
"Diamond Heights Blvd San Francisco, CA 94131",4,3,0,zillow_sf,http://www.zillow.com/homedetails/Diamond-Heights-Blvd-San-Francisco-CA-94131/2101343786_zpid/,-122.438,37.7438,162.077,,0,rental,8000,closed,44,2015-10-04,2015-08-21,Noe Valley,53,SF
"45 Clipper St, San Francisco, CA 94114",2,1,915,zillow_sf,http://www.zillow.com/homedetails/45-Clipper-St-San-Francisco-CA-94114/64972939_zpid/,-122.426,37.7491,55.0362,,,rental,5500,closed,32,2015-10-09,2015-09-07,Noe Valley,53,SF
"179 Chattanooga St, San Francisco, CA 94114",2,1,1200,zillow_sf,http://www.zillow.com/homedetails/179-Chattanooga-St-San-Francisco-CA-94114/2103720107_zpid/,-122.426,37.7537,47.3367,,,rental,4000,closed,33,2015-10-03,2015-08-31,Noe Valley,53,SF
"653 28th St, San Francisco, CA 94131",3,1,1400,zillow_sf,http://www.zillow.com/homedetails/653-28th-St-San-Francisco-CA-94131/15199488_zpid/,-122.437,37.7444,154.737,1940,0,rental,6000,closed,33,2015-10-07,2015-09-04,Noe Valley,53,SF
"45 Clipper St # A, San Francisco, CA 94114",1,1,750,zillow_sf,http://www.zillow.com/homedetails/45-Clipper-St-A-San-Francisco-CA-94114/2101192608_zpid/,-122.426,37.7491,55.0362,,,rental,4400,closed,27,2015-10-09,2015-09-12,Noe Valley,53,SF
"1562 Dolores St, San Francisco, CA 94110",3,2,1400,zillow_sf,http://www.zillow.com/homedetails/1562-Dolores-St-San-Francisco-CA-94110/15183140_zpid/,-122.425,37.7443,46.2503,1900,1,rental,5895,open,,,2015-09-16,Noe Valley,53,SF
"1314 Dolores St, San Francisco, CA 94110",3,1,1200,zillow_sf,http://www.zillow.com/homedetails/1314-Dolores-St-San-Francisco-CA-94110/89237789_zpid/,-122.425,37.7484,53.8907,1904,1,rental,6990,closed,10,2015-10-07,2015-09-27,Noe Valley,53,SF
"362 Jersey St, San Francisco, CA 94114",2,1,1352,zillow_sf,http://www.zillow.com/homedetails/362-Jersey-St-San-Francisco-CA-94114/15180192_zpid/,-122.433,37.7508,61.9098,,,rental,4995,open,,,2014-08-20,Noe Valley,53,SF
"1457 Noe St, San Francisco, CA 94131",3,3,2000,zillow_sf,http://www.zillow.com/homedetails/1457-Noe-St-San-Francisco-CA-94131/15182716_zpid/,-122.431,37.7457,87.7399,1926,0,rental,9500,open,,,2015-10-04,Noe Valley,53,SF
"1324 Castro St, San Francisco, CA 94114",3,1,1385,zillow_sf,http://www.zillow.com/homedetails/1324-Castro-St-San-Francisco-CA-94114/2101051467_zpid/,-122.434,37.7509,64.828,,,rental,5500,closed,7,2015-10-03,2015-09-26,Noe Valley,53,SF
"754 Grand View Ave, San Francisco, CA 94114",2,2,1862,zillow_sf,http://www.zillow.com/homedetails/754-Grand-View-Ave-San-Francisco-CA-94114/15132662_zpid/,-122.443,37.7484,159.156,1995,0,rental,7500,open,,,2015-09-28,Noe Valley,53,SF
